     2.10           OBSERVATION DATA    G (GPS)             RINEX VERSION / TYPE
RTKCONV 2.4.2                           20161014 212731 UTC PGM / RUN BY / DATE 
log: C:\Users\macshen\Desktop\hp_1014.ubx                   COMMENT             
format: u-blox                                              COMMENT             
                                                            MARKER NAME         
                                                            MARKER NUMBER       
                                                            OBSERVER / AGENCY   
                                                            REC # / TYPE / VERS 
                                                            ANT # / TYPE        
   517531.0118 -4696407.9380  4270461.4284                  APPROX POSITION XYZ 
        0.0000        0.0000        0.0000                  ANTENNA: DELTA H/E/N
     1     1                                                WAVELENGTH FACT L1/2
     4    C1    L1    D1    S1                              # / TYPES OF OBSERV 
  1980     1    11    20    49   27.8320000     GPS         TIME OF FIRST OBS   
  2016    10    14    21     3   55.2000000     GPS         TIME OF LAST OBS    
                                                            END OF HEADER       
 80  1 11 20 49 27.8320000  0  8G29G24G18G20G 4G 5G13G15
  22266931.035       18831.7632      -2770.065          48.000  
  23434710.286      -24952.0862       3933.103          42.000  
  21562803.529      -15286.2702       2452.874          45.000  
  19761927.412        2426.4062       -258.251          45.000  
  22687363.128       16032.0052      -2413.768          41.000  
  23520822.155       15826.6522      -2309.112          40.000  
  20953566.922       10021.3442      -1420.240          46.000  
  19700272.844       -1165.6102        292.562          47.000  
 80  1 11 20 49 28.0000000  0  8G29G24G18G20G 4G 5G13G15
  22267019.665       19297.1392      -2770.078          48.000  
  23434584.191      -25612.8292       3933.523          42.000  
  21562724.916      -15698.3692       2453.256          45.000  
  19761935.998        2469.8362       -258.945          45.000  
  22687440.641       16437.5952      -2413.803          41.000  
  23520895.742       16214.6602      -2310.645          40.000  
  20953612.746       10260.0012      -1420.484          46.000  
  19700263.089       -1214.7302        291.913          46.000  
 80  1 11 20 49 28.2000000  0  8G29G24G18G20G 4G 5G13G15
  22267125.431       19851.2622      -2770.480          48.000  
  23434434.136      -26399.3572       3932.280          42.000  
  21562631.365      -16188.8692       2452.560          45.000  
  19761945.648        2521.6402       -258.969          45.000  
  22687533.023       16920.5352      -2414.330          41.000  
  23520984.320       16676.6912      -2310.690          40.000  
  20953666.440       10544.2292      -1421.247          46.000  
  19700253.247       -1273.0952        291.862          47.000  
 80  1 11 20 49 28.4000000  0  9G29G24G18G20G 4G 5G21G13G15
  22267231.074       20405.4882      -2771.766          48.000  
  23434284.309      -27185.7792       3932.115          42.000  
  21562537.675      -16679.2632       2451.866          45.000  
  19761955.368        2573.5462       -259.677          45.000  
  22687624.706       17403.5802      -2416.783          41.000  
  23521071.588       17138.8062      -2310.686          40.000  
  20789862.956      -13566.2762       2071.283          46.000  
  20953720.431       10828.5542      -1422.305          46.000  
  19700242.341       -1331.3412        291.178          47.000  
 80  1 11 20 49 28.6000000  0  9G29G24G18G20G 4G 5G21G13G15
  22267336.892       20959.7902      -2771.898          48.000  
  23434134.778      -27972.1252       3931.375          42.000  
  21562444.368      -17169.6052       2451.390          45.000  
  19761965.174        2625.5452       -260.297          45.000  
  22687716.808       17886.7072      -2415.854          41.000  
  23521159.589       17600.9952      -2310.777          40.000  
  20789784.500      -13980.4902       2070.739          46.000  
  20953774.806       11112.9782      -1422.410          46.000  
  19700231.120       -1389.4952        290.162          47.000  
 80  1 11 20 49 28.8000000  0  9G29G24G18G20G 4G 5G21G13G15
  22267442.082       21514.2072      -2772.386          48.000  
  23433985.439      -28758.3672       3931.415          42.000  
  21562351.062      -17659.8282       2450.570          45.000  
  19761975.278        2677.6542       -260.627          45.000  
  22687808.718       18369.9292      -2416.282          41.000  
  23521247.660       18063.2802      -2310.684          40.000  
  20789706.218      -14394.5652       2070.595          46.000  
  20953828.919       11397.5352      -1422.604          46.000  
  19700220.092       -1447.5082        290.192          47.000  
 80  1 11 20 49 29.0000000  0  9G29G24G18G20G 4G 5G21G13G15
  22267547.726       22068.7212      -2772.850          48.000  
  23433836.134      -29544.5232       3930.592          42.000  
  21562257.721      -18149.9502       2450.267          45.000  
  19761985.067        2729.8622       -261.202          45.000  
  22687900.925       18853.2512      -2416.964          41.000  
  23521335.819       18525.6652      -2312.105          40.000  
  20789627.343      -14808.5602       2069.615          46.000  
  20953883.032       11682.1792      -1423.636          46.000  
  19700209.063       -1505.4232        289.602          47.000  
 80  1 11 20 49 29.2000000  0  9G29G24G18G20G 4G 5G21G13G15
  22267653.142       22623.3002      -2773.477          48.000  
  23433686.673      -30330.6072       3930.402          42.000  
  21562164.676      -18640.0162       2449.269          45.000  
  19761995.101        2782.1432       -261.869          45.000  
  22687992.888       19336.6702      -2417.908          41.000  
  23521423.855       18988.0932      -2312.391          40.000  
  20789548.608      -15222.4782       2069.055          46.000  
  20953937.232       11966.9042      -1424.430          46.000  
  19700197.825       -1563.2542        288.778          47.000  
 80  1 11 20 49 29.4000000  0  9G29G24G18G20G 4G 5G21G13G15
  22267758.769       23178.0002      -2774.015          48.000  
  23433537.177      -31116.5912       3929.413          42.000  
  21562071.213      -19129.9522       2449.518          45.000  
  19762005.205        2834.5502       -262.141          45.000  
  22688084.938       19820.1742      -2417.729          41.000  
  23521512.049       19450.6502      -2313.551          40.000  
  20789469.646      -15636.2722       2068.892          46.000  
  20953991.450       12251.7812      -1424.814          46.000  
  19700186.919       -1620.9442        287.987          47.000  
 80  1 11 20 49 29.6000000  0 10G29G24G18G20G 4G 5G21G10G13G15
  22267864.255       23732.7982      -2774.554          48.000  
  23433387.768      -31902.4852       3928.866          42.000  
  21561977.767      -19619.8032       2448.568          45.000  
  19762015.291        2887.0522       -263.044          45.000  
  22688177.022       20303.7972      -2418.107          41.000  
  23521599.963       19913.2882      -2313.710          40.000  
  20789390.788      -16049.9612       2068.321          46.000  
  24280428.003      -21805.4082       3470.891          35.000  
  20954045.859       12536.7532      -1425.317          46.000  
  19700175.890       -1678.5252        287.610          47.000  
 80  1 11 20 49 29.8000000  0 10G29G24G18G20G 4G 5G21G10G13G15
  22267969.619       24287.7102      -2774.503          48.000  
  23433238.290      -32688.2592       3928.322          42.000  
  21561884.670      -20109.5482       2448.410          45.000  
  19762025.272        2939.6802       -263.301          45.000  
  22688268.863       20787.5522      -2419.125          41.000  
  23521688.034       20376.0452      -2313.846          40.000  
  20789312.244      -16463.5272       2067.428          46.000  
  24280295.120      -22499.5642       3471.068          35.000  
  20954100.025       12821.8552      -1425.469          46.000  
  19700164.879       -1735.9622        287.330          47.000  
 80  1 11 20 49 30.0000000  0 10G29G24G18G20G 4G 5G21G10G13G15
  22268075.106       24842.7182      -2775.491          48.000  
  23433088.794      -33473.9482       3928.504          42.000  
  21561791.398      -20599.1892       2447.712          45.000  
  19762035.428        2992.4062       -263.877          45.000  
  22688361.017       21271.3992      -2419.352          41.000  
  23521775.739       20838.8692      -2315.554          40.000  
  20789233.596      -16876.9872       2067.019          46.000  
  24280162.830      -23193.6542       3469.641          35.000  
  20954154.347       13107.0562      -1426.306          46.000  
  19700154.007       -1793.3102        286.258          47.000  
 80  1 11 20 49 30.2000000  0 10G29G24G18G20G 4G 5G21G10G13G15
  22268180.575       25397.7882      -2775.778          48.000  
  23432939.210      -34259.5892       3928.367          42.000  
  21561698.109      -21088.7772       2447.831          45.000  
  19762045.410        3045.1892       -264.055          45.000  
  22688453.015       21755.2912      -2419.193          41.000  
  23521864.019       21301.7552      -2315.766          40.000  
  20789155.000      -17290.4002       2066.654          46.000  
  24280030.679      -23887.7372       3469.417          35.000  
  20954208.600       13392.3292      -1426.870          46.000  
  19700143.171       -1850.5682        286.240          47.000  
 80  1 11 20 49 30.4000000  0 10G29G24G18G20G 4G 5G21G10G13G15
  22268286.480       25952.9682      -2776.403          48.000  
  23432789.487      -35045.1162       3927.373          42.000  
  21561605.239      -21578.2542       2447.401          45.000  
  19762055.426        3098.0992       -264.662          45.000  
  22688545.030       22239.2882      -2420.252          41.000  
  23521951.933       21764.7632      -2315.532          40.000  
  20789076.370      -17703.6792       2066.148          46.000  
  24279898.982      -24581.6542       3469.862          35.000  
  20954263.010       13677.7402      -1427.375          46.000  
  19700132.212       -1907.6962        285.036          47.000  
 80  1 11 20 49 30.6000000  0 10G29G24G18G20G 4G 5G21G10G13G15
  22268392.211       26508.2502      -2776.120          48.000  
  23432640.008      -35830.5562       3927.246          42.000  
  21561512.194      -22067.6382       2447.042          45.000  
  19762065.564        3151.0952       -265.190          45.000  
  22688637.149       22723.4512      -2420.214          41.000  
  23522040.406       22227.8452      -2315.333          40.000  
  20788997.616      -18116.8722       2065.598          46.000  
  24279766.744      -25275.5102       3468.831          35.000  
  20954317.105       13963.2422      -1427.920          46.000  
  19700121.043       -1964.7232        284.778          47.000  
 80  1 11 20 49 30.8000000  0 10G29G24G18G20G 4G 5G21G10G13G15
  22268497.889       27063.6102      -2776.897          48.000  
  23432490.268      -36615.9112       3926.561          42.000  
  21561419.080      -22556.9502       2446.730          45.000  
  19762075.720        3204.1972       -265.448          45.000  
  22688729.374       23207.6182      -2420.623          41.000  
  23522128.442       22690.9882      -2316.660          40.000  
  20788919.073      -18529.9602       2065.549          46.000  
  24279634.751      -25969.2752       3469.390          35.000  
  20954371.620       14248.8492      -1428.526          46.000  
  19700110.242       -2021.6362        284.418          47.000  
 80  1 11 20 49 31.0000000  0 10G29G24G18G20G 4G 5G21G10G13G15
  22268603.411       27619.0502      -2777.293          48.000  
  23432341.331      -37401.2042       3925.995          42.000  
  21561326.035      -23046.1862       2446.201          45.000  
  19762085.964        3257.3752       -265.858          45.000  
  22688821.546       23691.8982      -2421.789          41.000  
  23522216.705       23154.2172      -2316.123          40.000  
  20788840.425      -18942.9772       2064.926          46.000  
  24279502.583      -26662.9782       3467.951          35.000  
  20954425.768       14534.5422      -1428.525          46.000  
  19700099.300       -2078.4632        284.137          46.000  
 80  1 11 20 49 31.2000000  0 10G29G24G18G20G 4G 5G21G10G13G15
  22268709.054       28174.5652      -2778.086          48.000  
  23432191.817      -38186.4012       3926.326          42.000  
  21561232.886      -23535.3502       2445.071          45.000  
  19762096.190        3310.6252       -266.772          45.000  
  22688913.822       24176.2602      -2421.221          41.000  
  23522304.829       23617.5172      -2316.782          40.000  
  20788761.864      -19355.9132       2063.988          46.000  
  24279370.869      -27356.6002       3468.380          35.000  
  20954480.143       14820.3152      -1429.566          46.000  
  19700088.307       -2135.2102        283.226          47.000  
 80  1 11 20 49 31.4000000  0 10G29G24G18G20G 4G 5G21G10G13G15
  22268814.628       28730.1532      -2777.484          48.000  
  23432042.269      -38971.5562       3925.815          42.000  
  21561139.999      -24024.4222       2445.803          45.000  
  19762106.049        3363.9652       -266.273          45.000  
  22689006.012       24660.6782      -2421.915          41.000  
  23522393.057       24080.8842      -2317.132          40.000  
  20788683.338      -19768.7632       2064.221          46.000  
  24279238.788      -28050.1862       3467.991          35.000  
  20954534.727       15106.1892      -1429.093          46.000  
  19700077.540       -2191.8542        283.277          46.000  
 80  1 11 20 49 31.6000000  0 10G29G24G18G20G 4G 5G21G10G13G15
  22268920.585       29285.8112      -2778.662          48.000  
  23431893.104      -39756.6382       3925.440          42.000  
  21561046.866      -24513.4562       2445.065          45.000  
  19762116.274        3417.3702       -267.331          45.000  
  22689098.027       25145.1882      -2423.018          41.000  
  23522481.599       24544.3092      -2317.587          40.000  
  20788604.689      -20181.5422       2063.688          46.000  
  24279106.934      -28743.6662       3468.185          35.000  
  20954588.857       15392.1302      -1430.498          46.000  
  19700066.738       -2248.4062        282.837          46.000  
 80  1 11 20 49 31.8000000  0 10G29G24G18G20G 4G 5G21G10G13G15
  22269026.055       29841.5512      -2778.812          48.000  
  23431743.782      -40541.6402       3924.873          42.000  
  21560953.595      -25002.3882       2444.379          44.000  
  19762126.343        3470.8692       -267.471          45.000  
  22689190.338       25629.7692      -2423.160          41.000  
  23522569.792       25007.8062      -2318.463          40.000  
  20788526.338      -20594.2302       2063.266          46.000  
  24278975.115      -29437.0882       3467.864          35.000  
  20954643.197       15678.1612      -1430.684          46.000  
  19700056.320       -2304.8712        281.978          46.000  
 16 10 14 20 49 32.0000000  0 10G29G24G18G20G 4G 5G21G10G13G15
  22269131.925       30397.4052      -2779.709          48.000  
  23431594.251      -41326.5562       3924.155          42.000  
  21560860.707      -25491.2132       2443.646          44.000  
  19762136.429        3524.4692       -268.705          45.000  
  22689282.423       26114.4642      -2424.256          41.000  
  23522658.178       25471.4162      -2318.447          40.000  
  20788447.812      -21006.7982       2062.735          46.000  
  24278843.453      -30130.4422       3466.962          35.000  
  20954697.956       15964.3252      -1430.547          46.000  
  19700045.414       -2361.2082        281.309          46.000  
 16 10 14 20 49 32.2000000  0 10G29G24G18G20G 4G 5G21G10G13G15
  22269237.621       30953.3552      -2779.846          48.000  
  23431444.947      -42111.3732       3924.020          42.000  
  21560767.698      -25979.9542       2443.765          44.000  
  19762146.900        3578.1662       -268.373          45.000  
  22689374.700       26599.2532      -2424.816          41.000  
  23522746.633       25935.1112      -2318.325          40.000  
  20788369.164      -21419.2862       2062.110          46.000  
  24278711.669      -30823.6732       3464.721          35.000  
  20954752.610       16250.5902      -1431.044          46.000  
  19700034.647       -2417.4382        280.980          46.000  
 16 10 14 20 49 32.4000000  0 10G29G24G18G20G 4G 5G21G10G13G15
  22269343.265       31509.3312      -2780.375          48.000  
  23431295.364      -42896.1552       3924.174          42.000  
  21560674.775      -26468.6732       2443.590          44.000  
  19762157.160        3631.9112       -268.772          45.000  
  22689466.976       27084.0842      -2424.272          41.000  
  23522834.791       26398.8362      -2318.954          40.000  
  20788290.498      -21831.7262       2062.139          46.000  
  24278579.640      -31516.8932       3465.602          35.000  
  20954806.897       16536.8932      -1432.387          46.000  
  19700024.020       -2473.6192        280.640          46.000  
 16 10 14 20 49 32.6000000  0 10G29G24G18G20G 4G 5G21G10G13G15
  22269449.205       32065.3762      -2780.177          48.000  
  23431146.269      -43680.8952       3923.226          42.000  
  21560581.661      -26957.3172       2443.131          45.000  
  19762167.299        3685.7242       -269.074          45.000  
  22689559.253       27568.9722      -2425.395          41.000  
  23522922.880       26862.6002      -2319.324          40.000  
  20788211.955      -22244.0942       2061.598          46.000  
  24278447.542      -32210.0192       3466.516          35.000  
  20954861.569       16823.2822      -1432.028          46.000  
  19700013.043       -2529.7192        280.531          46.000  
 16 10 14 20 49 32.8000000  0 10G29G24G18G20G 4G 5G21G10G13G15
  22269555.197       32621.4902      -2780.836          48.000  
  23430996.878      -44465.5492       3923.434          42.000  
  21560488.546      -27445.9032       2443.213          45.000  
  19762177.228        3739.6092       -269.364          45.000  
  22689651.460       28053.9332      -2424.394          41.000  
  23523010.794       27326.4482      -2319.557          40.000  
  20788133.620      -22656.3862       2061.493          46.000  
  24278315.740      -32903.1162       3464.437          35.000  
  20954916.345       17109.7572      -1432.491          46.000  
  19700002.398       -2585.7332        280.070          46.000  
 16 10 14 20 49 33.0000000  0 10G29G24G18G20G 4G 5G21G10G13G15
  22269661.225       33177.7092      -2781.130          48.000  
  23430847.591      -45250.1262       3922.677          42.000  
  21560395.589      -27934.3912       2442.169          45.000  
  19762187.471        3793.6042       -270.031          45.000  
  22689743.789       28539.0112      -2425.632          41.000  
  23523099.371       27790.3732      -2319.201          40.000  
  20788055.356      -23068.5692       2060.698          46.000  
  24278184.026      -33596.1182       3464.108          35.000  
  20954970.632       17396.3312      -1432.757          46.000  
  19699992.242       -2641.6332        279.159          46.000  
 16 10 14 20 49 33.2000000  0 10G29G24G18G20G 4G 5G21G10G13G15
  22269767.060       33733.9782      -2781.567          48.000  
  23430698.287      -46034.6572       3922.279          42.000  
  21560302.684      -28422.8252       2442.076          45.000  
  19762197.836        3847.6382       -270.485          45.000  
  22689836.135       29024.1132      -2425.753          41.000  
  23523187.285       28254.3372      -2320.125          40.000  
  20787976.970      -23480.7032       2060.604          46.000  
  24278052.155      -34289.0762       3465.215          35.000  
  20955025.164       17682.9732      -1433.425          46.000  
  19699981.336       -2697.4592        278.754          46.000  
 16 10 14 20 49 33.4000000  0 10G29G24G18G20G 4G 5G21G10G13G15
  22269873.053       34290.3572      -2782.251          48.000  
  23430548.965      -46819.0632       3921.714          42.000  
  21560209.814      -28911.1532       2441.070          45.000  
  19762208.062        3901.8062       -270.996          45.000  
  22689928.761       29509.3992      -2425.992          41.000  
  23523275.723       28718.4192      -2320.673          40.000  
  20787898.758      -23892.7092       2059.867          46.000  
  24277920.231      -34981.9062       3464.874          35.000  
  20955079.853       17969.7532      -1434.419          46.000  
  19699970.971       -2753.1512        278.557          46.000  
 16 10 14 20 49 33.6000000  0 10G29G24G18G20G 4G 5G21G10G13G15
  22269979.045       34846.7932      -2782.501          48.000  
  23430399.696      -47603.4442       3921.404          42.000  
  21560116.961      -29399.4262       2441.386          45.000  
  19762218.654        3956.0212       -271.267          45.000  
  22690020.741       29994.6822      -2426.021          41.000  
  23523363.951       29182.5602      -2320.174          40.000  
  20787820.546      -24304.6722       2059.289          46.000  
  24277788.290      -35674.6882       3463.534          35.000  
  20955134.455       18256.5752      -1434.411          46.000  
  19699960.117       -2808.7882        278.207          46.000  
 16 10 14 20 49 33.8000000  0 10G29G24G18G20G 4G 5G21G10G13G15
  22270084.741       35403.2742      -2782.479          48.000  
  23430250.654      -48387.7602       3921.356          42.000  
  21560024.108      -29887.6462       2440.844          45.000  
  19762228.950        4010.2952       -271.306          45.000  
  22690113.332       30480.0232      -2426.127          41.000  
  23523452.249       29646.7132      -2320.562          40.000  
  20787742.264      -24716.5742       2059.086          46.000  
  24277656.401      -36367.4712       3464.014          35.000  
  20955189.022       18543.4702      -1434.187          46.000  
  19699949.698       -2864.3562        277.874          46.000  
 16 10 14 20 49 34.0000000  0 10G29G24G18G20G 4G 5G21G10G13G15
  22270190.803       35959.8272      -2783.135          48.000  
  23430101.297      -49172.0382       3920.917          42.000  
  21559931.238      -30375.8262       2440.942          45.000  
  19762239.385        4064.6382       -272.211          45.000  
  22690205.574       30965.4182      -2427.472          41.000  
  23523540.652       30110.9432      -2320.843          40.000  
  20787663.773      -25128.4032       2058.953          46.000  
  24277524.565      -37060.1912       3462.422          35.000  
  20955243.553       18830.4352      -1434.846          46.000  
  19699939.106       -2919.8392        277.354          46.000  
 16 10 14 20 49 34.2000000  0 10G29G24G18G20G 4G 5G21G10G13G15
  22270296.464       36516.4442      -2783.179          48.000  
  23429952.203      -49956.2382       3920.747          42.000  
  21559838.386      -30863.9162       2440.899          45.000  
  19762249.593        4119.0502       -272.280          45.000  
  22690298.042       31450.9122      -2427.832          41.000  
  23523628.863       30575.2262      -2320.750          40.000  
  20787585.282      -25540.1612       2059.172          46.000  
  24277392.815      -37752.8072       3463.524          35.000  
  20955298.190       19117.4822      -1435.301          46.000  
  19699928.409       -2975.2382        276.945          46.000  
 16 10 14 20 49 34.4000000  0 10G29G24G18G20G 4G 5G21G10G13G15
  22270402.754       37073.1592      -2784.053          48.000  
  23429803.160      -50740.3532       3920.518          42.000  
  21559745.655      -31351.9232       2440.148          45.000  
  19762260.081        4173.5622       -272.922          45.000  
  22690390.197       31936.4912      -2428.707          41.000  
  23523717.248       31039.5992      -2321.566          40.000  
  20787507.035      -25951.8142       2058.021          46.000  
  24277260.717      -38445.3572       3460.176          35.000  
  20955352.739       19404.6432      -1435.808          46.000  
  19699918.061       -3030.5272        276.273          46.000  
 16 10 14 20 49 34.6000000  0 10G29G24G18G20G 4G 5G21G10G13G15
  22270508.694       37629.9402      -2784.125          48.000  
  23429653.734      -51524.4062       3920.087          42.000  
  21559652.872      -31839.8652       2439.770          44.000  
  19762270.464        4228.1512       -273.187          45.000  
  22690482.700       32422.1562      -2428.638          41.000  
  23523805.721       31504.0252      -2322.871          40.000  
  20787428.928      -26363.4012       2057.373          46.000  
  24277129.125      -39137.8422       3461.345          35.000  
  20955407.236       19691.8762      -1436.605          46.000  
  19699907.504       -3085.7332        276.057          46.000  
 16 10 14 20 49 34.8000000  0 10G29G24G18G20G 4G 5G21G10G13G15
  22270614.599       38186.8132      -2784.143          48.000  
  23429504.377      -52308.3652       3920.249          42.000  
  21559559.880      -32327.7222       2439.333          44.000  
  19762280.724        4282.8352       -273.205          45.000  
  22690574.820       32907.8992      -2428.618          41.000  
  23523894.071       31968.5562      -2322.226          40.000  
  20787350.803      -26774.8922       2057.653          46.000  
  24276997.323      -39830.2252       3461.385          35.000  
  20955462.012       19979.2192      -1436.862          46.000  
  19699896.928       -3140.8292        275.022          46.000  
 16 10 14 20 49 35.0000000  0 10G29G24G18G20G 4G 5G21G10G13G15
  22270720.504       38743.7232      -2784.875          48.000  
  23429354.846      -53092.3312       3919.047          42.000  
  21559466.975      -32815.5462       2438.612          44.000  
  19762291.020        4337.5462       -273.980          45.000  
  22690667.271       33393.6772      -2428.410          41.000  
  23523982.421       32433.0812      -2323.788          40.000  
  20787272.329      -27186.3402       2056.611          46.000  
  24276865.714      -40522.6112       3462.399          35.000  
  20955516.876       20266.5902      -1437.504          46.000  
  19699886.354       -3195.8872        274.921          46.000  
 16 10 14 20 49 35.2000000  0 10G29G24G18G20G 4G 5G21G10G13G15
  22270826.689       39300.7502      -2785.326          48.000  
  23429205.786      -53876.1402       3918.943          42.000  
  21559374.105      -33303.2612       2438.365          44.000  
  19762301.560        4392.3802       -274.542          45.000  
  22690759.565       33879.5652      -2428.790          41.000  
  23524070.946       32897.7362      -2323.199          40.000  
  20787193.960      -27597.6642       2056.730          46.000  
  24276733.999      -41214.8962       3462.153          35.000  
  20955571.582       20554.1042      -1437.912          46.000  
  19699875.883       -3250.8032        274.350          46.000  
 16 10 14 20 49 35.4000000  0 10G29G24G18G20G 4G 5G21G10G13G15
  22270932.455       39857.8012      -2785.450          48.000  
  23429056.622      -54659.9512       3918.997          42.000  
  21559280.973      -33790.9512       2438.324          44.000  
  19762312.379        4447.2412       -274.730          45.000  
  22690851.929       34365.4772      -2429.878          41.000  
  23524159.681       33362.3822      -2323.456          40.000  
  20787115.731      -28008.9692       2056.156          46.000  
  24276602.198      -41907.1352       3461.643          35.000  
  20955626.393       20841.6322      -1438.509          46.000  
  19699865.256       -3305.6842        273.811          46.000  
 16 10 14 20 49 35.6000000  0 10G29G24G18G20G 4G 5G21G10G13G15
  22271038.674       40414.9142      -2785.973          48.000  
  23428907.632      -55443.6842       3918.325          42.000  
  21559188.260      -34278.5602       2438.127          44.000  
  19762322.639        4502.1922       -274.225          45.000  
  22690944.433       34851.4732      -2430.258          41.000  
  23524248.171       33827.1372      -2324.539          40.000  
  20787037.449      -28420.1882       2055.854          46.000  
  24276470.344      -42599.3082       3461.034          35.000  
  20955680.960       21129.2852      -1437.813          46.000  
  19699854.978       -3360.4632        273.926          46.000  
 16 10 14 20 49 35.8000000  0 10G29G24G18G20G 4G 5G21G10G13G15
  22271144.509       40972.1212      -2786.177          48.000  
  23428758.362      -56227.3562       3918.137          42.000  
  21559095.669      -34766.1112       2437.423          44.000  
  19762333.074        4557.2132       -274.984          45.000  
  22691037.041       35337.5542      -2430.813          41.000  
  23524336.590       34291.9392      -2324.216          40.000  
  20786958.748      -28831.3312       2055.567          46.000  
  24276338.856      -43291.4182       3460.538          35.000  
  20955735.561       21416.9802      -1438.505          46.000  
  19699844.682       -3415.1712        273.079          46.000  
 16 10 14 20 49 36.0000000  0 10G29G24G18G20G 4G 5G21G10G13G15
  22271250.519       41529.3722      -2786.316          48.000  
  23428609.373      -57010.9712       3918.030          42.000  
  21559003.113      -35253.6022       2437.597          44.000  
  19762343.684        4612.3002       -275.309          45.000  
  22691129.492       35823.6892      -2430.964          41.000  
  23524424.976       34756.7932      -2325.026          40.000  
  20786880.484      -29242.4072       2055.393          46.000  
  24276207.317      -43983.5082       3460.908          35.000  
  20955790.338       21704.7902      -1439.017          46.000  
  19699834.474       -3469.7782        272.832          46.000  
 16 10 14 20 49 36.2000000  0 10G29G24G18G20G 4G 5G21G10G13G15
  22271356.564       42086.7112      -2786.724          48.000  
  23428459.894      -57794.5232       3917.574          42.000  
  21558910.382      -35741.0112       2436.925          44.000  
  19762354.154        4667.4702       -276.078          45.000  
  22691221.996       36309.9202      -2431.150          41.000  
  23524513.483       35221.7202      -2324.344          40.000  
  20786802.028      -29653.3982       2054.771          46.000  
  24276075.724      -44675.4822       3458.594          35.000  
  20955845.376       21992.6572      -1439.679          46.000  
  19699823.951       -3524.3072        272.403          46.000  
 16 10 14 20 49 36.4000000  0 10G29G24G18G20G 4G 5G21G10G13G15
  22271462.592       42644.1232      -2787.249          48.000  
  23428310.834      -58577.9802       3917.319          42.000  
  21558817.617      -36228.3632       2436.367          44.000  
  19762364.485        4722.7142       -276.548          45.000  
  22691314.569       36796.1942      -2431.425          41.000  
  23524602.043       35686.7232      -2325.093          40.000  
  20786723.833      -30064.3122       2054.626          46.000  
  24275943.975      -45367.4112       3459.368          35.000  
  20955899.855       22280.6192      -1440.042          46.000  
  19699813.708       -3578.7522        271.930          46.000  
 16 10 14 20 49 36.6000000  0 10G29G24G18G20G 4G 5G21G10G13G15
  22271568.585       43201.5862      -2787.222          48.000  
  23428161.530      -59361.4372       3917.108          42.000  
  21558725.009      -36715.6512       2436.754          44.000  
  19762375.025        4778.0182       -276.326          45.000  
  22691407.073       37282.5442      -2431.659          41.000  
  23524690.498       36151.7542      -2324.882          40.000  
  20786645.848      -30475.1732       2054.353          46.000  
  24275812.401      -46059.3222       3460.169          35.000  
  20955954.736       22568.6292      -1440.411          46.000  
  19699803.325       -3633.1042        272.261          46.000  
 16 10 14 20 49 36.8000000  0 10G29G24G18G20G 4G 5G21G10G13G15
  22271674.699       43759.0852      -2787.716          48.000  
  23428012.191      -60144.8322       3916.770          42.000  
  21558631.964      -37202.9242       2435.503          44.000  
  19762385.634        4833.3592       -277.153          45.000  
  22691499.593       37768.8982      -2433.166          41.000  
  23524779.058       36616.8242      -2325.865          40.000  
  20786567.584      -30885.9872       2053.963          46.000  
  24275680.878      -46751.1532       3458.005          34.000  
  20956009.320       22856.7012      -1440.561          46.000  
  19699792.994       -3687.4262        270.997          46.000  
 16 10 14 20 49 37.0000000  0 10G29G24G18G20G 4G 5G21G10G13G15
  22271780.814       44316.6492      -2787.886          48.000  
  23427863.253      -60928.1652       3915.928          42.000  
  21558539.285      -37690.1262       2436.198          44.000  
  19762395.947        4888.7822       -276.859          45.000  
  22691592.044       38255.3712      -2432.368          41.000  
  23524867.652       37081.9642      -2325.941          40.000  
  20786489.686      -31296.7292       2053.586          46.000  
  24275549.129      -47442.9472       3459.260          34.000  
  20956064.253       23144.8542      -1440.635          46.000  
  19699782.489       -3741.6632        271.078          46.000  
 16 10 14 20 49 37.2000000  0 10G29G24G18G20G 4G 5G21G10G13G15
  22271886.894       44874.2752      -2788.461          48.000  
  23427714.455      -61711.4472       3916.923          42.000  
  21558446.642      -38177.2732       2435.137          44.000  
  19762406.260        4944.2412       -277.293          45.000  
  22691684.705       38741.8992      -2432.649          41.000  
  23524956.003       37547.1202      -2326.361          40.000  
  20786411.579      -31707.4052       2053.498          46.000  
  24275417.502      -48134.6452       3460.381          34.000  
  20956119.152       23433.0792      -1441.143          46.000  
  19699772.333       -3795.8322        270.918          46.000  
 16 10 14 20 49 37.4000000  0 10G29G24G18G20G 4G 5G21G10G13G15
  22271993.026       45431.9822      -2788.531          48.000  
  23427565.709      -62494.6702       3915.804          42.000  
  21558353.999      -38664.3382       2435.169          44.000  
  19762416.992        4999.8052       -277.663          45.000  
  22691777.313       39228.4852      -2432.904          41.000  
  23525044.615       38012.3612      -2325.932          40.000  
  20786333.297      -32118.0002       2052.844          46.000  
  24275285.875      -48826.3092       3459.764          34.000  
  20956174.155       23721.3942      -1441.373          46.000  
  19699762.666       -3849.8982        270.171          46.000  
 16 10 14 20 49 37.6000000  0 10G29G24G18G20G 4G 5G21G10G13G15
  22272098.966       45989.7452      -2788.862          48.000  
  23427416.772      -63277.8222       3916.031          42.000  
  21558261.583      -39151.3512       2434.877          45.000  
  19762427.706        5055.4202       -278.485          45.000  
  22691869.992       39715.1482      -2432.855          41.000  
  23525133.105       38477.6642      -2327.470          40.000  
  20786255.539      -32528.5322       2052.560          46.000  
  24275154.579      -49517.9422       3458.716          35.000  
  20956229.228       24009.7662      -1442.235          46.000  
  19699752.318       -3903.8982        269.749          46.000  
 16 10 14 20 49 37.8000000  0 10G29G24G18G20G 4G 5G21G10G13G15
  22272205.045       46547.5502      -2788.707          48.000  
  23427267.712      -64060.9502       3915.640          42.000  
  21558168.922      -39638.3222       2434.747          45.000  
  19762438.054        5111.0822       -278.443          45.000  
  22691963.088       40201.8392      -2433.677          41.000  
  23525221.682       38943.0142      -2326.046          40.000  
  20786177.658      -32939.0272       2052.355          46.000  
  24275022.812      -50209.5562       3457.615          35.000  
  20956284.126       24298.1962      -1442.249          46.000  
  19699742.161       -3957.8362        269.355          46.000  
 16 10 14 20 49 38.0000000  0 10G29G24G18G20G 4G 5G21G10G13G15
  22272311.422       47105.3812      -2789.038          48.000  
  23427118.530      -64844.0502       3915.106          42.000  
  21558076.296      -40125.2632       2434.536          45.000  
  19762448.541        5166.7942       -278.567          45.000  
  22692055.766       40688.5852      -2434.099          41.000  
  23525310.242       39408.3412      -2326.483          40.000  
  20786099.638      -33349.4732       2052.110          46.000  
  24274891.465      -50901.0762       3456.547          35.000  
  20956338.867       24586.6832      -1442.342          46.000  
  19699731.935       -4011.7132        269.474          46.000  
 16 10 14 20 49 38.2000000  0 10G29G24G18G20G 4G 5G21G10G13G15
  22272417.589       47663.2732      -2789.863          48.000  
  23426969.400      -65627.1152       3914.360          42.000  
  21557983.548      -40612.1532       2434.013          45.000  
  19762459.256        5222.5402       -279.291          45.000  
  22692148.409       41175.3582      -2434.093          41.000  
  23525398.697       39873.7742      -2327.507          40.000  
  20786021.549      -33759.8682       2051.296          46.000  
  24274760.099      -51592.5782       3458.646          35.000  
  20956394.132       24875.2132      -1443.477          46.000  
  19699721.430       -4065.5312        268.362          46.000  
 16 10 14 20 49 38.4000000  0 10G29G24G18G20G 4G 5G21G10G13G15
  22272523.809       48221.2522      -2790.244          48.000  
  23426820.498      -66410.0762       3914.105          42.000  
  21557890.835      -41098.9612       2433.299          44.000  
  19762469.866        5278.4042       -279.727          45.000  
  22692241.157       41662.2552      -2434.913          41.000  
  23525487.431       40339.2262      -2328.003          40.000  
  20785943.546      -34170.1572       2050.632          46.000  
  24274628.490      -52283.9752       3457.602          35.000  
  20956448.838       25163.8622      -1443.849          46.000  
  19699711.344       -4119.2402        268.021          46.000  
 16 10 14 20 49 38.6000000  0 10G29G24G18G20G 4G 5G21G10G13G15
  22272629.923       48779.3282      -2790.480          48.000  
  23426671.525      -67192.9432       3914.446          42.000  
  21557798.331      -41585.6772       2433.665          44.000  
  19762480.737        5334.3612       -279.774          45.000  
  22692333.748       42149.1832      -2435.448          41.000  
  23525575.852       40804.8142      -2327.402          40.000  
  20785865.561      -34580.3512       2050.888          46.000  
  24274496.723      -52975.3122       3455.926          34.000  
  20956503.527       25452.6252      -1443.686          46.000  
  19699701.083       -4172.8362        267.987          46.000  
 16 10 14 20 49 38.8000000  0 10G29G24G18G20G 4G 5G21G10G13G15
  22272736.457       49337.4452      -2791.252          48.000  
  23426522.622      -67975.7842       3913.369          41.000  
  21557705.583      -42072.3622       2433.079          45.000  
  19762491.521        5390.3522       -280.218          45.000  
  22692426.426       42636.2432      -2435.977          41.000  
  23525664.673       41270.4272      -2327.712          40.000  
  20785787.506      -34990.5072       2050.380          46.000  
  24274365.183      -53666.6392       3456.327          34.000  
  20956558.513       25741.4032      -1444.356          46.000  
  19699691.119       -4226.3902        267.589          46.000  
 16 10 14 20 49 39.0000000  0 10G29G24G18G20G 4G 5G21G10G13G15
  22272842.519       49895.6292      -2791.089          48.000  
  23426373.719      -68758.5642       3913.724          41.000  
  21557613.149      -42558.9592       2433.111          45.000  
  19762502.131        5446.4212       -280.408          45.000  
  22692518.790       43123.2962      -2436.364          41.000  
  23525753.285       41736.0882      -2329.302          40.000  
  20785709.137      -35400.5822       2049.960          46.000  
  24274233.451      -54357.9022       3455.648          34.000  
  20956613.952       26030.2812      -1444.708          46.000  
  19699680.666       -4279.8562        266.488          46.000  
 16 10 14 20 49 39.2000000  0 10G29G24G18G20G 4G 5G21G10G13G15
  22272949.157       50453.8792      -2791.401          48.000  
  23426224.625      -69541.3062       3914.100          41.000  
  21557520.523      -43045.5152       2432.854          45.000  
  19762512.828        5502.5422       -281.034          45.000  
  22692611.328       43610.4742      -2435.508          41.000  
  23525841.740       42201.8102      -2328.448          40.000  
  20785631.047      -35810.5852       2050.303          46.000  
  24274102.086      -55049.0752       3455.079          35.000  
  20956668.554       26319.2302      -1444.904          46.000  
  19699670.493       -4333.2282        266.843          46.000  
 16 10 14 20 49 39.4000000  0 10G29G24G18G20G 4G 5G21G10G13G15
  22273055.097       51012.1652      -2791.602          48.000  
  23426075.966      -70323.9922       3913.830          41.000  
  21557427.933      -43532.0412       2432.307          45.000  
  19762523.350        5558.7252       -281.184          45.000  
  22692704.181       44097.6532      -2436.165          41.000  
  23525930.108       42667.5572      -2329.424          40.000  
  20785553.027      -36220.5602       2049.607          46.000  
  24273970.477      -55740.2042       3456.161          35.000  
  20956723.539       26608.2372      -1445.376          46.000  
  19699660.319       -4386.5572        266.623          46.000  
 16 10 14 20 49 39.6000000  0 10G29G24G18G20G 4G 5G21G10G13G15
  22273160.968       51570.4962      -2791.822          48.000  
  23425926.714      -71106.6712       3912.883          41.000  
  21557335.342      -44018.5242       2432.636          45.000  
  19762534.483        5614.9422       -281.341          45.000  
  22692796.859       44584.8712      -2436.533          41.000  
  23526018.860       43133.3552      -2328.040          40.000  
  20785475.112      -36630.4822       2049.622          46.000  
  24273839.111      -56431.3642       3455.033          35.000  
  20956778.612       26897.3052      -1445.197          46.000  
  19699650.355       -4439.8412        266.066          46.000  
 16 10 14 20 49 39.8000000  0 10G29G24G18G20G 4G 5G21G10G13G15
  22273267.135       52128.8592      -2792.310          48.000  
  23425777.811      -71889.2972       3912.260          41.000  
  21557243.117      -44504.9672       2431.561          45.000  
  19762544.918        5671.2012       -281.882          45.000  
  22692889.589       45072.1342      -2437.812          41.000  
  23526107.384       43599.1692      -2328.963          40.000  
  20785397.004      -37040.3612       2048.656          46.000  
  24273707.379      -57122.4542       3454.991          35.000  
  20956833.440       27186.3882      -1446.142          46.000  
  19699640.303       -4493.0542        265.888          46.000  
 16 10 14 20 49 40.0000000  0 10G29G24G18G20G 4G 5G21G10G13G15
  22273373.406       52687.3242      -2792.472          47.000  
  23425628.978      -72671.8252       3912.408          41.000  
  21557150.439      -44991.2982       2431.889          45.000  
  19762555.476        5727.5782       -281.841          45.000  
  22692982.494       45559.5212      -2436.827          41.000  
  23526196.101       44065.0822      -2328.534          40.000  
  20785318.915      -37450.1212       2049.074          46.000  
  24273575.927      -57813.4452       3455.172          35.000  
  20956888.443       27475.6142      -1446.198          46.000  
  19699630.357       -4546.1622        265.309          46.000  
 16 10 14 20 49 40.2000000  0 10G29G24G18G20G 4G 5G21G10G13G15
  22273479.713       53245.8242      -2792.527          48.000  
  23425480.128      -73454.3342       3912.676          41.000  
  21557058.005      -45477.6192       2431.585          45.000  
  19762566.033        5783.9812       -282.281          45.000  
  22693075.329       46046.9292      -2437.368          41.000  
  23526284.487       44531.0192      -2329.297          40.000  
  20785240.860      -37859.8772       2048.639          46.000  
  24273444.666      -58504.4362       3456.920          35.000  
  20956943.621       27764.8642      -1446.640          46.000  
  19699620.480       -4599.2172        265.610          46.000  
 16 10 14 20 49 40.4000000  0 10G29G24G18G20G 4G 5G21G10G13G15
  22273586.229       53804.3392      -2792.632          47.000  
  23425331.225      -74236.8192       3912.759          42.000  
  21556965.484      -45963.9302       2431.498          44.000  
  19762577.184        5840.4082       -281.872          45.000  
  22693168.164       46534.3572      -2437.413          41.000  
  23526373.151       44996.9472      -2329.870          40.000  
  20785162.980      -38269.5842       2048.398          46.000  
  24273313.266      -59195.3822       3454.639          35.000  
  20956998.868       28054.1572      -1446.496          46.000  
  19699610.341       -4652.2342        264.590          46.000  
 16 10 14 20 49 40.6000000  0 10G29G24G18G20G 4G 5G21G10G13G15
  22273692.763       54362.9192      -2793.433          47.000  
  23425182.532      -75019.2552       3911.890          42.000  
  21556873.015      -46450.1532       2430.902          44.000  
  19762587.828        5896.9112       -282.593          45.000  
  22693260.877       47021.8712      -2437.618          41.000  
  23526462.095       45462.9612      -2329.194          40.000  
  20785084.977      -38679.2252       2048.141          46.000  
  24273181.569      -59886.3262       3453.036          35.000  
  20957054.133       28343.5302      -1446.917          46.000  
  19699600.185       -4705.1692        264.856          46.000  
 16 10 14 20 49 40.8000000  0 10G29G24G18G20G 4G 5G21G10G13G15
  22273799.244       54921.5652      -2793.022          47.000  
  23425033.908      -75801.6352       3912.213          41.000  
  21556780.110      -46936.3592       2430.917          44.000  
  19762598.525        5953.4562       -283.094          45.000  
  22693353.573       47509.4232      -2438.237          41.000  
  23526551.021       45929.0082      -2329.752          40.000  
  20785007.027      -39088.8042       2048.134          46.000  
  24273049.960      -60577.1382       3455.502          35.000  
  20957109.241       28632.9662      -1447.303          46.000  
  19699590.134       -4758.0372        263.801          46.000  
 16 10 14 20 49 41.0000000  0 10G29G24G18G20G 4G 5G21G10G13G15
  22273905.638       55480.2802      -2793.663          47.000  
  23424885.110      -76583.9332       3911.631          41.000  
  21556687.397      -47422.4482       2430.640          44.000  
  19762609.361        6010.0972       -283.692          45.000  
  22693446.757       47997.0622      -2438.490          41.000  
  23526639.825       46395.1272      -2331.020          40.000  
  20784928.989      -39498.2882       2047.429          46.000  
  24272918.385      -61267.9402       3455.009          35.000  
  20957164.244       28922.4882      -1447.957          46.000  
  19699579.838       -4810.8032        263.375          46.000  
 16 10 14 20 49 41.2000000  0 10G29G24G18G20G 4G 5G21G10G13G15
  22274011.822       56039.0292      -2794.101          47.000  
  23424736.452      -77366.2362       3910.377          41.000  
  21556595.033      -47908.5212       2430.367          44.000  
  19762619.989        6066.7752       -283.266          45.000  
  22693539.714       48484.7292      -2438.625          41.000  
  23526728.507       46861.2682      -2330.699          40.000  
  20784851.266      -39907.7572       2047.032          46.000  
  24272787.159      -61958.6732       3455.236          34.000  
  20957219.177       29212.0432      -1448.544          46.000  
  19699569.630       -4863.5342        263.154          46.000  
 16 10 14 20 49 41.4000000  0 10G29G24G18G20G 4G 5G21G10G13G15
  22274118.216       56597.8732      -2794.219          47.000  
  23424587.793      -78148.4192       3911.060          41.000  
  21556502.459      -48394.5232       2429.858          44.000  
  19762630.843        6123.5442       -283.688          45.000  
  22693632.427       48972.5052      -2438.719          41.000  
  23526817.364       47327.5112      -2331.293          40.000  
  20784773.386      -40317.1072       2046.692          46.000  
  24272655.375      -62649.3772       3454.119          34.000  
  20957274.407       29501.7222      -1448.495          46.000  
  19699559.561       -4916.1372        263.188          46.000  
 16 10 14 20 49 41.6000000  0 10G29G24G18G20G 4G 5G21G10G13G15
  22274224.383       57156.7242      -2794.629          47.000  
  23424438.629      -78930.6222       3909.915          41.000  
  21556409.956      -48880.5022       2429.871          44.000  
  19762641.627        6180.3242       -284.716          45.000  
  22693725.419       49460.2762      -2439.096          41.000  
  23526906.115       47793.7442      -2331.698          40.000  
  20784695.784      -40726.4622       2046.522          46.000  
  24272524.027      -63339.9912       3455.434          34.000  
  20957329.183       29791.4152      -1449.001          46.000  
  19699549.632       -4968.7362        262.916          46.000  
 16 10 14 20 49 41.8000000  0 10G29G24G18G20G 4G 5G21G10G13G15
  22274330.324       57715.6392      -2794.698          47.000  
  23424289.988      -79712.7542       3910.794          41.000  
  21556317.609      -49366.4362       2429.412          44.000  
  19762652.446        6237.1632       -284.431          45.000  
  22693818.080       49948.1122      -2439.538          41.000  
  23526994.728       48260.0202      -2332.093          40.000  
  20784618.044      -41135.7352       2046.476          46.000  
  24272392.697      -64030.6252       3452.626          34.000  
  20957384.047       30081.1752      -1449.053          46.000  
  19699539.685       -5021.2462        262.467          46.000  
 16 10 14 20 49 42.0000000  0 10G29G24G18G20G 4G 5G21G10G13G15
  22274436.770       58274.5952      -2794.791          47.000  
  23424141.120      -80494.8632       3910.346          41.000  
  21556225.402      -49852.3232       2429.806          44.000  
  19762662.863        6294.0622       -284.350          45.000  
  22693910.740       50435.9902      -2439.408          41.000  
  23527083.392       48726.3392      -2332.823          40.000  
  20784540.058      -41544.9802       2046.421          46.000  
  24272260.930      -64721.2142       3451.634          35.000  
  20957439.067       30370.9832      -1448.784          46.000  
  19699529.476       -5073.7122        262.205          46.000  
 16 10 14 20 49 42.2000000  0 10G29G24G18G20G 4G 5G21G10G13G15
  22274543.059       58833.099       -2795.211          47.000  
  23423992.374      -81277.421        3909.995          41.000  
  21556132.863      -50338.145        2429.081          44.000  
  19762673.770        6351.009        -284.994          45.000  
  22694003.802       50923.431       -2439.882          41.000  
  23527172.266       49192.730       -2332.092          39.000  
  20784462.073      -41954.159        2045.463          46.000  
  24272129.530      -65412.276        3452.464          35.000  
  20957494.366       30660.857       -1450.358          46.000  
  19699519.687       -5126.595         261.334          46.000  
 16 10 14 20 49 42.4000000  0 10G29G24G18G20G 4G 5G21G10G13G15
  22274649.680       59392.172       -2795.607          47.000  
  23423843.384      -82059.430        3910.362          41.000  
  21556040.587      -50823.918        2428.622          44.000  
  19762684.903        6408.031        -285.124          45.000  
  22694096.393       51411.424       -2440.327          41.000  
  23527260.948       49659.133       -2332.774          39.000  
  20784383.896      -42363.270        2045.381          46.000  
  24271998.095      -66102.739        3451.822          35.000  
  20957549.753       30950.827       -1450.093          46.000  
  19699509.792       -5178.912         261.259          46.000  
 16 10 14 20 49 42.6000000  0 10G29G24G18G20G 4G 5G21G10G13G15
  22274755.847       59951.297       -2795.278          47.000  
  23423694.516      -82841.376        3910.462          41.000  
  21555947.996      -51309.654        2428.386          44.000  
  19762695.548        6465.104        -285.177          45.000  
  22694189.054       51899.502       -2439.495          41.000  
  23527349.612       50125.586       -2332.977          39.000  
  20784306.016      -42772.325        2045.213          46.000  
  24271866.747      -66793.160        3453.184          35.000  
  20957605.123       31240.840       -1450.135          46.000  
  19699499.968       -5231.151         261.482          46.000  
 16 10 14 20 49 42.8000000  0 10G29G24G18G20G 4G 5G21G10G13G15
  22274862.154       60510.494       -2796.136          47.000  
  23423545.701      -83623.264        3909.571          41.000  
  21555855.545      -51795.310        2428.625          44.000  
  19762706.611        6522.246        -285.433          45.000  
  22694282.185       52387.616       -2440.747          41.000  
  23527438.277       50592.153       -2332.384          39.000  
  20784228.415      -43181.303        2044.816          46.000  
  24271735.661      -67483.498        3451.672          35.000  
  20957660.405       31530.943       -1450.496          46.000  
  19699489.952       -5283.303         260.825          46.000  
 16 10 14 20 49 43.0000000  0 10G29G24G18G20G 4G 5G21G10G13G15
  22274968.599       61069.701       -2796.074          47.000  
  23423397.129      -84405.157        3909.587          41.000  
  21555763.041      -52280.961        2427.994          44.000  
  19762717.569        6579.413        -285.835          45.000  
  22694375.125       52875.762       -2441.433          41.000  
  23527527.011       51058.681       -2332.778          39.000  
  20784150.429      -43590.252        2044.331          46.000  
  24271604.103      -68173.900        3450.741          35.000  
  20957715.268       31821.065       -1450.962          46.000  
  19699479.970       -5335.426         260.850          46.000  
 16 10 14 20 49 43.2000000  0 10G29G24G18G20G 4G 5G21G10G13G15
  22275075.342       61628.952       -2796.250          47.000  
  23423248.104      -85186.978        3908.990          41.000  
  21555670.589      -52766.563        2427.794          44.000  
  19762728.231        6636.629        -286.403          45.000  
  22694468.204       53363.959       -2441.231          41.000  
  23527615.745       51525.272       -2332.548          39.000  
  20784072.532      -43999.149        2044.527          46.000  
  24271472.825      -68864.184        3452.308          34.000  
  20957770.760       32111.255       -1450.937          46.000  
  19699470.232       -5387.489         260.716          46.000  
 16 10 14 20 49 43.4000000  0 10G29G24G18G20G 4G 5G21G10G13G15
  22275181.667       62188.216       -2796.462          47.000  
  23423099.079      -85968.824        3909.242          41.000  
  21555577.998      -53252.164        2427.958          44.000  
  19762738.841        6693.857        -286.448          45.000  
  22694561.039       53852.149       -2441.253          41.000  
  23527704.671       51991.852       -2332.549          39.000  
  20783994.529      -44408.051        2044.745          46.000  
  24271341.163      -69554.528        3451.753          34.000  
  20957825.885       32401.449       -1451.008          46.000  
  19699460.321       -5439.538         260.233          46.000  
 16 10 14 20 49 43.6000000  0 10G29G24G18G20G 4G 5G21G10G13G15
  22275288.392       62747.522       -2797.088          47.000  
  23422950.473      -86750.622        3908.719          41.000  
  21555485.495      -53737.712        2427.857          44.000  
  19762749.765        6751.132        -286.863          45.000  
  22694653.962       54340.408       -2441.827          41.000  
  23527793.231       52458.457       -2333.050          39.000  
  20783916.980      -44816.891        2044.055          46.000  
  24271209.484      -70244.796        3451.333          34.000  
  20957880.784       32691.700       -1451.697          46.000  
  19699450.234       -5491.515         259.825          46.000  
 16 10 14 20 49 43.8000000  0 10G29G24G18G20G 4G 5G21G10G13G15
  22275395.310       63306.922       -2796.906          47.000  
  23422801.466      -87532.348        3908.858          41.000  
  21555393.026      -54223.190        2427.551          44.000  
  19762760.828        6808.511        -286.278          45.000  
  22694746.954       54828.747       -2441.862          41.000  
  23527881.826       52925.133       -2334.868          39.000  
  20783838.926      -45225.640        2043.952          46.000  
  24271078.328      -70935.011        3451.456          34.000  
  20957936.153       32982.061       -1452.025          46.000  
  19699440.602       -5543.396         259.236          46.000  
 16 10 14 20 49 44.0000000  0 10G29G24G18G20G 4G 5G21G10G13G15
  22275501.860       63866.369       -2797.425          48.000  
  23422652.615      -88314.011        3908.080          41.000  
  21555300.609      -54708.615        2427.409          44.000  
  19762771.542        6865.930        -287.121          45.000  
  22694839.806       55317.142       -2442.337          41.000  
  23527970.857       53391.905       -2333.556          39.000  
  20783761.062      -45634.332        2043.338          46.000  
  24270947.189      -71625.172        3452.615          35.000  
  20957991.121       33272.483       -1452.165          46.000  
  19699430.533       -5595.189         259.116          46.000  
 16 10 14 20 49 44.2000000  0 10G29G24G18G20G 4G 5G21G10G13G15
  22275608.708       64425.909       -2798.166          47.000  
  23422503.660      -89095.600        3907.666          41.000  
  21555208.368      -55193.940        2427.044          44.000  
  19762782.501        6923.438        -288.009          45.000  
  22694932.955       55805.624       -2443.243          41.000  
  23528059.626       53858.705       -2334.078          39.000  
  20783683.828      -46042.938        2042.884          46.000  
  24270815.754      -72315.220        3449.279          35.000  
  20958046.630       33562.992       -1453.174          46.000  
  19699420.638       -5646.898         258.110          46.000  
 16 10 14 20 49 44.4000000  0 10G29G24G18G20G 4G 5G21G10G13G15
  22275714.683       64985.464       -2797.994          48.000  
  23422355.072      -89877.194        3907.836          41.000  
  21555115.794      -55679.261        2426.456          44.000  
  19762793.704        6980.978        -288.412          45.000  
  22695025.895       56294.123       -2442.938          41.000  
  23528148.151       54325.530       -2333.819          39.000  
  20783606.052      -46451.501        2042.794          46.000  
  24270684.529      -73005.303        3449.884          35.000  
  20958101.843       33853.544       -1452.635          46.000  
  19699410.622       -5698.570         258.395          46.000  
 16 10 14 20 49 44.6000000  0 10G29G24G18G20G 4G 5G21G10G13G15
  22275821.007       65545.049       -2798.093          48.000  
  23422206.500      -90658.747        3906.997          41.000  
  21555024.058      -56164.571        2426.029          44.000  
  19762804.995        7038.554        -288.111          45.000  
  22695118.975       56782.645       -2443.109          41.000  
  23528236.955       54792.402       -2334.473          39.000  
  20783528.207      -46860.055        2042.359          46.000  
  24270553.094      -73695.346        3449.604          34.000  
  20958157.247       34144.133       -1453.069          46.000  
  19699401.059       -5750.195         257.692          46.000  
 16 10 14 20 49 44.8000000  0 10G29G24G18G20G 4G 5G21G10G13G15
  22275927.227       66104.663       -2798.536          48.000  
  23422057.982      -91440.279        3907.108          41.000  
  21554931.398      -56649.819        2426.395          44.000  
  19762815.988        7096.159        -288.373          45.000  
  22695212.037       57271.222       -2442.895          41.000  
  23528325.410       55259.279       -2334.688          39.000  
  20783450.466      -47268.552        2042.271          46.000  
  24270422.043      -74385.342        3448.847          35.000  
  20958212.547       34434.766       -1453.453          46.000  
  19699391.130       -5801.777         257.570          46.000  
 16 10 14 20 49 45.0000000  0 10G29G24G18G20G 4G 5G21G10G13G15
  22276033.742       66664.318       -2798.514          48.000  
  23421909.340      -92221.762        3907.004          41.000  
  21554839.138      -57135.064        2425.914          44.000  
  19762826.894        7153.812        -288.538          45.000  
  22695304.715       57759.825       -2443.301          41.000  
  23528414.249       55726.188       -2334.950          39.000  
  20783372.690      -47677.015        2042.375          46.000  
  24270290.921      -75075.344        3449.239          35.000  
  20958267.986       34725.451       -1453.613          46.000  
  19699381.305       -5853.301         257.028          46.000  
 16 10 14 20 49 45.2000000  0 10G29G24G18G20G 4G 5G21G10G13G15
  22276140.398       67224.032       -2798.434          48.000  
  23421760.350      -93003.215        3906.360          41.000  
  21554746.861      -57620.226        2425.853          44.000  
  19762837.818        7211.520        -288.819          45.000  
  22695397.829       58248.481       -2443.242          41.000  
  23528503.367       56193.156       -2334.370          39.000  
  20783294.792      -48085.421        2041.491          46.000  
  24270159.591      -75765.275        3450.143          35.000  
  20958323.442       35016.198       -1454.121          46.000  
  19699371.219       -5904.749         257.436          46.000  
 16 10 14 20 49 45.4000000  0 10G29G24G18G20G 4G 5G21G10G13G15
  22276246.897       67783.780       -2798.685          48.000  
  23421611.622      -93784.623        3907.155          41.000  
  21554654.584      -58105.375        2425.296          44.000  
  19762848.707        7269.279        -288.741          45.000  
  22695491.170       58737.194       -2444.150          41.000  
  23528592.136       56660.138       -2335.014          39.000  
  20783216.929      -48493.774        2041.262          46.000  
  24270028.243      -76455.181        3451.406          35.000  
  20958378.864       35306.998       -1454.296          46.000  
  19699361.726       -5956.143         256.489          46.000  
 16 10 14 20 49 45.6000000  0 10G29G24G18G20G 4G 5G21G10G13G15
  22276353.308       68343.587       -2799.115          48.000  
  23421462.789      -94565.987        3906.900          41.000  
  21554562.028      -58590.460        2425.153          44.000  
  19762860.015        7327.089        -289.128          45.000  
  22695583.970       59225.961       -2444.644          41.000  
  23528681.028       57127.176       -2335.026          39.000  
  20783139.537      -48902.061        2041.280          46.000  
  24269896.843      -77145.036        3449.052          35.000  
  20958434.094       35597.864       -1454.432          46.000  
  19699352.181       -6007.472         256.636          46.000  
 16 10 14 20 49 45.8000000  0 10G29G24G18G20G 4G 5G21G10G13G15
  22276459.702       68903.442       -2799.344          48.000  
  23421314.096      -95347.303        3906.376          41.000  
  21554469.752      -59075.500        2425.234          44.000  
  19762871.340        7384.965        -289.433          45.000  
  22695677.085       59714.787       -2443.985          41.000  
  23528769.465       57594.239       -2335.687          39.000  
  20783061.587      -49310.285        2041.338          46.000  
  24269765.652      -77834.858        3448.377          35.000  
  20958489.307       35888.806       -1454.558          46.000  
  19699342.653       -6058.730         255.902          46.000  
 16 10 14 20 49 46.0000000  0 10G29G24G18G20G 4G 5G21G10G13G15
  22276566.427       69463.364       -2799.754          48.000  
  23421165.542      -96128.557        3905.852          41.000  
  21554377.283      -59560.488        2424.244          44.000  
  19762882.420        7442.905        -289.731          45.000  
  22695770.356       60203.656       -2445.405          41.000  
  23528858.217       58061.378       -2336.215          39.000  
  20782983.916      -49718.477        2040.389          46.000  
  24269634.548      -78524.593        3447.226          35.000  
  20958544.728       36179.802       -1455.600          46.000  
  19699333.020       -6109.906         255.634          46.000  
 16 10 14 20 49 46.2000000  0 10G29G24G18G20G 4G 5G21G10G13G15
  22276673.135       70023.314       -2800.417          48.000  
  23421016.761      -96909.791        3906.551          41.000  
  21554285.058      -60045.439        2424.549          44.000  
  19762893.117        7500.870        -290.449          45.000  
  22695863.226       60692.582       -2445.072          41.000  
  23528947.405       58528.554       -2335.496          39.000  
  20782906.472      -50126.611        2040.229          46.000  
  24269503.410      -79214.324        3449.636          35.000  
  20958599.976       36470.830       -1455.288          46.000  
  19699323.196       -6161.042         255.317          46.000  
 16 10 14 20 49 46.4000000  0 10G29G24G18G20G 4G 5G21G10G13G15
  22276779.686       70583.312       -2800.187          48.000  
  23420868.225      -97690.984        3905.597          41.000  
  21554192.816      -60530.340        2424.813          44.000  
  19762904.146        7558.892        -290.125          45.000  
  22695956.166       61181.547       -2444.637          41.000  
  23529036.331       58995.741       -2336.850          39.000  
  20782828.818      -50534.692        2040.076          46.000  
  24269372.551      -79904.034        3448.176          35.000  
  20958655.450       36761.949       -1455.706          45.000  
  19699313.772       -6212.109         254.986          46.000  
 16 10 14 20 49 46.6000000  0 10G29G24G18G20G 4G 5G21G10G13G15
  22276886.203       71143.372       -2800.260          48.000  
  23420719.601      -98472.124        3905.593          41.000  
  21554100.383      -61015.188        2424.338          44.000  
  19762915.000        7616.978        -290.533          45.000  
  22696049.315       61670.569       -2445.786          41.000  
  23529125.275       59463.002       -2336.495          39.000  
  20782751.252      -50942.707        2039.911          46.000  
  24269241.412      -80593.673        3447.666          35.000  
  20958711.011       37053.120       -1456.099          45.000  
  19699303.913       -6263.104         254.498          46.000  
 16 10 14 20 49 46.8000000  0 10G29G24G18G20G 4G 5G21G10G13G15
  22276992.701       71703.474       -2800.329          48.000  
  23420570.768      -99253.231        3905.710          41.000  
  21554008.211      -61499.999        2423.937          44.000  
  19762926.116        7675.114        -291.003          45.000  
  22696142.708       62159.646       -2445.045          41.000  
  23529214.219       59930.290       -2336.231          39.000  
  20782673.581      -51350.670        2040.372          46.000  
  24269110.256      -81283.243        3448.119          35.000  
  20958765.910       37344.349       -1456.057          45.000  
  19699293.914       -6314.046         254.316          46.000  
 16 10 14 20 49 47.0000000  0 10G29G24G18G20G 4G 5G21G10G13G15
  22277099.496       72263.642       -2801.046          48.000  
  23420422.441     -100034.289        3905.078          41.000  
  21553916.143      -61984.750        2423.928          44.000  
  19762937.074        7733.310        -291.069          45.000  
  22696235.840       62648.792       -2445.213          41.000  
  23529303.441       60397.634       -2336.802          39.000  
  20782595.962      -51758.580        2039.267          46.000  
  24268979.065      -81972.821        3447.888          35.000  
  20958821.331       37635.649       -1456.693          46.000  
  19699284.054       -6364.894         254.227          46.000  
 16 10 14 20 49 47.2000000  0 10G29G24G18G20G 4G 5G21G10G13G15
  22277206.187       72823.838       -2801.262          48.000  
  23420273.661     -100815.290        3904.642          41.000  
  21553823.761      -62469.470        2423.448          44.000  
  19762948.103        7791.561        -291.497          45.000  
  22696329.094       63137.964       -2446.076          41.000  
  23529392.612       60864.998       -2337.028          39.000  
  20782518.274      -52166.437        2039.052          46.000  
  24268847.979      -82662.321        3447.454          35.000  
  20958877.067       37927.002       -1456.988          46.000  
  19699274.212       -6415.704         253.935          46.000  
 16 10 14 20 49 47.4000000  0 10G29G24G18G20G 4G 5G21G10G13G15
  22277312.651       73384.069       -2801.429          48.000  
  23420124.863     -101596.292        3904.803          41.000  
  21553731.572      -62954.170        2423.006          44.000  
  19762959.149        7849.832        -291.301          45.000  
  22696422.121       63627.162       -2446.777          41.000  
  23529481.782       61332.393       -2336.032          39.000  
  20782440.690      -52574.261        2039.254          46.000  
  24268716.719      -83351.817        3447.690          35.000  
  20958932.646       38218.397       -1456.808          46.000  
  19699264.388       -6466.465         253.360          46.000  
 16 10 14 20 49 47.6000000  0 10G29G24G18G20G 4G 5G21G10G13G15
  22277419.219       73944.358       -2801.232          48.000  
  23419976.169     -102377.231        3904.372          41.000  
  21553639.347      -63438.793        2423.097          44.000  
  19762970.264        7908.162        -291.691          45.000  
  22696515.218       64116.424       -2446.184          41.000  
  23529570.901       61799.827       -2337.589          39.000  
  20782363.508      -52982.033        2038.652          46.000  
  24268585.476      -84041.244        3446.562          35.000  
  20958988.190       38509.860       -1457.210          46.000  
  19699254.895       -6517.153         253.929          46.000  
 16 10 14 20 49 47.8000000  0 10G29G24G18G20G 4G 5G21G10G13G15
  22277525.945       74504.663       -2801.684          48.000  
  23419827.598     -103158.157        3904.709          41.000  
  21553547.036      -63923.427        2422.751          44.000  
  19762981.520        7966.517        -291.993          45.000  
  22696608.350       64605.701       -2447.009          41.000  
  23529659.740       62267.290       -2337.117          39.000  
  20782285.907      -53389.757        2038.269          46.000  
  24268454.337      -84730.683        3446.895          35.000  
  20959043.891       38801.341       -1457.635          46.000  
  19699245.350       -6567.810         252.397          46.000  
 16 10 14 20 49 48.0000000  0 10G29G24G18G20G 4G 5G21G10G13G15
  22277632.251       75065.005       -2801.723          48.000  
  23419678.730     -103939.044        3904.640          41.000  
  21553454.741      -64408.013        2423.062          44.000  
  19762992.513        8024.919        -292.081          45.000  
  22696701.516       65095.042       -2445.853          41.000  
  23529748.666       62734.772       -2337.485          39.000  
  20782208.358      -53797.457        2038.472          46.000  
  24268323.251      -85420.114        3446.909          35.000  
  20959099.557       39092.880       -1458.047          46.000  
  19699235.909       -6618.404         252.964          46.000  
 16 10 14 20 49 48.2000000  0 10G29G24G18G20G 4G 5G21G10G13G15
  22277738.837       75625.441       -2802.166          48.000  
  23419529.949     -104719.869        3903.831          41.000  
  21553362.656      -64892.509        2422.485          44.000  
  19763003.716        8083.397        -292.744          45.000  
  22696794.438       65584.427       -2447.008          41.000  
  23529837.627       63202.336       -2337.341          39.000  
  20782130.914      -54205.067        2037.875          46.000  
  24268191.763      -86109.425        3447.104          35.000  
  20959154.962       39384.514       -1458.087          46.000  
  19699226.189       -6668.906         252.440          46.000  
 16 10 14 20 49 48.7990000  0 10G29G24G18G20G 4G 5G21G10G13G15
  22577850.439       77301.292       -2802.096          48.000  
  23718878.314     -107054.375        3903.450          41.000  
  21852879.729      -66341.019        2422.317          44.000  
  20062829.448        8258.472        -292.966          45.000  
  22996865.276       67047.956       -2446.835          41.000  
  23829895.988       64600.464       -2338.119          39.000  
  21081691.036      -55423.615        2037.646          46.000  
  24567592.129      -88170.398        3446.296          35.000  
  21259113.193       40256.728       -1458.701          46.000  
  19998989.711       -6819.633         251.810          46.000  
 16 10 14 20 49 48.9990000  0 10G29G24G18G20G 4G 5G21G10G13G15
  22577957.251       77861.827       -2802.916          48.000  
  23718729.795     -107835.091        3903.246          41.000  
  21852787.418      -66825.430        2421.880          44.000  
  20062840.529        8317.075        -293.108          45.000  
  22996958.373       67537.470       -2447.965          41.000  
  23829984.984       65068.098       -2338.844          39.000  
  21081613.243      -55831.101        2037.354          46.000  
  24567460.921      -88859.590        3446.203          35.000  
  21259168.720       40548.518       -1458.942          45.000  
  19998979.974       -6869.966         251.324          46.000  
 16 10 14 20 49 49.1990000  0 10G29G24G18G20G 4G 5G21G10G13G15
  22578063.994       78422.425       -2802.534          48.000  
  23718581.433     -108615.758        3904.192          41.000  
  21852695.385      -67309.786        2421.914          44.000  
  20062851.732        8375.756        -293.252          45.000  
  22997051.348       68027.061       -2447.543          41.000  
  23830073.893       65535.800       -2337.567          39.000  
  21081535.520      -56238.507        2037.028          46.000  
  24567329.713      -89548.788        3446.164          35.000  
  21259224.229       40840.372       -1459.051          45.000  
  19998970.673       -6920.224         251.423          46.000  
 16 10 14 20 49 49.3990000  0 10G29G24G18G20G 4G 5G21G10G13G15
  22578170.545       78983.049       -2803.218          48.000  
  23718432.513     -109396.426        3902.815          41.000  
  21852603.161      -67794.109        2421.590          44.000  
  20062862.883        8434.451        -294.236          45.000  
  22997144.271       68516.683       -2447.827          41.000  
  23830163.238       66003.515       -2338.297          39.000  
  21081457.901      -56645.893        2036.459          46.000  
  24567198.540      -90237.973        3446.271          35.000  
  21259279.738       41132.271       -1459.572          45.000  
  19998961.180       -6970.429         250.958          46.000  
 16 10 14 20 49 49.5990000  0 10G29G24G18G20G 4G 5G21G10G13G15
  22578277.428       79543.700       -2803.156          48.000  
  23718283.854     -110177.070        3903.363          41.000  
  21852511.058      -68278.414        2421.986          44.000  
  20062873.772        8493.187        -292.981          45.000  
  22997237.455       69006.315       -2448.302          41.000  
  23830252.234       66471.222       -2338.305          39.000  
  21081380.475      -57053.243        2037.229          46.000  
  24567067.471      -90927.110        3446.845          35.000  
  21259335.527       41424.196       -1459.469          45.000  
  19998951.844       -7020.602         250.978          46.000  
 16 10 14 20 49 49.7990000  0 10G29G24G18G20G 4G 5G21G10G13G15
  22578384.014       80104.386       -2803.415          48.000  
  23718135.196     -110957.676        3903.482          41.000  
  21852418.817      -68762.686        2421.283          44.000  
  20062885.114        8551.964        -293.643          45.000  
  22997330.970       69495.995       -2448.892          41.000  
  23830341.335       66938.984       -2339.944          39.000  
  21081303.013      -57460.553        2036.430          46.000  
  24566936.786      -91616.223        3444.670          35.000  
  21259390.931       41716.177       -1460.391          45.000  
  19998942.072       -7070.726         250.301          46.000  
 16 10 14 20 49 49.9990000  0 10G29G24G18G20G 4G 5G21G10G13G15
  22578490.757       80665.147       -2803.792          48.000  
  23717986.345     -111738.207        3902.259          41.000  
  21852326.784      -69246.882        2421.181          44.000  
  20062896.439        8610.808        -294.158          45.000  
  22997424.154       69985.759       -2448.496          41.000  
  23830430.226       67406.809       -2339.393          39.000  
  21081225.673      -57867.796        2036.480          46.000  
  24566805.682      -92305.324        3445.410          35.000  
  21259446.667       42008.240       -1460.283          45.000  
  19998932.631       -7120.758         249.985          46.000  
 16 10 14 20 49 50.1990000  0 10G29G24G18G20G 4G 5G21G10G13G15
  22578597.133       81225.922       -2803.936          48.000  
  23717837.809     -112518.731        3902.829          41.000  
  21852234.612      -69731.058        2421.395          44.000  
  20062907.573        8669.686        -294.405          45.000  
  22997517.338       70475.514       -2448.541          41.000  
  23830519.118       67874.634       -2338.960          39.000  
  21081148.474      -58275.011        2036.154          46.000  
  24566674.300      -92994.337        3446.423          35.000  
  21259502.298       42300.331       -1460.867          45.000  
  19998923.313       -7170.750         249.748          46.000  
 16 10 14 20 49 50.3990000  0 10G29G24G18G20G 4G 5G21G10G13G15
  22578704.016       81786.738       -2804.110          48.000  
  23717689.447     -113299.237        3902.281          41.000  
  21852142.928      -70215.225        2420.350          44.000  
  20062918.968        8728.591        -294.597          45.000  
  22997610.540       70965.332       -2449.891          41.000  
  23830608.166       68342.493       -2339.858          39.000  
  21081070.872      -58682.187        2035.429          46.000  
  24566543.458      -93683.372        3445.356          35.000  
  21259557.790       42592.470       -1460.833          45.000  
  19998913.628       -7220.692         249.584          46.000  
 16 10 14 20 49 50.5990000  0 10G29G24G18G20G 4G 5G21G10G13G15
  22578810.706       82347.593       -2804.539          48.000  
  23717541.190     -114079.691        3902.344          41.000  
  21852050.809      -70699.334        2420.397          44.000  
  20062930.223        8787.553        -294.887          45.000  
  22997703.602       71455.188       -2449.409          41.000  
  23830696.918       68810.390       -2339.516          39.000  
  21080993.655      -59089.292        2035.545          46.000  
  24566412.180      -94372.323        3445.042          35.000  
  21259613.194       42884.661       -1460.834          45.000  
  19998903.908       -7270.582         248.834          46.000  
 16 10 14 20 49 50.7990000  0 10G29G24G18G20G 4G 5G21G10G13G15
  22578917.432       82908.489       -2804.385          48.000  
  23717392.741     -114860.124        3902.342          41.000  
  21851958.532      -71183.409        2420.738          44.000  
  20062941.426        8846.562        -295.119          45.000  
  22997797.135       71945.077       -2449.854          41.000  
  23830786.176       69278.325       -2339.875          39.000  
  21080916.037      -59496.373        2035.497          46.000  
  24566281.077      -95061.302        3445.540          35.000  
  21259668.895       43176.911       -1460.926          45.000  
  19998894.433       -7320.416         249.250          46.000  
 16 10 14 20 49 50.9990000  0 10G29G24G18G20G 4G 5G21G10G13G15
  22579024.366       83469.388       -2804.558          48.000  
  23717244.274     -115640.564        3902.462          41.000  
  21851866.272      -71667.488        2419.835          44.000  
  20062952.611        8905.566        -295.043          45.000  
  22997890.214       72434.971       -2449.797          41.000  
  23830875.154       69746.250       -2339.582          39.000  
  21080838.156      -59903.453        2035.344          46.000  
  24566150.217      -95750.254        3442.570          35.000  
  21259724.352       43469.160       -1461.144          45.000  
  19998885.114       -7370.239         248.485          46.000  
 16 10 14 20 49 51.1990000  0 10G29G24G18G20G 4G 5G21G10G13G15
  22579130.882       84030.360       -2805.135          48.000  
  23717095.738     -116420.922        3901.783          41.000  
  21851774.222      -72151.482        2420.274          44.000  
  20062963.814        8964.653        -295.038          45.000  
  22997983.451       72924.964       -2449.652          41.000  
  23830964.394       70214.242       -2340.010          39.000  
  21080760.921      -60310.439        2035.236          46.000  
  24566019.079      -96439.124        3445.026          35.000  
  21259779.983       43761.507       -1461.982          46.000  
  19998875.830       -7419.946         248.257          46.000  
 16 10 14 20 49 51.3990000  0 10G29G24G18G20G 4G 5G21G10G13G15
  22579237.591       84591.383       -2805.215          48.000  
  23716947.603     -117201.228        3901.803          41.000  
  21851682.294      -72635.443        2420.092          44.000  
  20062974.912        9023.791        -295.906          45.000  
  22998077.001       73414.992       -2450.496          41.000  
  23831053.565       70682.263       -2340.477          39.000  
  21080683.460      -60717.372        2034.581          46.000  
  24565887.766      -97127.976        3443.764          35.000  
  21259835.492       44053.912       -1462.401          46.000  
  19998866.233       -7469.593         248.752          46.000  
 16 10 14 20 49 51.5990000  0 10G29G24G18G20G 4G 5G21G10G13G15
  22579344.211       85152.422       -2805.419          48.000  
  23716799.154     -117981.538        3901.487          41.000  
  21851589.930      -73119.391        2419.711          44.000  
  20062986.395        9082.940        -295.961          45.000  
  22998170.308       73905.049       -2450.104          41.000  
  23831142.613       71150.303       -2339.414          39.000  
  21080605.824      -61124.291        2034.144          46.000  
  24565756.662      -97816.818        3443.875          35.000  
  21259891.507       44346.344       -1461.600          46.000  
  19998856.862       -7519.229         247.562          46.000  
 16 10 14 20 49 51.7990000  0 10G29G24G18G20G 4G 5G21G10G13G15
  22579451.303       85713.507       -2805.726          48.000  
  23716650.461     -118761.806        3901.696          41.000  
  21851497.776      -73603.290        2418.660          44.000  
  20062997.842        9142.163        -295.816          45.000  
  22998263.073       74395.151       -2450.098          41.000  
  23831231.732       71618.390       -2340.625          39.000  
  21080528.292      -61531.152        2034.006          46.000  
  24565625.768      -98505.586        3444.087          35.000  
  21259947.226       44638.835       -1462.639          45.000  
  19998847.491       -7568.782         247.723          46.000  
 16 10 14 20 49 51.9990000  0 10G29G24G18G20G 4G 5G21G10G13G15
  22579557.941       86274.621       -2805.555          48.000  
  23716501.907     -119542.059        3901.357          41.000  
  21851405.481      -74087.174        2419.610          44.000  
  20063008.661        9201.395        -295.977          45.000  
  22998356.327       74885.258       -2450.516          41.000  
  23831320.919       72086.487       -2340.561          39.000  
  21080450.848      -61937.984        2034.065          46.000  
  24565494.734      -99194.364        3443.020          35.000  
  21260002.857       44931.351       -1462.473          45.000  
  19998838.155       -7618.306         247.985          46.000  
 16 10 14 20 49 52.1990000  0 10G29G24G18G20G 4G 5G21G10G13G15
  22579664.614       86835.760       -2806.024          48.000  
  23716353.493     -120322.294        3899.969          41.000  
  21851313.222      -74571.025        2419.096          44.000  
  20063020.283        9260.667        -296.787          45.000  
  22998449.458       75375.434       -2450.650          41.000  
  23831410.142       72554.623       -2340.356          39.000  
  21080373.491      -62344.793        2033.466          46.000  
  24565363.718      -99883.119        3444.186          36.000  
  21260058.296       45223.933       -1463.133          45.000  
  19998828.383       -7667.787         247.455          46.000  
 16 10 14 20 49 52.3990000  0 10G29G24G18G20G 4G 5G21G10G13G15
  22579771.375       87396.931       -2805.500          48.000  
  23716205.026     -121102.508        3901.399          41.000  
  21851221.242      -75054.843        2419.417          44.000  
  20063031.695        9319.972        -296.134          45.000  
  22998542.782       75865.590       -2450.377          41.000  
  23831499.261       73022.776       -2340.296          39.000  
  21080296.082      -62751.559        2033.955          46.000  
  24565232.562     -100571.827        3444.488          36.000  
  21260113.857       45516.524       -1462.837          46.000  
  19998818.907       -7717.219         247.320          46.000  
 16 10 14 20 49 52.5990000  0 10G29G24G18G20G 4G 5G21G10G13G15
  22579878.065       87958.115       -2805.890          48.000  
  23716056.734     -121882.675        3901.188          41.000  
  21851129.314      -75538.658        2418.510          44.000  
  20063043.055        9379.297        -296.956          45.000  
  22998635.914       76355.830       -2450.421          41.000  
  23831588.396       73490.916       -2340.780          39.000  
  21080218.498      -63158.292        2033.571          46.000  
  24565101.144     -101260.597        3442.953          36.000  
  21260169.471       45809.155       -1463.335          46.000  
  19998809.886       -7766.628         247.031          46.000  
 16 10 14 20 49 52.7990000  0 10G29G24G18G20G 4G 5G21G10G13G15
  22579985.210       88519.365       -2806.292          48.000  
  23715908.477     -122662.838        3900.469          42.000  
  21851037.037      -76022.414        2418.462          44.000  
  20063054.241        9438.687        -297.201          45.000  
  22998729.412       76846.063       -2450.801          41.000  
  23831677.480       73959.103       -2341.362          39.000  
  21080141.159      -63564.977        2033.138          46.000  
  24564970.285     -101949.255        3443.474          36.000  
  21260225.329       46101.875       -1463.872          46.000  
  19998800.358       -7815.951         246.579          46.000  
 16 10 14 20 49 52.9990000  0 10G29G24G18G20G 4G 5G21G10G13G15
  22580091.970       89080.664       -2806.247          48.000  
  23715760.045     -123442.924        3900.335          42.000  
  21850945.004      -76506.115        2418.703          44.000  
  20063065.566        9498.131        -297.355          45.000  
  22998822.683       77336.399       -2451.589          41.000  
  23831766.667       74427.353       -2340.379          39.000  
  21080063.924      -63971.599        2032.907          46.000  
  24564839.199     -102637.871        3443.995          36.000  
  21260281.048       46394.626       -1463.609          46.000  
  19998790.882       -7865.206         246.077          46.000  
 16 10 14 20 49 53.1990000  0 10G29G24G18G20G 4G 5G21G10G13G15
  22580199.009       89641.994       -2806.701          48.000  
  23715611.841     -124222.973        3900.140          41.000  
  21850853.356      -76989.803        2418.495          44.000  
  20063077.152        9557.612        -297.908          45.000  
  22998915.937       77826.734       -2451.793          41.000  
  23831855.524       74895.622       -2341.750          39.000  
  21079986.148      -64378.184        2032.813          46.000  
  24564708.148     -103326.479        3442.055          35.000  
  21260336.853       46687.451       -1464.114          46.000  
  19998781.616       -7914.412         245.781          46.000  
 16 10 14 20 49 53.3990000  0 10G29G24G18G20G 4G 5G21G10G13G15
  22580305.857       90203.351       -2806.631          48.000  
  23715463.252     -125003.016        3900.229          41.000  
  21850761.114      -77473.461        2418.602          44.000  
  20063088.547        9617.122        -297.071          45.000  
  22999009.523       78317.115       -2451.890          41.000  
  23831944.677       75363.914       -2341.573          39.000  
  21079908.983      -64784.736        2033.123          46.000  
  24564577.376     -104015.064        3441.558          36.000  
  21260392.537       46980.291       -1464.128          46.000  
  19998772.210       -7963.583         245.606          46.000  
 16 10 14 20 49 53.5990000  0 10G29G24G18G20G 4G 5G21G10G13G15
  22580412.513       90764.738       -2807.280          48.000  
  23715314.559     -125783.026        3900.173          41.000  
  21850669.396      -77957.076        2418.235          44.000  
  20063099.995        9676.671        -298.048          45.000  
  22999102.934       78807.536       -2451.500          41.000  
  23832033.725       75832.231       -2341.408          39.000  
  21079831.627      -65191.250        2032.413          46.000  
  24564446.237     -104703.582        3443.025          36.000  
  21260448.308       47273.187       -1464.786          46.000  
  19998762.979       -8012.695         245.420          46.000  
 16 10 14 20 49 53.7990000  0 10G29G24G18G20G 4G 5G21G10G13G15
  22580519.570       91326.149       -2807.023          48.000  
  23715166.284     -126563.021        3900.101          41.000  
  21850577.119      -78440.693        2418.227          44.000  
  20063111.337        9736.242        -297.253          45.000  
  22999196.188       79297.969       -2452.067          41.000  
  23832122.913       76300.552       -2341.245          39.000  
  21079754.479      -65597.751        2032.548          46.000  
  24564315.343     -105392.170        3442.647          36.000  
  21260503.992       47566.106       -1464.277          46.000  
  19998753.800       -8061.780         245.663          46.000  
 16 10 14 20 49 53.9990000  0 10G29G24G18G20G 4G 5G21G10G13G15
  22580626.365       91887.596       -2807.509          48.000  
  23715017.713     -127342.998        3900.220          41.000  
  21850484.964      -78924.263        2417.529          44.000  
  20063122.907        9795.848        -298.339          45.000  
  22999289.441       79788.431       -2452.548          41.000  
  23832212.101       76768.906       -2342.038          39.000  
  21079677.296      -66004.193        2031.935          46.000  
  24564184.152     -106080.653        3441.606          36.000  
  21260559.814       47859.074       -1465.030          46.000  
  19998744.412       -8110.807         244.748          46.000  
 16 10 14 20 49 54.3990000  0 10G29G24G18G20G 4G 5G21G10G13G15
  22580840.130       93010.590       -2808.045          48.000  
  23714720.815     -128902.846        3899.745          41.000  
  21850300.882      -79891.323        2417.700          44.000  
  20063145.313        9915.192        -298.380          45.000  
  22999476.455       80769.506       -2452.536          41.000  
  23832390.215       77705.720       -2341.709          40.000  
  21079522.548      -66816.978        2031.281          46.000  
  24563921.771     -107457.599        3441.933          36.000  
  21260671.513       48445.172       -1465.528          46.000  
  19998725.583       -8208.705         244.633          46.000  
 16 10 14 20 49 54.5990000  0 10G29G24G18G20G 4G 5G21G10G13G15
  22580947.170       93572.187       -2807.515          48.000  
  23714572.366     -129682.713        3899.744          41.000  
  21850208.884      -80374.764        2417.580          44.000  
  20063156.655        9974.946        -298.693          45.000  
  22999569.761       81260.115       -2453.065          41.000  
  23832479.718       78174.171       -2342.225          40.000  
  21079445.051      -67223.267        2031.710          46.000  
  24563790.911     -108146.009        3442.443          36.000  
  21260727.371       48738.308       -1465.684          46.000  
  19998716.352       -8257.566         243.902          46.000  
 16 10 14 20 49 54.7990000  0 10G29G24G18G20G 4G 5G21G10G13G15
  22581054.140       94133.798       -2808.103          48.000  
  23714423.777     -130462.527        3899.196          41.000  
  21850116.747      -80858.169        2417.079          44.000  
  20063168.033       10034.755        -298.668          45.000  
  22999662.649       81750.761       -2453.356          41.000  
  23832568.853       78642.682       -2342.722          40.000  
  21079367.939      -67629.526        2031.064          46.000  
  24563660.209     -108834.353        3441.944          36.000  
  21260783.107       49031.497       -1466.180          46.000  
  19998706.928       -8306.340         243.980          46.000  
 16 10 14 20 49 54.9990000  0 10G29G24G18G20G 4G 5G21G10G13G15
  22581160.742       94695.441       -2808.360          48.000  
  23714275.240     -131242.314        3899.396          41.000  
  21850024.697      -81341.578        2416.881          44.000  
  20063179.288       10094.586        -299.431          45.000  
  22999756.094       82241.441       -2453.371          41.000  
  23832657.989       79111.207       -2343.693          40.000  
  21079290.669      -68035.755        2031.073          46.000  
  24563529.158     -109522.705        3441.677          36.000  
  21260838.511       49324.718       -1466.630          46.000  
  19998697.871       -8355.100         243.366          46.000  
 16 10 14 20 49 55.1990000  0 10G29G24G18G20G 4G 5G21G10G13G15
  22581267.503       95257.122       -2808.447          48.000  
  23714126.739     -132022.099        3899.631          41.000  
  21849932.734      -81824.938        2416.518          44.000  
  20063190.753       10154.460        -299.274          45.000  
  22999849.418       82732.162       -2454.169          41.000  
  23832747.142       79579.762       -2343.036          40.000  
  21079213.242      -68441.929        2031.173          46.000  
  24563398.176     -110211.006        3442.594          36.000  
  21260894.666       49617.991       -1466.202          46.000  
  19998688.553       -8403.798         243.235          46.000  
 16 10 14 20 49 55.3990000  0 11G29G24G18G20G 4G 5G21G10G27G13G15
  22581374.368       95818.842       -2808.759          48.000  
  23713978.499     -132801.828        3898.469          41.000  
  21849840.841      -82308.248        2416.189          44.000  
  20063201.973       10214.365        -300.073          45.000  
  22999942.777       83222.913       -2454.599          41.000  
  23832836.155       80048.336       -2343.347          40.000  
  21079136.200      -68848.081        2030.144          46.000  
  24563267.020     -110899.299        3442.226          36.000  
  24650813.192      -23914.6842       3176.103          33.000  
  21260950.402       49911.322       -1466.797          46.000  
  19998679.200       -8452.444         242.958          46.000  
 16 10 14 20 49 55.5990000  0 11G29G24G18G20G 4G 5G21G10G27G13G15
  22581481.286       96380.620       -2808.783          48.000  
  23713830.173     -133581.505        3898.380          41.000  
  21849748.739      -82791.531        2415.878          44.000  
  20063213.333       10274.342        -299.998          45.000  
  23000036.048       83713.742       -2453.771          41.000  
  23832925.029       80516.963       -2342.193          40.000  
  21079058.738      -69254.164        2030.387          46.000  
  24563135.900     -111587.563        3441.541          36.000  
  24650692.018      -24550.1142       3180.497          32.000  
  21261005.964       50204.706       -1466.922          46.000  
  19998669.742       -8501.019         242.691          46.000  
 16 10 14 20 49 55.7990000  0 11G29G24G18G20G 4G 5G21G10G27G13G15
  22581588.133       96942.407       -2809.441          48.000  
  23713681.828     -134361.157        3898.447          41.000  
  21849656.811      -83274.769        2416.465          44.000  
  20063224.711       10334.330        -300.680          45.000  
  23000129.459       84204.555       -2454.208          41.000  
  23833014.462       80985.579       -2344.208          40.000  
  21078981.521      -69660.229        2029.620          46.000  
  24563005.023     -112275.754        3441.963          36.000  
  24650570.791      -25185.6402       3179.427          32.000  
  21261062.171       50498.127       -1467.209          46.000  
  19998660.510       -8549.556         242.580          46.000  
 16 10 14 20 49 55.9990000  0 11G29G24G18G20G 4G 5G21G10G27G13G15
  22581694.963       97504.261       -2809.862          48.000  
  23713533.414     -135140.777        3897.802          41.000  
  21849565.040      -83757.967        2415.642          44.000  
  20063236.070       10394.402        -300.355          45.000  
  23000223.027       84695.471       -2454.898          41.000  
  23833103.684       81454.306       -2344.191          40.000  
  21078904.303      -70066.214        2029.342          46.000  
  24562874.163     -112963.966        3441.180          36.000  
  24650449.582      -25821.0852       3177.124          32.000  
  21261118.273       50791.619       -1467.804          46.000  
  19998651.279       -8598.019         241.711          46.000  
 16 10 14 20 49 56.1990000  0 11G29G24G18G20G 4G 5G21G10G27G13G15
  22581801.933       98066.145       -2808.977          48.000  
  23713384.843     -135920.376        3897.341          41.000  
  21849472.920      -84241.139        2416.233          44.000  
  20063247.413       10454.483        -300.474          45.000  
  23000316.525       85186.402       -2454.458          41.000  
  23833192.733       81922.989       -2343.328          40.000  
  21078826.929      -70472.172        2029.841          46.000  
  24562743.130     -113652.133        3438.928          36.000  
  24650328.530      -26456.4622       3176.469          32.000  
  21261174.026       51085.152       -1467.446          46.000  
  19998642.100       -8646.438         242.312          46.000  
 16 10 14 20 49 56.3990000  0 11G29G24G18G20G 4G 5G21G10G27G13G15
  22581908.903       98628.054       -2809.934          48.000  
  23713236.847     -136699.956        3897.575          41.000  
  21849380.888      -84724.298        2415.935          44.000  
  20063258.982       10514.595        -301.116          45.000  
  23000409.919       85677.351       -2454.860          41.000  
  23833281.991       82391.706       -2344.337          40.000  
  21078749.485      -70878.097        2029.374          46.000  
  24562612.323     -114340.280        3439.110          36.000  
  24650207.792      -27091.8292       3175.737          32.000  
  21261229.710       51378.711       -1467.830          46.000  
  19998633.166       -8694.827         241.576          46.000  
 16 10 14 20 49 56.5990000  0 11G29G24G18G20G 4G 5G21G10G27G13G15
  22582015.733       99190.039       -2809.994          48.000  
  23713088.224     -137479.433        3897.783          41.000  
  21849289.239      -85207.376        2415.609          44.000  
  20063270.569       10574.801        -300.855          45.000  
  23000503.435       86168.399       -2455.042          41.000  
  23833371.022       82860.517       -2343.904          40.000  
  21078672.268      -71283.946        2029.339          46.000  
  24562481.376     -115028.340        3440.645          36.000  
  24650086.949      -27727.1312       3176.960          32.000  
  21261285.882       51672.363       -1468.023          46.000  
  19998624.248       -8743.105         241.522          46.000  
 16 10 14 20 49 56.7990000  0 11G29G24G18G20G 4G 5G21G10G27G13G15
  22582122.773       99752.021       -2809.525          48.000  
  23712939.932     -138258.956        3897.211          41.000  
  21849197.521      -85690.450        2415.156          44.000  
  20063282.034       10635.006        -300.821          45.000  
  23000596.863       86659.407       -2455.335          41.000  
  23833460.332       83329.274       -2343.071          40.000  
  21078595.208      -71689.786        2029.618          46.000  
  24562350.378     -115716.384        3441.263          36.000  
  24649966.176      -28362.3762       3175.263          32.000  
  21261341.548       51966.027       -1468.300          46.000  
  19998614.965       -8791.380         241.702          46.000  
 16 10 14 20 49 56.9990000  0 11G29G24G18G20G 4G 5G21G10G27G13G15
  22582229.690      100314.051       -2809.632          48.000  
  23712791.482     -139038.419        3897.083          41.000  
  21849105.488      -86173.486        2415.024          44.000  
  20063293.760       10695.257        -301.130          45.000  
  23000690.256       87150.525       -2454.189          41.000  
  23833549.729       83798.122       -2344.733          40.000  
  21078517.885      -72095.580        2028.964          46.000  
  24562219.361     -116404.424        3439.325          36.000  
  24649845.245      -28997.5522       3176.271          32.000  
  21261397.371       52259.749       -1468.672          46.000  
  19998605.664       -8839.592         241.000          46.000  
 16 10 14 20 49 57.1990000  0 11G29G24G18G20G 4G 5G21G10G27G13G15
  22582336.712      100876.098       -2810.134          48.000  
  23712643.190     -139817.888        3897.084          41.000  
  21849013.333      -86656.509        2414.950          44.000  
  20063305.330       10755.519        -301.366          45.000  
  23000783.702       87641.589       -2455.748          41.000  
  23833638.812       84266.931       -2344.438          40.000  
  21078440.808      -72501.364        2028.620          46.000  
  24562088.572     -117092.457        3439.654          36.000  
  24649724.228      -29632.7742       3175.430          32.000  
  21261453.386       52553.486       -1468.591          46.000  
  19998596.764       -8887.780         240.702          46.000  
 16 10 14 20 49 57.3990000  0 11G29G24G18G20G 4G 5G21G10G27G13G15
  22582443.629      101438.120       -2810.750          48.000  
  23712495.125     -140597.355        3896.735          41.000  
  21848921.196      -87139.547        2415.248          44.000  
  20063316.568       10815.792        -301.625          45.000  
  23000876.904       88132.679       -2456.446          41.000  
  23833728.000       84735.758       -2344.541          40.000  
  21078363.555      -72907.143        2028.284          46.000  
  24561957.800     -117780.512        3438.834          36.000  
  24649603.141      -30267.9212       3175.920          32.000  
  21261509.262       52847.240       -1468.933          46.000  
  19998587.742       -8935.949         240.495          46.000  
 16 10 14 20 49 57.5990000  0 11G29G24G18G20G 4G 5G21G10G27G13G15
  22582550.704      102000.241       -2810.749          48.000  
  23712346.956     -141376.769        3896.933          41.000  
  21848829.146      -87622.518        2414.951          44.000  
  20063328.033       10876.137        -301.425          45.000  
  23000970.507       88623.854       -2455.397          41.000  
  23833817.345       85204.655       -2345.021          40.000  
  21078286.356      -73312.835        2028.445          46.000  
  24561826.958     -118468.470        3439.500          36.000  
  24649481.984      -30903.0073       3174.698          32.000  
  21261565.225       53141.082       -1469.312          46.000  
  19998578.581       -8984.028         240.296          46.000  
 16 10 14 20 49 57.7990000  0 11G29G24G18G20G 4G 5G21G10G27G13G15
  22582657.394      102562.365       -2810.882          48.000  
  23712198.541     -142156.150        3897.037          41.000  
  21848737.044      -88105.468        2414.553          44.000  
  20063339.794       10936.496        -301.971          45.000  
  23001064.092       89115.040       -2456.080          41.000  
  23833906.551       85673.535       -2344.182          39.000  
  21078208.912      -73718.513        2028.388          46.000  
  24561696.116     -119156.439        3439.337          36.000  
  24649361.176      -31538.1283       3174.718          32.000  
  21261620.978       53434.943       -1469.534          46.000  
  19998568.931       -9032.073         240.209          46.000  
 16 10 14 20 49 57.9990000  0 11G29G24G18G20G 4G 5G21G10G27G13G15
  22582764.417      103124.585       -2810.973          48.000  
  23712050.232     -142935.473        3895.826          41.000  
  21848645.169      -88588.341        2414.126          44.000  
  20063351.241       10996.951        -302.523          45.000  
  23001157.433       89606.323       -2456.227          41.000  
  23833996.105       86142.519       -2344.246          39.000  
  21078131.834      -74124.088        2027.712          46.000  
  24561564.821     -119844.327        3439.518          36.000  
  24649240.159      -32173.1012       3175.098          32.000  
  21261677.011       53728.902       -1470.259          46.000  
  19998559.595       -9080.028         239.350          46.000  
 16 10 14 20 49 58.1990000  0 11G29G24G18G20G 4G 5G21G10G27G13G15
  22582871.159      103686.788       -2810.843          48.000  
  23711902.132     -143714.782        3896.869          41.000  
  21848553.363      -89071.203        2414.066          44.000  
  20063362.636       11057.409        -302.159          45.000  
  23001250.774       90097.581       -2456.229          41.000  
  23834085.223       86611.460       -2344.421          39.000  
  21078054.739      -74529.675        2028.150          46.000  
  24561433.630     -120532.225        3440.943          36.000  
  24649119.351      -32808.0972       3174.113          32.000  
  21261733.165       54022.878       -1469.365          46.000  
  19998550.538       -9127.955         240.147          46.000  
 16 10 14 20 49 58.3990000  0 11G29G24G18G20G 4G 5G21G10G27G13G15
  22582978.112      104249.032       -2811.133          48.000  
  23711754.049     -144494.105        3896.030          41.000  
  21848461.418      -89554.059        2413.946          44.000  
  20063374.223       11117.892        -302.875          45.000  
  23001344.098       90588.895       -2456.999          41.000  
  23834174.411       87080.448       -2345.113          39.000  
  21077977.661      -74935.207        2027.626          46.000  
  24561302.858     -121220.085        3438.895          36.000  
  24648998.683      -33443.0512       3175.405          32.000  
  21261789.181       54316.880       -1470.546          46.000  
  19998541.394       -9175.866         239.472          46.000  
 16 10 14 20 49 58.5990000  0 11G29G24G18G20G 4G 5G21G10G27G13G15
  22583085.204      104811.291       -2811.496          48.000  
  23711605.635     -145273.367        3896.376          41.000  
  21848369.612      -90036.885        2413.893          44.000  
  20063385.775       11178.412        -302.365          45.000  
  23001437.666       91080.217       -2456.334          41.000  
  23834263.634       87549.447       -2344.508          39.000  
  21077900.444      -75340.737        2027.829          46.000  
  24561172.103     -121907.953        3439.094          36.000  
  24648877.718      -34077.9862       3174.112          32.000  
  21261844.882       54610.918       -1470.114          46.000  
  19998532.076       -9223.716         239.350          46.000  
 16 10 14 20 49 58.7990000  0 11G29G24G18G20G 4G 5G21G10G27G13G15
  22583192.400      105373.583       -2811.302          48.000  
  23711457.413     -146052.614        3896.455          41.000  
  21848277.929      -90519.695        2414.042          44.000  
  20063397.013       11238.957        -302.704          45.000  
  23001530.920       91571.586       -2456.831          41.000  
  23834353.032       88018.473       -2344.754          39.000  
  21077823.314      -75746.226        2027.498          46.000  
  24561041.244     -122595.792        3439.729          36.000  
  24648756.910      -34712.8382       3174.488          32.000  
  21261900.862       54905.013       -1470.318          46.000  
  19998523.263       -9271.523         238.900          46.000  
 16 10 14 20 49 58.9990000  0 11G29G24G18G20G 4G 5G21G10G27G13G15
  22583299.649      105935.936       -2811.516          48.000  
  23711308.859     -146831.828        3896.377          41.000  
  21848186.105      -91002.427        2413.782          44.000  
  20063408.722       11299.574        -303.227          45.000  
  23001624.244       92062.982       -2457.507          41.000  
  23834442.359       88487.529       -2345.029          39.000  
  21077746.393      -76151.647        2026.855          46.000  
  24560910.420     -123283.572        3439.488          36.000  
  24648636.242      -35347.6592       3173.608          32.000  
  21261956.825       55199.163       -1470.857          46.000  
  19998514.119       -9319.257         238.722          46.000  
 16 10 14 20 49 59.1990000  0 11G29G24G18G20G 4G 5G21G10G27G13G15
  22583406.636      106498.379       -2812.021          48.000  
  23711160.445     -147610.947        3895.517          41.000  
  21848094.369      -91485.095        2413.732          44.000  
  20063420.239       11360.270        -303.342          45.000  
  23001717.811       92554.520       -2456.498          41.000  
  23834531.564       88956.689       -2344.622          39.000  
  21077669.350      -76556.967        2027.159          46.000  
  24560779.735     -123971.278        3438.373          36.000  
  24648515.363      -35982.3732       3172.297          32.000  
  21262012.700       55493.419       -1471.102          46.000  
  19998505.045       -9366.887         238.442          46.000  
 16 10 14 20 49 59.3990000  0 11G29G24G18G20G 4G 5G21G10G27G13G15
  22583513.606      107060.774       -2811.900          48.000  
  23711012.205     -148390.131        3895.347          41.000  
  21848002.476      -91967.790        2413.543          44.000  
  20063431.791       11420.926        -303.659          45.000  
  23001811.362       93045.988       -2456.662          41.000  
  23834621.049       89425.783       -2346.393          39.000  
  21077592.464      -76962.332        2026.584          46.000  
  24560649.102     -124659.025        3436.473          36.000  
  24648394.625      -36617.1192       3172.643          32.000  
  21262068.733       55787.633       -1471.477          46.000  
  19998495.709       -9414.542         238.177          46.000  
 16 10 14 20 49 59.5990000  0 11G29G24G18G20G 4G 5G21G10G27G13G15
  22583620.506      107623.232       -2812.220          48.000  
  23710864.018     -149169.244        3895.705          41.000  
  21847910.863      -92450.446        2413.191          44.000  
  20063443.186       11481.661        -303.677          45.000  
  23001905.105       93537.515       -2457.021          41.000  
  23834710.307       89894.938       -2345.099          39.000  
  21077515.212      -77367.634        2026.524          46.000  
  24560518.295     -125346.737        3439.249          36.000  
  24648273.992      -37251.8032       3174.057          32.000  
  21262124.469       56081.931       -1471.884          46.000  
  19998486.844       -9462.123         237.717          46.000  
 16 10 14 20 49 59.7990000  0 11G29G24G18G20G 4G 5G21G10G27G13G15
  22583727.807      108185.701       -2812.379          48.000  
  23710715.621     -149948.352        3895.916          41.000  
  21847818.987      -92933.084        2413.345          44.000  
  20063454.790       11542.414        -303.629          45.000  
  23001998.812       94029.065       -2457.226          41.000  
  23834799.303       90364.122       -2345.081          39.000  
  21077438.030      -77772.908        2026.414          46.000  
  24560387.262     -126034.394        3440.275          36.000  
  24648152.940      -37886.4832       3173.449          32.000  
  21262180.798       56376.246       -1472.204          46.000  
  19998477.683       -9509.669         237.487          46.000  
 16 10 14 20 49 59.9990000  0 11G29G24G18G20G 4G 5G21G10G27G13G15
  22583834.952      108748.222       -2812.826          48.000  
  23710567.277     -150727.415        3894.924          41.000  
  21847727.077      -93415.673        2413.151          44.000  
  20063466.395       11603.213        -303.880          45.000  
  23002092.590       94520.624       -2457.955          41.000  
  23834888.369       90833.297       -2345.949          39.000  
  21077360.970      -78178.138        2026.176          46.000  
  24560256.245     -126722.060        3437.751          36.000  
  24648032.045      -38521.1002       3171.787          32.000  
  21262236.988       56670.631       -1471.785          46.000  
  19998468.836       -9557.157         237.351          46.000  
 16 10 14 20 50  0.1990000  0 11G29G24G18G20G 4G 5G21G10G27G13G15
  22583941.747      109310.785       -2812.702          48.000  
  23710419.159     -151506.447        3895.478          41.000  
  21847634.992      -93898.237        2412.543          44.000  
  20063477.929       11664.059        -304.480          45.000  
  23002186.070       95012.303       -2458.197          41.000  
  23834977.347       91302.544       -2345.346          40.000  
  21077283.962      -78583.321        2025.856          46.000  
  24560125.456     -127409.685        3439.055          36.000  
  24647911.237      -39155.5762       3173.717          32.000  
  21262293.002       56965.058       -1472.088          46.000  
  19998459.883       -9604.582         237.009          46.000  
 16 10 14 20 50  0.3990000  0 11G29G24G18G20G 4G 5G21G10G27G13G15
  22584048.717      109873.355       -2812.935          48.000  
  23710270.884     -152285.461        3894.982          41.000  
  21847543.221      -94380.778        2412.635          44.000  
  20063489.585       11724.912        -304.322          45.000  
  23002279.725       95503.932       -2457.987          41.000  
  23835066.815       91771.779       -2347.081          40.000  
  21077206.762      -78988.489        2025.796          46.000  
  24559994.527     -128097.284        3438.909          36.000  
  24647790.586      -39790.2063       3173.404          31.000  
  21262349.244       57259.516       -1472.084          46.000  
  19998450.949       -9651.994         236.616          46.000  
 16 10 14 20 50  0.5990000  0 11G29G24G18G20G 4G 5G21G10G27G13G15
  22584155.599      110435.959       -2812.848          48.000  
  23710122.592     -153064.483        3894.633          41.000  
  21847451.416      -94863.290        2412.574          44.000  
  20063501.347       11785.815        -304.068          45.000  
  23002373.189       95995.616       -2458.714          41.000  
  23835155.915       92241.021       -2345.858          40.000  
  21077129.719      -79393.619        2025.656          46.000  
  24559863.493     -128784.855        3438.573          36.000  
  24647669.865      -40424.6433       3172.535          31.000  
  21262405.155       57554.009       -1472.062          46.000  
  19998441.944       -9699.347         236.979          46.000  
 16 10 14 20 50  0.7990000  0 11G29G24G18G20G 4G 5G21G10G27G13G15
  22584262.831      110998.573       -2813.551          48.000  
  23709974.021     -153843.491        3894.705          41.000  
  21847359.593      -95345.806        2412.349          44.000  
  20063512.794       11846.708        -304.857          45.000  
  23002466.966       96487.318       -2459.054          41.000  
  23835244.999       92710.301       -2346.277          40.000  
  21077052.432      -79798.730        2025.338          46.000  
  24559732.564     -129472.464        3438.094          36.000  
  24647549.319      -41059.1552       3170.098          31.000  
  21262460.943       57848.523       -1473.098          46.000  
  19998433.097       -9746.677         236.431          46.000  
 16 10 14 20 50  0.9990000  0 11G29G24G18G20G 4G 5G21G10G27G13G15
  22584369.940      111561.284       -2813.894          48.000  
  23709825.974     -154622.372        3894.185          41.000  
  21847267.700      -95828.216        2412.022          44.000  
  20063524.573       11907.730        -305.131          45.000  
  23002560.465       96979.125       -2458.699          41.000  
  23835334.396       93179.632       -2347.906          40.000  
  21076975.285      -80203.733        2024.989          46.000  
  24559601.618     -130159.966        3437.933          36.000  
  24647428.494      -41693.5462       3171.995          31.000  
  21262517.150       58143.145       -1473.560          46.000  
  19998424.163       -9793.887         236.068          46.000  
 16 10 14 20 50  1.1990000  0 11G29G24G18G20G 4G 5G21G10G27G13G15
  22584477.067      112123.991       -2813.719          48.000  
  23709677.908     -155401.275        3894.844          41.000  
  21847175.388      -96310.631        2411.698          44.000  
  20063536.160       11968.741        -305.119          45.000  
  23002653.945       97470.929       -2459.298          41.000  
  23835423.636       93648.993       -2346.723          39.000  
  21076898.242      -80608.739        2025.258          46.000  
  24559470.967     -130847.426        3437.733          36.000  
  24647307.825      -42327.8502       3170.970          31.000  
  21262573.340       58437.788       -1473.325          46.000  
  19998414.879       -9841.102         235.966          46.000  
 16 10 14 20 50  1.3990000  0 11G29G24G18G20G 4G 5G21G10G27G13G15
  22584584.193      112686.731       -2813.722          48.000  
  23709530.035     -156180.151        3894.152          41.000  
  21847083.809      -96793.023        2412.221          44.000  
  20063547.415       12029.787        -305.199          45.000  
  23002747.949       97962.758       -2458.081          41.000  
  23835512.859       94118.363       -2347.741          39.000  
  21076821.164      -81013.726        2024.812          46.000  
  24559340.143     -131534.938        3437.850          36.000  
  24647187.070      -42962.1932       3176.239          31.000  
  21262629.268       58732.459       -1473.064          46.000  
  19998405.874       -9888.257         235.637          46.000  
 16 10 14 20 50  1.5990000  0 11G29G24G18G20G 4G 5G21G10G27G13G15
  22584691.355      113249.475       -2813.654          48.000  
  23709381.551     -156959.054        3894.072          41.000  
  21846991.654      -97275.440        2411.692          44.000  
  20063559.072       12090.832        -305.380          45.000  
  23002841.256       98454.581       -2458.778          41.000  
  23835602.187       94587.729       -2347.175          39.000  
  21076744.209      -81418.690        2024.795          46.000  
  24559209.319     -132222.433        3436.543          36.000  
  24647066.733      -43596.5092       3171.868          31.000  
  21262685.143       59027.145       -1473.734          46.000  
  19998397.079       -9935.411         235.777          46.000  
 16 10 14 20 50  1.7990000  0 11G29G24G18G20G 4G 5G21G10G27G13G15
  22584798.308      113812.269       -2813.874          48.000  
  23709233.242     -157737.867        3895.043          41.000  
  21846900.145      -97757.771        2411.259          44.000  
  20063570.886       12151.945        -305.145          45.000  
  23002934.684       98946.466       -2460.279          41.000  
  23835691.602       95057.142       -2347.081          39.000  
  21076667.253      -81823.587        2024.396          46.000  
  24559078.564     -132909.848        3437.365          36.000  
  24646946.099      -44230.8303       3170.759          31.000  
  21262741.525       59321.911       -1474.080          46.000  
  19998388.005       -9982.463         235.193          46.000  
 16 10 14 20 50  1.9990000  0 11G29G24G18G20G 4G 5G21G10G27G13G15
  22584905.138      114375.080       -2814.344          48.000  
  23709085.177     -158516.718        3894.097          41.000  
  21846808.584      -98240.085        2411.424          44.000  
  20063582.542       12213.075        -305.812          45.000  
  23003028.479       99438.375       -2459.889          41.000  
  23835780.877       95526.555       -2347.561          39.000  
  21076590.298      -82228.477        2024.452          46.000  
  24558947.758     -133597.273        3437.036          36.000  
  24646825.501      -44865.0202       3171.467          31.000  
  21262797.732       59616.700       -1473.774          46.000  
  19998378.635      -10029.513         234.919          46.000  
 16 10 14 20 50  2.1990000  0 11G29G24G18G20G 4G 5G21G10G27G13G15
  22585012.125      114937.925       -2814.281          48.000  
  23708936.971     -159295.541        3894.471          41.000  
  21846717.057      -98722.393        2411.201          44.000  
  20063593.972       12274.235        -305.588          45.000  
  23003122.151       99930.312       -2460.508          41.000  
  23835870.187       95995.988       -2347.411          39.000  
  21076513.150      -82633.322        2024.372          46.000  
  24558816.846     -134284.686        3436.693          36.000  
  24646704.745      -45499.2653       3168.306          31.000  
  21262853.729       59911.515       -1474.279          46.000  
  19998369.647      -10076.508         234.496          46.000  
 16 10 14 20 50  2.3990000  0 11G29G24G18G20G 4G 5G21G10G27G13G15
  22585119.531      115500.806       -2814.539          48.000  
  23708788.941     -160074.326        3893.648          41.000  
  21846625.147      -99204.665        2410.814          44.000  
  20063605.803       12335.425        -306.354          45.000  
  23003215.754      100422.294       -2460.675          41.000  
  23835959.497       96465.438       -2348.300          39.000  
  21076436.159      -83038.139        2023.949          46.000  
  24558686.021     -134972.081        3435.899          36.000  
  24646584.182      -46133.4002       3171.413          31.000  
  21262909.954       60206.363       -1474.456          46.000  
  19998360.975      -10123.457         234.331          46.000  
 16 10 14 20 50  2.5990000  0 11G29G24G18G20G 4G 5G21G10G27G13G15
  22585226.309      116063.730       -2814.468          47.000  
  23708640.963     -160853.034        3893.771          42.000  
  21846533.743      -99686.886        2411.368          44.000  
  20063617.547       12396.684        -306.499          45.000  
  23003309.497      100914.318       -2459.890          41.000  
  23836049.086       96934.957       -2347.612          39.000  
  21076359.309      -83442.897        2023.907          46.000  
  24558555.092     -135659.415        3436.429          35.000  
  24646463.391      -46767.5072       3170.511          32.000  
  21262966.109       60501.288       -1474.518          46.000  
  19998351.726      -10170.330         234.078          46.000  
 16 10 14 20 50  2.7990000  0 11G29G24G18G20G 4G 5G21G10G27G13G15
  22585333.697      116626.686       -2815.407          47.000  
  23708492.829     -161631.789        3893.154          41.000  
  21846442.007     -100169.084        2410.997          44.000  
  20063628.890       12457.968        -306.307          45.000  
  23003402.995      101406.366       -2460.522          41.000  
  23836138.397       97404.506       -2349.115          41.000  
  21076282.144      -83847.627        2023.467          46.000  
  24558424.076     -136346.716        3435.583          36.000  
  24646342.653      -47401.5742       3169.470          32.000  
  21263022.421       60796.259       -1474.824          46.000  
  19998342.774      -10217.169         234.015          46.000  
 16 10 14 20 50  2.9990000  0 11G29G24G18G20G 4G 5G21G10G27G13G15
  22585440.807      117189.697       -2814.935          46.000  
  23708344.606     -162410.440        3893.313          42.000  
  21846350.428     -100651.242        2410.645          44.000  
  20063640.529       12519.301        -307.088          45.000  
  23003496.807      101898.460       -2460.866          41.000  
  23836227.672       97874.035       -2347.412          39.000  
  21076205.415      -84252.295        2023.331          46.000  
  24558293.356     -137033.999        3437.274          36.000  
  24646222.107      -48035.5793       3170.718          32.000  
  21263078.436       61091.291       -1475.614          46.000  
  19998333.892      -10263.945         233.576          46.000  
 16 10 14 20 50  3.1990000  0 11G29G24G18G20G 4G 5G21G10G27G13G15
  22585547.846      117752.723       -2814.990          45.000  
  23708196.733     -163189.091        3893.073          42.000  
  21846258.535     -101133.348        2410.925          44.000  
  20063652.081       12580.665        -306.920          45.000  
  23003590.427      102390.589       -2460.870          41.000  
  23836317.174       98343.668       -2347.906          39.000  
  21076128.215      -84656.934        2022.947          46.000  
  24558162.462     -137721.240        3436.160          35.000  
  24646101.543      -48669.5283       3177.433          27.000  
  21263134.608       61386.343       -1475.580          46.000  
  19998325.149      -10310.669         233.667          46.000  
 16 10 14 20 50  3.3990000  0 11G29G24G18G20G 4G 5G21G10G27G13G15
  22585654.781      118315.773       -2815.327          44.000  
  23708048.790     -163967.733        3892.504          42.000  
  21846166.834     -101615.468        2410.910          44.000  
  20063663.772       12642.066        -306.429          45.000  
  23003684.257      102882.759       -2460.854          41.000  
  23836406.379       98813.267       -2348.215          39.000  
  21076051.312      -85061.529        2023.203          46.000  
  24558031.865     -138408.507        3435.030          35.000  
  24645980.543      -49303.9653       3167.844          33.000  
  21263190.850       61681.474       -1474.718          46.000  
  19998316.563      -10357.351         233.421          46.000  
 16 10 14 20 50  3.5990000  0 11G29G24G18G20G 4G 5G21G10G27G13G15
  22585761.890      118878.848       -2815.666          44.000  
  23707900.707     -164746.322        3892.073          42.000  
  21846075.412     -102097.521        2409.241          44.000  
  20063675.516       12703.505        -307.834          45.000  
  23003777.913      103374.983       -2461.806          41.000  
  23836495.899       99282.932       -2348.230          39.000  
  21075974.287      -85466.089        2022.667          46.000  
  24557901.180     -139095.678        3436.556          35.000  
  24645858.793      -49937.7593       3168.859          29.000  
  21263246.935       61976.615       -1476.212          46.000  
  19998307.542      -10403.987         232.360          46.000  
 16 10 14 20 50  3.7990000  0 11G29G24G18G20G 4G 5G21G10G27G13G15
  22585869.052      119441.969       -2815.364          46.000  
  23707752.712     -165524.882        3893.209          42.000  
  21845983.746     -102579.556        2410.825          44.000  
  20063687.190       12765.007        -307.396          45.000  
  23003871.463      103867.190       -2462.071          42.000  
  23836585.192       99752.587       -2349.171          39.000  
  21075897.174      -85870.612        2022.855          46.000  
  24557770.495     -139782.801        3436.006          35.000  
  24645736.641      -50571.4793       3168.993          28.000  
  21263302.967       62271.826       -1475.482          46.000  
  19998298.834      -10450.552         233.210          46.000  
 16 10 14 20 50  3.9990000  0 10G29G24G18G20G 4G 5G21G10G13G15
  22585976.528      120005.123       -2815.916          48.000  
  23707604.385     -166303.452        3892.373          41.000  
  21845892.185     -103061.613        2409.490          45.000  
  20063698.830       12826.486        -307.222          45.000  
  23003965.206      104359.427       -2461.730          41.000  
  23836674.641      100222.206       -2348.175          39.000  
  21075820.044      -86275.139        2022.712          46.000  
  24557639.706     -140470.018        3434.147          36.000  
  21263359.384       62567.026       -1475.802          46.000  
  19998290.074      -10497.142         233.033          46.000  
 16 10 14 20 50  4.1990000  0 10G29G24G18G20G 4G 5G21G10G13G15
  22586083.812      120568.318       -2816.505          48.000  
  23707456.023     -167081.946        3892.501          41.000  
  21845800.239     -103543.604        2409.975          44.000  
  20063710.608       12888.028        -307.618          45.000  
  23004059.035      104851.712       -2461.270          41.000  
  23836763.951      100691.925       -2348.553          39.000  
  21075743.245      -86679.591        2022.227          46.000  
  24557508.951     -141157.159        3435.072          35.000  
  21263415.887       62862.293       -1476.735          46.000  
  19998281.453      -10543.642         232.251          47.000  
 16 10 14 20 50  4.3990000  0 10G29G24G18G20G 4G 5G21G10G13G15
  22586190.886      121131.536       -2816.289          48.000  
  23707307.766     -167860.463        3892.679          42.000  
  21845708.294     -104025.553        2410.206          44.000  
  20063722.195       12949.611        -307.191          45.000  
  23004152.760      105344.061       -2462.187          42.000  
  23836853.628      101161.667       -2349.270          40.000  
  21075666.203      -87084.020        2022.448          46.000  
  24557378.196     -141844.309        3436.567          35.000  
  21263471.798       63157.617       -1476.491          46.000  
  19998272.309      -10590.067         232.733          47.000  
 16 10 14 20 50  4.5990000  0 10G29G24G18G20G 4G 5G21G10G13G15
  22586298.310      121694.790       -2816.090          48.000  
  23707159.561     -168638.952        3892.682          42.000  
  21845616.820     -104507.509        2410.245          44.000  
  20063733.695       13011.202        -308.457          45.000  
  23004246.485      105836.381       -2461.956          41.000  
  23836943.095      101631.376       -2348.146          40.000  
  21075588.985      -87488.412        2021.821          46.000  
  24557247.355     -142531.355        3434.822          36.000  
  21263527.953       63452.964       -1477.159          46.000  
  19998263.392      -10636.510         231.733          46.000  
 16 10 14 20 50  4.7990000  0 10G29G24G18G20G 4G 5G21G10G13G15
  22586405.506      122258.055       -2816.530          48.000  
  23707011.514     -169417.398        3892.391          42.000  
  21845525.468     -104989.397        2409.657          44.000  
  20063745.386       13072.857        -308.172          45.000  
  23004340.228      106328.827       -2462.243          42.000  
  23837032.650      102101.180       -2349.030          41.000  
  21075512.030      -87892.761        2021.522          46.000  
  24557116.722     -143218.489        3436.184          35.000  
  21263584.003       63748.371       -1477.278          46.000  
  19998254.719      -10682.867         231.686          46.000  
 16 10 14 20 50  4.9990000  0 10G29G24G18G20G 4G 5G21G10G13G15
  22586512.703      122821.352       -2816.852          48.000  
  23706863.431     -170195.830        3892.163          42.000  
  21845433.436     -105471.302        2409.425          44.000  
  20063757.200       13134.518        -308.564          45.000  
  23004433.622      106821.227       -2461.974          41.000  
  23837121.733      102570.975       -2349.177          41.000  
  21075435.266      -88297.081        2021.156          46.000  
  24556985.793     -143905.470        3434.919          35.000  
  21263640.419       64043.805       -1477.000          46.000  
  19998246.116      -10729.187         231.447          47.000  
 16 10 14 20 50  5.1990000  0 11G29G24G18G20G 4G 5G21G10G27G13G15
  22586619.899      123384.732       -2816.754          47.000  
  23706715.453     -170974.199        3891.575          43.000  
  21845341.490     -105953.107        2408.829          44.000  
  20063768.874       13196.283        -308.378          45.000  
  23004527.329      107313.753       -2461.814          41.000  
  23837211.165      103040.831       -2349.814          41.000  
  21075358.363      -88701.319        2021.422          46.000  
  24556854.829     -144592.420        3434.637          35.000  
  24644891.143      -55007.2983       3166.918          32.000  
  21263696.556       64339.320       -1477.681          46.000  
  19998237.338      -10775.392         231.237          47.000  
 16 10 14 20 50  5.3990000  0 11G29G24G18G20G 4G 5G21G10G27G13G15
  22586726.974      123948.091       -2816.131          47.000  
  23706567.388     -171752.597        3891.946          42.000  
  21845249.859     -106434.949        2409.387          44.000  
  20063780.793       13258.014        -308.121          45.000  
  23004621.211      107806.235       -2462.024          41.000  
  23837300.667      103510.659       -2348.449          41.000  
  21075280.989      -89105.589        2021.852          46.000  
  24556724.197     -145279.441        3435.453          35.000  
  24644770.823      -55640.8103       3168.120          32.000  
  21263752.746       64634.830       -1477.160          46.000  
  19998228.352      -10821.635         231.368          47.000  
 16 10 14 20 50  5.5990000  0 11G29G24G18G20G 4G 5G21G10G27G13G15
  22586834.118      124511.395       -2817.049          48.000  
  23706419.096     -172530.996        3892.025          42.000  
  21845158.245     -106916.807        2409.199          44.000  
  20063792.694       13319.723        -308.933          45.000  
  23004714.901      108298.666       -2462.490          41.000  
  23837389.751      103980.454       -2349.492          39.000  
  21075204.312      -89509.866        2021.001          46.000  
  24556593.425     -145966.506        3434.925          35.000  
  24644650.225      -56274.3433       3167.595          31.000  
  21263808.988       64930.326       -1477.635          46.000  
  19998219.522      -10867.887         231.176          46.000  
 16 10 14 20 50  5.7990000  0 11G29G24G18G20G 4G 5G21G10G27G13G15
  22586941.402      125074.773       -2816.584          48.000  
  23706271.083     -173309.408        3892.353          43.000  
  21845066.527     -107398.641        2408.769          44.000  
  20063804.420       13381.474        -308.651          45.000  
  23004808.574      108791.148       -2461.978          41.000  
  23837478.886      104450.292       -2349.239          39.000  
  21075127.479      -89914.097        2021.130          46.000  
  24556462.548     -146653.477        3436.086          35.000  
  24644529.557      -56907.9513       3167.933          31.000  
  21263865.178       65225.883       -1477.969          46.000  
  19998211.058      -10914.078         230.764          46.000  
 16 10 14 20 50  5.9990000  0 11G29G24G18G20G 4G 5G21G10G27G13G15
  22587048.704      125638.185       -2817.152          48.000  
  23706122.948     -174087.792        3891.603          43.000  
  21844975.123     -107880.405        2408.801          44.000  
  20063816.182       13443.292        -308.967          45.000  
  23004902.543      109283.694       -2463.049          41.000  
  23837568.546      104920.143       -2349.198          39.000  
  21075050.628      -90318.278        2021.023          46.000  
  24556331.567     -147340.464        3435.219          35.000  
  24644408.278      -57541.4173       3166.788          31.000  
  21263921.263       65521.475       -1478.308          46.000  
  19998202.264      -10960.200         230.349          46.000  
 16 10 14 20 50  6.1990000  0 11G29G24G18G20G 4G 5G21G10G27G13G15
  22587155.935      126201.620       -2816.808          48.000  
  23705974.813     -174866.157        3891.816          42.000  
  21844883.526     -108362.177        2408.985          44.000  
  20063827.925       13505.100        -309.508          45.000  
  23004996.094      109776.215       -2463.152          41.000  
  23837657.768      105390.066       -2348.768          39.000  
  21074973.672      -90722.449        2021.003          46.000  
  24556200.672     -148027.423        3434.644          35.000  
  24644286.771      -58174.9243       3165.722          31.000  
  21263977.138       65817.097       -1477.895          46.000  
  19998193.276      -11006.301         230.546          46.000  
 16 10 14 20 50  6.3990000  0 11G29G24G18G20G 4G 5G21G10G27G13G15
  22587262.870      126765.012       -2817.956          48.000  
  23705826.503     -175644.494        3890.669          40.000  
  21844791.633     -108843.992        2408.231          44.000  
  20063839.652       13566.923        -309.005          45.000  
  23005089.819      110268.809       -2463.171          41.000  
  23837747.078      105859.880       -2349.192          39.000  
  21074896.734      -91126.617        2020.478          46.000  
  24556069.848     -148714.440        3433.373          35.000  
  24644165.911      -58808.2983       3167.199          31.000  
  21264033.362       66112.745       -1478.076          46.000  
  19998184.761      -11052.391         230.598          46.000  
 16 10 14 20 50  6.5990000  0 11G29G24G18G20G 4G 5G21G10G27G13G15
  22587370.101      127328.568       -2817.619          48.000  
  23705678.299     -176422.697        3892.180          38.000  
  21844699.723     -109325.647        2408.916          44.000  
  20063851.308       13628.840        -309.563          45.000  
  23005183.282      110761.425       -2463.105          41.000  
  23837836.441      106329.860       -2349.443          39.000  
  21074819.779      -91530.671        2020.266          46.000  
  24555939.373     -149401.374        3434.333          35.000  
  24644045.313      -59441.6693       3166.131          31.000  
  21264089.814       66408.492       -1478.406          46.000  
  19998175.913      -11098.366         229.795          46.000  
 16 10 14 20 50  6.7990000  0 11G29G24G18G20G 4G 5G21G10G27G13G15
  22587477.525      127892.080       -2817.875          48.000  
  23705530.251     -177200.933        3890.335          36.000  
  21844608.650     -109807.352        2408.280          44.000  
  20063863.140       13690.774        -309.779          45.000  
  23005277.007      111254.090       -2463.860          41.000  
  23837925.803      106799.788       -2350.198          39.000  
  21074742.771      -91934.741        2020.248          46.000  
  24555808.950     -150088.187        3434.872          35.000  
  24643924.819      -60075.0373       3165.200          31.000  
  21264146.143       66704.223       -1478.685          46.000  
  19998167.066      -11144.328         229.618          46.000  
 16 10 14 20 50  6.9990000  0 11G29G24G18G20G 4G 5G21G10G27G13G15
  22587584.931      128455.610       -2817.498          47.000  
  23705382.395     -177979.111        3891.210          36.000  
  21844516.984     -110289.042        2407.908          44.000  
  20063874.849       13752.725        -309.895          45.000  
  23005370.889      111746.789       -2462.894          41.000  
  23838015.114      107269.713       -2349.613          39.000  
  21074666.077      -92338.756        2020.081          46.000  
  24555678.544     -150775.093        3433.467          35.000  
  24643805.686      -60708.3503       3166.497          31.000  
  21264202.787       67000.019       -1478.968          46.000  
  19998157.905      -11190.247         229.727          46.000  
 16 10 14 20 50  7.1990000  0 11G29G24G18G20G 4G 5G21G10G27G13G15
  22587691.883      129019.200       -2817.926          48.000  
  23705234.260     -178757.323        3890.418          36.000  
  21844425.336     -110770.660        2407.866          44.000  
  20063886.488       13814.719        -310.419          45.000  
  23005464.806      112239.512       -2463.057          41.000  
  23838104.773      107739.740       -2351.257          39.000  
  21074589.401      -92742.747        2019.719          46.000  
  24555547.511     -151461.874        3432.614          35.000  
  24643684.791      -61341.6013       3166.675          31.000  
  21264259.046       67295.848       -1479.687          46.000  
  19998149.459      -11236.127         229.015          46.000  
 16 10 14 20 50  7.3990000  0 11G29G24G18G20G 4G 5G21G10G27G13G15
  22587799.132      129582.798       -2818.010          48.000  
  23705086.020     -179535.526        3891.572          38.000  
  21844333.600     -111252.287        2408.131          44.000  
  20063898.389       13876.736        -310.354          45.000  
  23005558.514      112732.209       -2464.068          41.000  
  23838194.135      108209.745       -2350.017          39.000  
  21074512.480      -93146.712        2019.613          46.000  
  24555416.843     -152148.705        3436.815          35.000  
  24643564.768      -61974.8233       3166.031          32.000  
  21264315.288       67591.720       -1480.028          46.000  
  19998140.838      -11281.946         229.371          46.000  
 16 10 14 20 50  7.5990000  0 11G29G24G18G20G 4G 5G21G10G27G13G15
  22587906.747      130146.439       -2818.154          48.000  
  23704937.903     -180313.686        3891.259          38.000  
  21844241.759     -111733.876        2408.031          44.000  
  20063909.958       13938.806        -310.090          45.000  
  23005652.256      113225.026       -2464.002          41.000  
  23838283.428      108679.730       -2349.679          39.000  
  21074435.490      -93550.636        2019.930          46.000  
  24555286.350     -152835.538        3434.428          35.000  
  24643444.589      -62608.0443       3165.310          32.000  
  21264371.704       67887.641       -1479.552          46.000  
  19998132.130      -11327.726         228.844          46.000  
 16 10 14 20 50  7.7990000  0 11G29G24G18G20G 4G 5G21G10G27G13G15
  22588013.944      130710.100       -2818.278          48.000  
  23704790.100     -181091.831        3890.881          39.000  
  21844150.093     -112215.442        2407.875          44.000  
  20063921.667       14000.916        -310.001          45.000  
  23005746.173      113717.827       -2463.511          41.000  
  23838372.895      109149.829       -2349.686          39.000  
  21074358.604      -93954.518        2019.683          46.000  
  24555155.421     -153522.298        3435.086          35.000  
  24643325.770      -63241.1863       3166.090          31.000  
  21264428.278       68183.610       -1479.726          46.000  
  19998123.143      -11373.446         229.003          46.000  
 16 10 14 20 50  7.9990000  0 11G29G24G18G20G 4G 5G21G10G27G13G15
  22588121.193      131273.798       -2818.402          48.000  
  23704642.035     -181869.972        3890.971          39.000  
  21844058.497     -112696.973        2407.474          44.000  
  20063933.568       14063.021        -310.770          45.000  
  23005840.160      114210.664       -2465.210          41.000  
  23838462.205      109619.887       -2348.945          39.000  
  21074281.823      -94358.379        2019.181          46.000  
  24555024.457     -154209.099        3433.829          35.000  
  24643205.608      -63874.3453       3164.934          32.000  
  21264484.171       68479.596       -1480.028          46.000  
  19998114.471      -11419.149         228.362          46.000  
 16 10 14 20 50  8.1990000  0 11G29G24G18G20G 4G 5G21G10G27G13G15
  22588228.320      131837.476       -2818.537          48.000  
  23704494.179     -182648.151        3891.152          39.000  
  21843966.639     -113178.516        2407.110          44.000  
  20063945.504       14125.142        -310.602          45.000  
  23005933.746      114703.503       -2463.387          41.000  
  23838551.707      110089.962       -2350.086          39.000  
  21074204.746      -94762.237        2019.134          46.000  
  24554893.511     -154895.847        3432.878          35.000  
  24643083.997      -64507.4623       3164.999          32.000  
  21264540.238       68775.588       -1480.255          46.000  
  19998105.955      -11464.842         228.054          46.000  
 16 10 14 20 50  8.3990000  0 11G29G24G18G20G 4G 5G21G10G27G13G15
  22588335.848      132401.217       -2819.147          48.000  
  23704345.886     -183426.249        3890.415          39.000  
  21843875.025     -113660.024        2407.167          44.000  
  20063957.335       14187.313        -311.083          45.000  
  23006027.436      115196.361       -2465.697          41.000  
  23838641.087      110560.058       -2350.038          40.000  
  21074127.772      -95166.032        2018.950          46.000  
  24554762.791     -155582.565        3433.482          35.000  
  24642963.451      -65140.5283       3165.617          31.000  
  21264596.620       69071.652       -1480.699          46.000  
  19998097.247      -11510.452         227.877          46.000  
 16 10 14 20 50  8.5990000  0 11G29G24G18G20G 4G 5G21G10G27G13G15
  22588442.905      132965.005       -2819.130          48.000  
  23704198.048     -184204.289        3890.483          39.000  
  21843783.289     -114141.454        2407.487          44.000  
  20063969.271       14249.547        -310.973          45.000  
  23006121.073      115689.304       -2464.384          41.000  
  23838730.624      111030.209       -2350.294          40.000  
  21074051.026      -95569.771        2018.740          46.000  
  24554632.124     -156269.228        3433.074          35.000  
  24642842.783      -65773.5393       3165.506          31.000  
  21264653.106       69367.782       -1480.640          46.000  
  19998088.539      -11555.994         227.766          46.000  
 16 10 14 20 50  8.7990000  0 11G29G24G18G20G 4G 5G21G10G27G13G15
  22588550.259      133528.782       -2818.945          48.000  
  23704049.896     -184982.378        3889.777          39.000  
  21843691.798     -114622.917        2407.653          44.000  
  20063981.242       14311.765        -311.218          45.000  
  23006214.659      116182.210       -2464.674          41.000  
  23838820.231      111500.314       -2350.749          39.000  
  21073974.245      -95973.514        2018.868          46.000  
  24554501.457     -156955.954        3432.580          35.000  
  24642722.568      -66406.5303       3164.943          31.000  
  21264709.435       69663.908       -1480.455          46.000  
  19998079.919      -11601.545         227.831          46.000  
 16 10 14 20 50  8.9990000  0 11G29G24G18G20G 4G 5G21G10G27G13G15
  22588657.682      134092.558       -2818.807          48.000  
  23703901.953     -185760.452        3890.663          40.000  
  21843599.835     -115104.391        2407.425          44.000  
  20063993.283       14373.992        -310.907          45.000  
  23006308.716      116675.156       -2464.549          41.000  
  23838909.628      111970.428       -2350.213          39.000  
  21073897.517      -96377.260        2018.966          46.000  
  24554370.772     -157642.677        3432.154          35.000  
  24642601.202      -67039.5393       3165.210          31.000  
  21264765.730       69960.030       -1480.661          46.000  
  19998071.281      -11647.078         227.863          46.000  
 16 10 14 20 50  9.1990000  0 11G29G24G18G20G 4G 5G21G10G27G13G15
  22588764.600      134656.308       -2818.862          47.000  
  23703753.958     -186538.587        3889.677          40.000  
  21843508.012     -115585.898        2406.944          44.000  
  20064005.393       14436.182        -311.539          45.000  
  23006402.633      117168.050       -2465.179          41.000  
  23838999.340      112440.513       -2351.014          40.000  
  21073820.561      -96781.031        2018.633          46.000  
  24554239.791     -158329.402        3433.049          35.000  
  24642481.738      -67672.4893       3165.785          31.000  
  21264821.954       70256.140       -1481.040          46.000  
  19998062.661      -11692.630         227.260          46.000  
 16 10 14 20 50  9.3990000  0 11G29G24G18G20G 4G 5G21G10G27G13G15
  22588871.813      135220.127       -2819.092          48.000  
  23703605.665     -187316.637        3890.870          40.000  
  21843416.538     -116067.327        2407.381          44.000  
  20064017.468       14498.467        -311.236          45.000  
  23006496.235      117661.033       -2464.493          41.000  
  23839088.964      112910.671       -2349.627          40.000  
  21073744.094      -97184.725        2018.523          46.000  
  24554108.966     -159016.096        3433.830          35.000  
  24642357.160      -68305.5433       3164.250          31.000  
  21264878.283       70552.347       -1480.952          46.000  
  19998054.092      -11738.087         227.727          46.000  
 16 10 14 20 50  9.5990000  0 11G29G24G18G20G 4G 5G21G10G27G13G15
  22588979.237      135783.978       -2819.382          47.000  
  23703457.792     -188094.664        3890.443          40.000  
  21843325.064     -116548.738        2406.780          44.000  
  20064029.491       14560.776        -311.686          45.000  
  23006590.013      118154.032       -2465.932          41.000  
  23839178.501      113380.805       -2350.849          39.000  
  21073667.173      -97588.383        2018.000          46.000  
  24553978.124     -159702.735        3433.003          35.000  
  24642238.760      -68938.4262       3165.392          31.000  
  21264934.822       70848.585       -1481.689          46.000  
  19998045.350      -11783.493         227.032          46.000  
 16 10 14 20 50  9.7990000  0 11G29G24G18G20G 4G 5G21G10G27G13G15
  22589086.730      136347.838       -2819.664          48.000  
  23703309.605     -188872.676        3889.745          40.000  
  21843233.589     -117030.116        2406.360          44.000  
  20064041.043       14623.110        -312.086          45.000  
  23006683.703      118647.052       -2465.824          41.000  
  23839268.143      113850.999       -2351.450          39.000  
  21073590.392      -97992.012        2017.974          46.000  
  24553847.492     -160389.382        3433.261          35.000  
  24642119.471      -69571.2843       3167.123          31.000  
  21264991.273       71144.859       -1481.377          46.000  
  19998036.834      -11828.869         226.766          46.000  
 16 10 14 20 50  9.9990000  0 11G29G24G18G20G 4G 5G21G10G27G13G15
  22589194.154      136911.761       -2819.345          48.000  
  23703161.453     -189650.635        3890.881          40.000  
  21843142.150     -117511.465        2407.084          44.000  
  20064052.753       14685.489        -311.626          45.000  
  23006777.533      119140.135       -2464.759          41.000  
  23839357.784      114321.232       -2350.793          39.000  
  21073513.507      -98395.600        2018.190          46.000  
  24553716.772     -161075.979        3433.624          35.000  
  24641997.040      -70204.1112       3167.514          32.000  
  21265047.725       71441.176       -1481.414          46.000  
  19998027.882      -11874.192         226.817          46.000  
 16 10 14 20 50 10.1990000  0 11G29G24G18G20G 4G 5G21G10G27G13G15
  22589301.507      137475.678       -2819.486          48.000  
  23703013.405     -190428.614        3890.099          40.000  
  21843050.537     -117992.813        2406.307          44.000  
  20064064.374       14747.885        -312.227          45.000  
  23006871.589      119633.205       -2465.428          41.000  
  23839447.287      114791.441       -2351.612          39.000  
  21073436.586      -98799.172        2018.029          46.000  
  24553585.965     -161762.592        3433.804          35.000  
  24641876.476      -70836.9352       3163.786          32.000  
  21265103.915       71737.520       -1482.267          46.000  
  19998019.401      -11919.482         226.080          46.000  
 16 10 14 20 50 10.3990000  0 11G29G24G18G20G 4G 5G21G10G27G13G15
  22589408.756      138039.631       -2819.786          48.000  
  23702865.619     -191206.535        3889.575          40.000  
  21842958.800     -118474.115        2406.795          44.000  
  20064076.083       14810.309        -312.389          45.000  
  23006965.349      120126.338       -2465.540          41.000  
  23839536.596      115261.670       -2351.121          39.000  
  21073359.752      -99202.697        2017.392          46.000  
  24553455.385     -162449.173        3432.545          36.000  
  24641758.739      -71469.7332       3164.560          32.000  
  21265160.331       72033.909       -1482.360          46.000  
  19998010.937      -11964.718         226.661          46.000  
 16 10 14 20 50 10.5990000  0 11G29G24G18G20G 4G 5G21G10G27G13G15
  22589515.935      138603.652       -2820.275          48.000  
  23702717.309     -191984.409        3889.611          41.000  
  21842867.204     -118955.357        2406.255          44.000  
  20064088.159       14872.821        -311.898          45.000  
  23007059.301      120619.522       -2466.643          41.000  
  23839626.203      115731.984       -2350.831          39.000  
  21073283.076      -99606.157        2017.433          46.000  
  24553325.171     -163135.694        3432.231          36.000  
  24641639.938      -72102.3852       3162.994          32.000  
  21265216.765       72330.382       -1482.510          46.000  
  19998002.509      -12009.882         225.738          46.000  
 16 10 14 20 50 10.7990000  0 11G29G24G18G20G 4G 5G21G10G27G13G15
  22589623.376      139167.661       -2820.005          48.000  
  23702569.227     -192762.298        3888.935          41.000  
  21842775.713     -119436.626        2406.397          44.000  
  20064099.903       14935.312        -312.845          45.000  
  23007153.288      121112.686       -2466.894          41.000  
  23839715.793      116202.255       -2351.998          39.000  
  21073206.330     -100009.633        2016.524          46.000  
  24553194.557     -163822.254        3432.333          36.000  
  24641520.614      -72735.1512       3160.380          32.000  
  21265273.391       72626.850       -1482.383          46.000  
  19997993.888      -12055.047         225.182          46.000  
 16 10 14 20 50 10.9990000  0 11G29G24G18G20G 4G 5G21G10G27G13G15
  22589730.521      139731.714       -2820.116          48.000  
  23702421.179     -193540.156        3889.790          41.000  
  21842684.343     -119917.850        2406.229          44.000  
  20064111.542       14997.854        -312.273          45.000  
  23007247.310      121605.911       -2465.331          41.000  
  23839805.138      116672.584       -2351.270          39.000  
  21073129.706     -100413.052        2017.436          46.000  
  24553063.732     -164508.741        3432.364          36.000  
  24641400.661      -73367.7662       3164.802          32.000  
  21265329.441       72923.367       -1482.228          46.000  
  19997985.547      -12100.137         225.987          46.000  
 16 10 14 20 50 11.1990000  0 11G29G24G18G20G 4G 5G21G10G27G13G15
  22589837.717      140295.750       -2820.241          48.000  
  23702272.922     -194318.035        3889.715          41.000  
  21842593.061     -120399.078        2406.282          44.000  
  20064123.478       15060.378        -312.690          45.000  
  23007341.331      122099.134       -2466.613          41.000  
  23839894.553      117142.875       -2351.654          39.000  
  21073052.733     -100816.474        2016.824          46.000  
  24552932.995     -165195.262        3432.885          35.000  
  24641279.940      -74000.4022       3164.848          32.000  
  21265386.119       73219.880       -1482.397          46.000  
  19997976.578      -12145.232         225.727          46.000  
 16 10 14 20 50 11.3990000  0 11G29G24G18G20G 4G 5G21G10G27G13G15
  22589945.001      140859.835       -2820.437          48.000  
  23702124.909     -195095.865        3889.068          41.000  
  21842501.535     -120880.284        2406.193          44.000  
  20064135.344       15122.963        -312.501          45.000  
  23007435.423      122592.380       -2465.833          41.000  
  23839983.897      117613.208       -2351.832          39.000  
  21072975.952     -101219.860        2017.333          46.000  
  24552802.345     -165881.736        3433.815          36.000  
  24641154.700      -74633.0512       3163.536          32.000  
  21265442.326       73516.457       -1482.438          46.000  
  19997967.556      -12190.267         225.165          46.000  
 16 10 14 20 50 11.5990000  0 11G29G24G18G20G 4G 5G21G10G27G13G15
  22590052.198      141423.925       -2820.502          47.000  
  23701976.844     -195873.687        3889.308          41.000  
  21842409.834     -121361.470        2405.793          44.000  
  20064147.367       15185.564        -312.957          45.000  
  23007529.200      123085.640       -2465.555          41.000  
  23840073.382      118083.556       -2351.618          39.000  
  21072899.171     -101623.221        2016.641          46.000  
  24552671.748     -166568.243        3431.068          36.000  
  24641036.911      -75265.6692       3163.773          32.000  
  21265498.638       73813.045       -1483.411          46.000  
  19997959.057      -12235.294         224.926          46.000  
 16 10 14 20 50 11.7990000  0 11G29G24G18G20G 4G 5G21G10G27G13G15
  22590159.813      141988.023       -2820.331          48.000  
  23701828.988     -196651.518        3889.585          41.000  
  21842318.046     -121842.670        2405.947          44.000  
  20064159.285       15248.158        -312.624          45.000  
  23007623.100      123578.910       -2466.188          41.000  
  23840162.570      118553.870       -2352.367          39.000  
  21072822.652     -102026.577        2016.696          46.000  
  24552541.150     -167254.688        3432.306          36.000  
  24640917.569      -75898.2272       3162.396          32.000  
  21265555.194       74109.661       -1482.536          46.000  
  19997950.437      -12280.284         225.149          46.000  
 16 10 14 20 50 11.9990000  0 11G29G24G18G20G 4G 5G21G10G27G13G15
  22590267.114      142552.142       -2820.365          48.000  
  23701680.853     -197429.340        3888.821          41.000  
  21842226.729     -122323.838        2405.854          44.000  
  20064171.518       15310.773        -312.935          45.000  
  23007716.929      124072.217       -2465.396          41.000  
  23840251.933      119024.204       -2351.902          39.000  
  21072745.853     -102429.905        2017.152          46.000  
  24552410.483     -167941.199        3431.517          36.000  
  24640799.797      -76530.7642       3163.896          32.000  
  21265611.663       74406.283       -1483.790          46.000  
  19997942.148      -12325.245         224.912          46.000  
 16 10 14 20 50 12.1990000  0 11G29G24G18G20G 4G 5G21G10G27G13G15
  22590374.747      143116.308       -2820.650          47.000  
  23701532.840     -198207.113        3887.794          41.000  
  21842135.045     -122804.954        2405.246          44.000  
  20064183.279       15373.454        -313.462          45.000  
  23007810.515      124565.563       -2466.710          41.000  
  23840341.435      119494.613       -2352.159          39.000  
  21072669.195     -102833.181        2016.265          46.000  
  24552279.868     -168627.630        3430.877          36.000  
  24640677.366      -77163.2662       3161.439          32.000  
  21265668.097       74703.000       -1483.898          46.000  
  19997933.493      -12370.132         224.277          46.000  
 16 10 14 20 50 12.3990000  0 11G29G24G18G20G 4G 5G21G10G27G13G15
  22590482.013      143680.473       -2820.892          48.000  
  23701384.949     -198984.896        3888.794          41.000  
  21842043.414     -123286.085        2405.573          44.000  
  20064195.005       15436.138        -313.351          45.000  
  23007904.362      125058.899       -2466.982          41.000  
  23840430.919      119964.990       -2351.490          39.000  
  21072592.483     -103236.442        2016.388          46.000  
  24552149.270     -169314.081        3432.477          36.000  
  24640556.541      -77795.7642       3161.199          32.000  
  21265724.461       74999.717       -1483.740          46.000  
  19997924.959      -12415.003         224.673          46.000  
 16 10 14 20 50 12.5990000  0 11G29G24G18G20G 4G 5G21G10G27G13G15
  22590589.315      144244.638       -2820.934          48.000  
  23701236.902     -199762.674        3888.650          41.000  
  21841952.027     -123767.212        2405.425          44.000  
  20064206.924       15498.830        -313.633          45.000  
  23007998.000      125552.243       -2466.755          41.000  
  23840520.456      120435.357       -2351.871          39.000  
  21072515.685     -103639.707        2016.586          46.000  
  24552018.847     -170000.510        3431.593          36.000  
  24640437.321      -78428.2302       3162.966          33.000  
  21265781.104       75296.438       -1483.765          46.000  
  19997916.339      -12459.862         224.508          46.000  
 16 10 14 20 50 12.7990000  0 11G29G24G18G20G 4G 5G21G10G27G13G15
  22590696.738      144808.824       -2820.967          48.000  
  23701088.889     -200540.462        3888.987          41.000  
  21841860.291     -124248.337        2405.357          44.000  
  20064219.000       15561.529        -313.583          45.000  
  23008091.847      126045.619       -2467.039          41.000  
  23840610.238      120905.751       -2352.195          39.000  
  21072439.078     -104042.950        2015.899          46.000  
  24551888.110     -170686.949        3432.078          36.000  
  24640316.548      -79060.6882       3161.180          33.000  
  21265837.765       75593.189       -1483.801          46.000  
  19997907.945      -12504.680         224.069          46.000  
 16 10 14 20 50 12.9990000  0 11G29G24G18G20G 4G 5G21G10G27G13G15
  22590803.987      145373.057       -2821.239          48.000  
  23700941.260     -201318.202        3889.078          41.000  
  21841768.939     -124729.407        2404.986          44.000  
  20064231.023       15624.287        -313.374          45.000  
  23008185.747      126539.047       -2466.374          41.000  
  23840700.019      121376.172       -2351.717          39.000  
  21072362.437     -104446.138        2016.112          46.000  
  24551757.792     -171373.312        3432.429          36.000  
  24640198.218      -79693.0712       3161.073          33.000  
  21265894.181       75889.991       -1484.363          46.000  
  19997899.395      -12549.458         223.772          46.000  
 16 10 14 20 50 13.1990000  0 11G29G24G18G20G 4G 5G21G10G27G13G15
  22590911.254      145937.284       -2821.378          47.000  
  23700793.195     -202095.952        3888.156          41.000  
  21841677.168     -125210.487        2405.517          44.000  
  20064242.924       15687.043        -313.984          45.000  
  23008279.559      127032.444       -2467.898          41.000  
  23840789.504      121846.580       -2352.319          39.000  
  21072285.918     -104849.337        2015.594          46.000  
  24551627.003     -172059.748        3432.329          36.000  
  24640076.991      -80325.4612       3162.777          33.000  
  21265950.650       76186.808       -1484.248          46.000  
  19997890.704      -12594.214         223.808          46.000  
 16 10 14 20 50 13.3990000  0 11G29G24G18G20G 4G 5G21G10G27G13G15
  22591018.852      146501.512       -2821.419          47.000  
  23700645.129     -202873.678        3888.144          41.000  
  21841585.572     -125691.560        2405.630          44.000  
  20064254.912       15749.820        -314.273          45.000  
  23008373.615      127525.892       -2466.620          41.000  
  23840878.936      122316.977       -2352.396          39.000  
  21072209.136     -105252.503        2015.741          46.000  
  24551496.300     -172746.133        3432.840          36.000  
  24639956.218      -80957.8372       3159.886          33.000  
  21266007.328       76483.649       -1484.168          46.000  
  19997882.450      -12638.936         223.133          46.000  
 16 10 14 20 50 13.5990000  0 11G29G24G18G20G 4G 5G21G10G27G13G15
  22591126.362      147065.803       -2821.689          47.000  
  23700497.029     -203651.380        3889.044          41.000  
  21841494.028     -126172.598        2404.554          44.000  
  20064266.952       15812.635        -314.600          45.000  
  23008467.236      128019.365       -2467.149          41.000  
  23840968.612      122787.453       -2351.803          39.000  
  21072132.582     -105655.627        2014.955          46.000  
  24551365.755     -173432.502        3430.735          36.000  
  24639835.881      -81590.1902       3160.339          33.000  
  21266063.710       76780.543       -1484.080          46.000  
  19997874.126      -12683.600         223.285          46.000  
 16 10 14 20 50 13.7990000  0 11G29G24G18G20G 4G 5G21G10G27G13G15
  22591233.594      147630.086       -2820.934          47.000  
  23700349.052     -204429.067        3889.115          41.000  
  21841402.362     -126653.624        2405.218          44.000  
  20064278.661       15875.472        -313.993          45.000  
  23008561.362      128512.824       -2467.474          41.000  
  23841058.167      123257.891       -2352.163          39.000  
  21072055.679     -106058.744        2015.610          46.000  
  24551235.402     -174118.847        3431.854          36.000  
  24639713.904      -82222.4612       3161.008          33.000  
  21266120.353       77077.464       -1484.572          46.000  
  19997865.698      -12728.240         223.453          46.000  
 16 10 14 20 50 13.9990000  0 11G29G24G18G20G 4G 5G21G10G27G13G15
  22591341.070      148194.372       -2821.939          47.000  
  23700201.161     -205206.788        3888.605          41.000  
  21841310.766     -127134.640        2405.085          44.000  
  20064290.859       15938.302        -314.927          45.000  
  23008655.174      129006.318       -2467.894          41.000  
  23841147.896      123728.344       -2352.587          39.000  
  21071979.195     -106461.838        2015.481          46.000  
  24551104.892     -174805.196        3431.733          36.000  
  24639596.464      -82854.8003       3160.865          33.000  
  21266176.578       77374.390       -1484.834          46.000  
  19997856.955      -12772.867         223.087          46.000  
 16 10 14 20 50 14.1990000  0 11G29G24G18G20G 4G 5G21G10G27G13G15
  22591448.336      148758.738       -2821.608          47.000  
  23700053.497     -205984.433        3888.384          41.000  
  21841219.431     -127615.598        2405.213          44.000  
  20064302.743       16001.202        -314.497          45.000  
  23008749.057      129499.874       -2466.872          41.000  
  23841237.730      124198.840       -2351.920          39.000  
  21071902.693     -106864.875        2015.165          46.000  
  24550974.382     -175491.533        3431.324          36.000  
  24639475.342      -83487.0292       3162.471          33.000  
  21266233.134       77671.383       -1484.523          46.000  
  19997848.649      -12817.422         222.784          46.000  
 16 10 14 20 50 14.3990000  0 11G29G24G18G20G 4G 5G21G10G27G13G15
  22591555.759      149323.056       -2821.849          48.000  
  23699905.414     -206762.093        3888.206          41.000  
  21841127.747     -128096.601        2405.433          44.000  
  20064314.888       16064.087        -314.608          45.000  
  23008843.061      129993.406       -2467.578          41.000  
  23841326.935      124669.315       -2352.440          39.000  
  21071825.894     -107267.926        2015.190          46.000  
  24550843.784     -176177.868        3430.249          36.000  
  24639353.434      -84119.2732       3161.775          33.000  
  21266289.620       77968.359       -1485.436          46.000  
  19997840.185      -12861.973         222.636          46.000  
 16 10 14 20 50 14.5990000  0 11G29G24G18G20G 4G 5G21G10G27G13G15
  22591663.078      149887.460       -2821.988          47.000  
  23699757.489     -207539.699        3888.515          41.000  
  21841036.012     -128577.516        2404.926          44.000  
  20064327.033       16127.054        -314.642          45.000  
  23008936.890      130487.005       -2467.142          41.000  
  23841416.629      125139.829       -2352.827          39.000  
  21071749.078     -107670.907        2015.067          46.000  
  24550713.186     -176864.146        3430.457          36.000  
  24639233.377      -84751.4342       3160.369          33.000  
  21266346.193       78265.428       -1485.345          46.000  
  19997832.210      -12906.441         222.388          46.000  
 16 10 14 20 50 14.7990000  0 11G29G24G18G20G 4G 5G21G10G27G13G15
  22591770.624      150451.821       -2822.167          47.000  
  23699609.319     -208317.353        3887.862          41.000  
  21840944.381     -129058.484        2404.469          44.000  
  20064338.951       16189.973        -314.768          45.000  
  23009030.703      130980.561       -2468.970          41.000  
  23841506.183      125610.335       -2352.565          39.000  
  21071672.385     -108073.920        2015.057          46.000  
  24550582.432     -177550.462        3431.559          36.000  
  24639113.721      -85383.6432       3163.174          33.000  
  21266402.732       78562.478       -1485.562          46.000  
  19997823.677      -12950.943         222.225          46.000  
 16 10 14 20 50 14.9990000  0 11G29G24G18G20G 4G 5G21G10G27G13G15
  22591878.274      151016.231       -2821.915          47.000  
  23699461.481     -209094.951        3888.396          41.000  
  21840852.854     -129539.392        2404.874          44.000  
  20064351.079       16252.949        -314.132          45.000  
  23009124.515      131474.169       -2468.205          41.000  
  23841595.494      126080.845       -2352.796          39.000  
  21071595.621     -108476.876        2014.858          46.000  
  24550451.765     -178236.737        3432.251          36.000  
  24638990.906      -86015.8372       3160.350          33.000  
  21266459.393       78859.576       -1485.582          46.000  
  19997815.039      -12995.365         222.263          46.000  
 16 10 14 20 50 15.1990000  0 11G29G24G18G20G 4G 5G21G10G27G13G15
  22591985.366      151580.636       -2822.010          47.000  
  23699313.695     -209872.595        3887.950          41.000  
  21840761.188     -130020.328        2404.566          44.000  
  20064363.050       16315.923        -314.892          45.000  
  23009218.380      131967.801       -2467.836          41.000  
  23841684.961      126551.359       -2353.685          39.000  
  21071518.683     -108879.836        2014.651          46.000  
  24550321.080     -178923.036        3430.747          36.000  
  24638869.906      -86647.9642       3159.138          33.000  
  21266515.827       79156.684       -1485.575          46.000  
  19997806.611      -13039.777         221.998          46.000  
 16 10 14 20 50 15.3990000  0 11G29G24G18G20G 4G 5G21G10G27G13G15
  22592092.755      152145.077       -2821.993          47.000  
  23699165.630     -210650.173        3887.922          41.000  
  21840669.400     -130501.216        2404.871          44.000  
  20064375.108       16378.941        -314.903          45.000  
  23009312.175      132461.428       -2468.165          41.000  
  23841774.393      127021.898       -2353.300          39.000  
  21071441.832     -109282.749        2014.773          46.000  
  24550190.308     -179609.339        3431.686          36.000  
  24638750.268      -87280.0132       3162.302          33.000  
  21266572.209       79453.845       -1485.664          46.000  
  19997798.357      -13084.146         221.599          46.000  
 16 10 14 20 50 15.5990000  0 11G29G24G18G20G 4G 5G21G10G27G13G15
  22592199.969      152709.524       -2822.520          47.000  
  23699017.564     -211427.746        3888.788          41.000  
  21840577.821     -130982.106        2404.690          44.000  
  20064387.079       16441.970        -314.851          45.000  
  23009406.126      132955.093       -2468.208          41.000  
  23841864.017      127492.447       -2352.580          39.000  
  21071365.173     -109685.652        2014.256          46.000  
  24550059.605     -180295.574        3432.811          36.000  
  24638629.861      -87912.1132       3159.417          33.000  
  21266628.887       79751.010       -1486.039          46.000  
  19997789.719      -13128.491         221.397          46.000  
 16 10 14 20 50 15.7990000  0 11G29G24G18G20G 4G 5G21G10G27G13G15
  22592307.410      153273.994       -2822.263          47.000  
  23698869.517     -212205.325        3887.171          41.000  
  21840486.207     -131462.996        2404.414          44.000  
  20064399.172       16505.003        -315.385          45.000  
  23009500.183      133448.776       -2468.368          41.000  
  23841953.572      127963.009       -2352.433          39.000  
  21071288.584     -110088.532        2014.688          46.000  
  24549928.991     -180981.853        3431.352          36.000  
  24638509.925      -88544.1812       3161.252          33.000  
  21266685.443       80048.218       -1485.990          46.000  
  19997781.151      -13172.803         221.461          46.000  
 16 10 14 20 50 15.9990000  0 11G29G24G18G20G 4G 5G21G10G27G13G15
  22592415.008      153838.498       -2822.436          47.000  
  23698721.504     -212982.869        3887.167          41.000  
  21840395.152     -131943.840        2404.124          44.000  
  20064411.020       16568.104        -315.321          45.000  
  23009594.257      133942.486       -2468.602          41.000  
  23842043.178      128433.585       -2353.235          39.000  
  21071211.925     -110491.383        2014.269          46.000  
  24549798.760     -181668.081        3431.493          36.000  
  24638389.798      -89176.1872       3159.203          33.000  
  21266741.981       80345.468       -1485.998          46.000  
  19997772.775      -13217.071         221.021          46.000  
 16 10 14 20 50 16.1990000  0 11G29G24G18G20G 4G 5G21G10G27G13G15
  22592522.780      154402.990       -2822.521          47.000  
  23698573.404     -213760.437        3887.441          41.000  
  21840303.748     -132424.697        2404.128          44.000  
  20064422.817       16631.180        -315.384          45.000  
  23009688.471      134436.182       -2468.780          41.000  
  23842132.489      128904.134       -2352.413          39.000  
  21071135.109     -110894.224        2014.144          46.000  
  24549668.529     -182354.342        3432.023          36.000  
  24638269.444      -89808.2363       3159.822          33.000  
  21266798.590       80642.715       -1485.684          46.000  
  19997764.503      -13261.317         221.482          46.000  
 16 10 14 20 50 16.3990000  0 11G29G24G18G20G 4G 5G21G10G27G13G15
  22592630.221      154967.494       -2822.599          47.000  
  23698425.304     -214537.987        3887.951          41.000  
  21840212.309     -132905.544        2404.044          44.000  
  20064434.700       16694.282        -316.053          45.000  
  23009782.283      134929.905       -2468.758          41.000  
  23842222.183      129374.705       -2353.217          39.000  
  21071058.346     -111297.052        2014.103          46.000  
  24549537.739     -183040.563        3430.096          36.000  
  24638149.229      -90440.2042       3158.694          33.000  
  21266855.146       80939.989       -1486.775          46.000  
  19997756.145      -13305.533         221.195          46.000  
 16 10 14 20 50 16.5990000  0 11G29G24G18G20G 4G 5G21G10G27G13G15
  22592737.714      155532.004       -2821.974          47.000  
  23698277.273     -215315.526        3888.135          41.000  
  21840120.956     -133386.387        2404.773          44.000  
  20064446.706       16757.391        -315.326          45.000  
  23009876.339      135423.649       -2467.794          41.000  
  23842311.859      129845.283       -2352.352          39.000  
  21070981.722     -111699.873        2014.222          46.000  
  24549407.176     -183726.774        3431.636          36.000  
  24638028.927      -91072.1492       3160.732          33.000  
  21266911.894       81237.275       -1485.754          46.000  
  19997747.140      -13349.737         221.379          46.000  
 16 10 14 20 50 16.7990000  0 11G29G24G18G20G 4G 5G21G10G27G13G15
  22592845.155      156096.505       -2822.325          47.000  
  23698129.348     -216093.109        3887.385          41.000  
  21840029.447     -133867.240        2404.076          44.000  
  20064458.764       16820.480        -314.899          45.000  
  23009970.414      135917.364       -2468.849          41.000  
  23842401.483      130315.830       -2352.570          39.000  
  21070905.167     -112102.686        2014.308          46.000  
  24549276.649     -184413.037        3432.019          36.000  
  24637908.765      -91704.1412       3159.108          33.000  
  21266968.363       81534.557       -1486.751          46.000  
  19997738.834      -13393.948         220.996          46.000  
 16 10 14 20 50 16.9990000  0 11G29G24G18G20G 4G 5G21G10G27G13G15
  22592952.718      156661.039       -2822.547          47.000  
  23697981.492     -216870.635        3887.717          41.000  
  21839937.851     -134348.059        2404.295          44.000  
  20064470.804       16883.625        -315.758          45.000  
  23010064.313      136411.097       -2470.100          41.000  
  23842490.898      130786.407       -2352.390          39.000  
  21070828.666     -112505.475        2013.971          46.000  
  24549146.243     -185099.262        3432.123          36.000  
  24637788.498      -92336.0722       3160.796          33.000  
  21267024.867       81831.904       -1487.205          46.000  
  19997730.178      -13438.085         220.660          46.000  
 16 10 14 20 50 17.1990000  0 11G29G24G18G20G 4G 5G21G10G27G13G15
  22593060.159      157225.572       -2822.758          48.000  
  23697833.444     -217648.190        3887.609          41.000  
  21839846.761     -134828.908        2403.320          44.000  
  20064482.688       16946.759        -315.659          45.000  
  23010158.195      136904.844       -2469.303          41.000  
  23842580.366      131256.959       -2352.554          39.000  
  21070752.042     -112908.263        2013.990          46.000  
  24549015.942     -185785.507        3432.039          36.000  
  24637668.336      -92968.0412       3161.070          33.000  
  21267081.370       82129.246       -1486.850          46.000  
  19997722.134      -13482.228         220.932          46.000  
 16 10 14 20 50 17.3990000  0 11G29G24G18G20G 4G 5G21G10G27G13G15
  22593167.635      157790.100       -2822.633          48.000  
  23697685.519     -218425.752        3887.979          41.000  
  21839755.270     -135309.753        2403.666          44.000  
  20064494.711       17009.897        -315.801          45.000  
  23010251.955      137398.619       -2468.804          41.000  
  23842669.589      131727.532       -2352.871          39.000  
  21070675.470     -113311.033        2013.932          46.000  
  24548885.153     -186471.742        3431.320          36.000  
  24637548.174      -93599.9782       3159.031          33.000  
  21267137.926       82426.593       -1486.555          46.000  
  19997713.723      -13526.354         220.416          46.000  
 16 10 14 20 50 17.5990000  0 11G29G24G18G20G 4G 5G21G10G27G13G15
  22593274.727      158354.656       -2822.512          48.000  
  23697537.698     -219203.274        3887.850          41.000  
  21839663.690     -135790.552        2403.770          44.000  
  20064506.752       17073.074        -315.825          45.000  
  23010345.802      137892.370       -2469.606          41.000  
  23842759.178      132198.099       -2351.807          39.000  
  21070598.933     -113713.766        2013.771          46.000  
  24548754.817     -187157.977        3431.283          36.000  
  24637428.098      -94231.8512       3158.245          33.000  
  21267194.168       82723.996       -1486.460          46.000  
  19997705.224      -13570.423         220.726          46.000  
 16 10 14 20 50 17.7990000  0 11G29G24G18G20G 4G 5G21G10G27G13G15
  22593382.185      158919.251       -2822.972          48.000  
  23697389.702     -219980.781        3887.702          41.000  
  21839572.147     -136271.336        2403.633          44.000  
  20064519.002       17136.280        -316.561          45.000  
  23010439.597      138386.219       -2469.080          41.000  
  23842848.627      132668.699       -2353.291          39.000  
  21070522.327     -114116.478        2013.408          46.000  
  24548624.411     -187844.172        3431.575          36.000  
  24637308.006      -94863.7202       3159.072          33.000  
  21267250.951       83021.427       -1487.600          46.000  
  19997696.865      -13614.452         220.023          46.000  
 16 10 14 20 50 17.9990000  0 11G29G24G18G20G 4G 5G21G10G27G13G15
  22593489.609      159483.891       -2823.081          48.000  
  23697241.463     -220758.239        3887.220          41.000  
  21839480.481     -136752.071        2403.330          44.000  
  20064531.060       17199.557        -316.447          45.000  
  23010533.601      138880.083       -2469.826          41.000  
  23842938.007      133139.352       -2353.163          39.000  
  21070445.825     -114519.120        2013.292          46.000  
  24548493.779     -188530.305        3432.494          36.000  
  24637188.088      -95495.5262       3159.781          33.000  
  21267307.455       83318.934       -1487.352          46.000  
  19997688.472      -13658.421         219.641          46.000  
 16 10 14 20 50 18.1990000  0 11G29G24G18G20G 4G 5G21G10G27G13G15
  22593596.980      160048.507       -2822.901          48.000  
  23697093.572     -221535.741        3887.997          41.000  
  21839388.989     -137232.823        2403.850          44.000  
  20064543.083       17262.800        -315.664          45.000  
  23010627.850      139373.928       -2468.698          41.000  
  23843027.370      133609.952       -2353.112          39.000  
  21070369.044     -114921.798        2013.326          46.000  
  24548362.990     -189216.525        3431.296          36.000  
  24637067.873      -96127.3422       3159.541          33.000  
  21267364.186       83616.415       -1487.247          46.000  
  19997679.869      -13702.380         220.328          46.000  
 16 10 14 20 50 18.3990000  0 11G29G24G18G20G 4G 5G21G10G27G13G15
  22593704.421      160613.156       -2823.148          48.000  
  23696945.507     -222313.200        3887.363          41.000  
  21839297.585     -137713.562        2403.396          44.000  
  20064554.775       17326.063        -316.328          45.000  
  23010721.837      139867.800       -2469.425          41.000  
  23843116.959      134080.586       -2353.533          39.000  
  21070292.438     -115324.444        2012.862          46.000  
  24548232.724     -189902.704        3430.998          36.000  
  24636947.781      -96759.0742       3159.688          33.000  
  21267420.532       83913.933       -1487.753          46.000  
  19997671.196      -13746.321         219.618          46.000  
 16 10 14 20 50 18.5990000  0 11G29G24G18G20G 4G 5G21G10G27G13G15
  22593811.914      161177.807       -2823.113          48.000  
  23696797.232     -223090.673        3887.147          41.000  
  21839206.145     -138194.290        2403.929          44.000  
  20064567.129       17389.363        -316.091          45.000  
  23010815.597      140361.693       -2469.829          41.000  
  23843206.496      134551.215       -2353.423          39.000  
  21070215.883     -115727.051        2013.808          46.000  
  24548102.318     -190588.861        3430.240          36.000  
  24636827.636      -97390.8672       3157.770          33.000  
  21267477.367       84211.480       -1487.366          46.000  
  19997662.994      -13790.222         219.636          46.000  
 16 10 14 20 50 18.7990000  0 11G29G24G18G20G 4G 5G21G10G27G13G15
  22593919.669      161742.494       -2823.263          48.000  
  23696649.132     -223868.108        3887.312          41.000  
  21839114.933     -138675.002        2403.550          44.000  
  20064579.466       17452.688        -316.796          45.000  
  23010909.618      140855.603       -2469.810          41.000  
  23843296.051      135021.869       -2352.890          39.000  
  21070139.364     -116129.646        2012.973          46.000  
  24547971.703     -191274.994        3431.414          36.000  
  24636707.352      -98022.5912       3160.625          33.000  
  21267533.906       84509.059       -1487.799          46.000  
  19997654.723      -13834.076         219.748          46.000  
 16 10 14 20 50 18.9990000  0 11G29G24G18G20G 4G 5G21G10G27G13G15
  22594027.284      162307.187       -2823.584          48.000  
  23696501.451     -224645.534        3886.936          41.000  
  21839023.441     -139155.690        2403.531          44.000  
  20064591.367       17516.017        -316.601          45.000  
  23011003.640      141349.553       -2469.457          41.000  
  23843385.937      135492.539       -2353.257          39.000  
  21070062.722     -116532.210        2012.649          46.000  
  24547841.245     -191961.134        3430.112          36.000  
  24636587.154      -98654.3032       3158.488          33.000  
  21267590.619       84806.666       -1488.420          46.000  
  19997646.504      -13877.910         219.230          46.000  
 16 10 14 20 50 19.1990000  0 11G29G24G18G20G 4G 5G21G10G27G13G15
  22594134.760      162871.892       -2823.386          48.000  
  23696353.211     -225422.973        3887.249          41.000  
  21838932.107     -139636.383        2403.373          44.000  
  20064603.024       17579.375        -316.648          45.000  
  23011097.784      141843.499       -2469.918          41.000  
  23843475.788      135963.198       -2353.670          39.000  
  21069985.959     -116934.775        2012.670          46.000  
  24547710.700     -192647.272        3430.832          36.000  
  24636467.184      -99286.0062       3159.030          33.000  
  21267647.088       85104.296       -1488.284          46.000  
  19997638.162      -13921.731         218.768          46.000  
 16 10 14 20 50 19.3990000  0 11G29G24G18G20G 4G 5G21G10G27G13G15
  22594241.940      163436.602       -2823.829          47.000  
  23696205.216     -226200.399        3886.544          41.000  
  21838840.528     -140117.060        2402.933          44.000  
  20064614.960       17642.729        -317.419          45.000  
  23011192.120      142337.450       -2469.442          41.000  
  23843565.517      136433.870       -2353.704          39.000  
  21069909.614     -117337.317        2012.521          46.000  
  24547580.138     -193333.391        3430.208          36.000  
  24636347.074      -99917.6462       3157.766          33.000  
  21267703.714       85401.952       -1488.273          46.000  
  19997629.839      -13965.503         218.157          46.000  
 16 10 14 20 50 19.5990000  0 11G29G24G18G20G 4G 5G21G10G27G13G15
  22594349.101      164001.356       -2823.614          47.000  
  23696057.447     -226977.781        3886.790          41.000  
  21838749.036     -140597.702        2403.289          44.000  
  20064627.018       17706.142        -316.834          45.000  
  23011286.333      142831.451       -2469.941          41.000  
  23843654.966      136904.561       -2353.456          39.000  
  21069833.095     -117739.805        2012.770          46.000  
  24547449.714     -194019.509        3430.555          36.000  
  24636226.877     -100549.2782       3159.021          33.000  
  21267760.532       85699.646       -1488.395          46.000  
  19997621.532      -14009.221         218.912          46.000  
 16 10 14 20 50 19.7990000  0 11G29G24G18G20G 4G 5G21G10G27G13G15
  22594456.647      164566.149       -2823.754          47.000  
  23695909.557     -227755.144        3886.440          41.000  
  21838657.597     -141078.312        2403.065          44.000  
  20064638.884       17769.596        -316.947          45.000  
  23011379.919      143325.476       -2470.277          41.000  
  23843744.399      137375.294       -2353.973          39.000  
  21069756.837     -118142.261        2012.167          46.000  
  24547319.413     -194705.575        3429.828          36.000  
  24636106.837     -101180.8592       3158.606          33.000  
  21267817.018       85997.397       -1488.619          46.000  
  19997613.365      -14052.901         218.705          46.000  
 16 10 14 20 50 19.9990000  0 11G29G24G18G20G 4G 5G21G10G27G13G15
  22594564.035      165130.958       -2824.083          47.000  
  23695761.684     -228532.493        3886.616          41.000  
  21838566.245     -141558.919        2402.833          44.000  
  20064651.169       17833.064        -317.034          45.000  
  23011473.853      143819.539       -2470.413          41.000  
  23843834.110      137846.024       -2354.054          39.000  
  21069679.882     -118544.697        2012.344          46.000  
  24547188.851     -195391.622        3429.929          36.000  
  24635986.797     -101812.3932       3157.972          33.000  
  21267873.783       86295.178       -1488.889          46.000  
  19997605.268      -14096.541         218.393          46.000  
 16 10 14 20 50 20.1990000  0 11G29G24G18G20G 4G 5G21G10G27G13G15
  22594671.337      165695.750       -2823.783          47.000  
  23695613.810     -229309.867        3886.540          41.000  
  21838474.771     -142039.526        2403.088          44.000  
  20064663.314       17896.523        -317.656          45.000  
  23011568.189      144313.567       -2470.299          41.000  
  23843923.560      138316.730       -2353.540          39.000  
  21069602.961     -118947.146        2012.116          46.000  
  24547058.236     -196077.689        3430.518          36.000  
  24635866.687     -102444.0012       3157.788          33.000  
  21267930.392       86592.940       -1489.374          46.000  
  19997596.683      -14140.181         218.462          46.000  
 16 10 14 20 50 20.3990000  0 11G29G24G18G20G 4G 5G21G10G27G13G15
  22594778.987      166260.570       -2824.030          47.000  
  23695465.972     -230087.211        3886.953          41.000  
  21838383.419     -142520.119        2402.873          44.000  
  20064675.686       17960.014        -316.923          45.000  
  23011662.281      144807.624       -2469.793          41.000  
  23844012.888      138787.468       -2352.986          39.000  
  21069526.529     -119349.550        2012.103          46.000  
  24546927.761     -196763.759        3430.948          36.000  
  24635746.525     -103075.4992       3158.022          33.000  
  21267987.088       86890.748       -1489.057          46.000  
  19997588.603      -14183.782         218.313          46.000  
 16 10 14 20 50 20.5990000  0 11G29G24G18G20G 4G 5G21G10G27G13G15
  22594886.393      166825.381       -2823.571          47.000  
  23695318.168     -230864.574        3887.239          41.000  
  21838291.526     -143000.718        2403.065          44.000  
  20064687.761       18023.486        -317.567          45.000  
  23011756.337      145301.691       -2470.658          41.000  
  23844102.040      139258.165       -2354.707          39.000  
  21069449.800     -119751.971        2012.107          46.000  
  24546797.303     -197449.854        3430.541          36.000  
  24635626.083     -103707.0352       3156.394          33.000  
  21268043.870       87188.557       -1488.990          46.000  
  19997579.948      -14227.378         217.976          46.000  
 16 10 14 20 50 20.7990000  0 11G29G24G18G20G 4G 5G21G10G27G13G15
  22594993.624      167390.216       -2824.333          47.000  
  23695170.225     -231641.909        3887.126          41.000  
  21838199.982     -143481.286        2403.026          44.000  
  20064699.872       18087.010        -317.573          45.000  
  23011850.254      145795.779       -2470.472          41.000  
  23844191.734      139728.917       -2353.845          39.000  
  21069373.002     -120154.355        2011.924          46.000  
  24546666.513     -198135.911        3429.202          36.000  
  24635506.078     -104338.4992       3161.227          33.000  
  21268100.671       87486.422       -1488.922          46.000  
  19997571.886      -14270.924         217.844          46.000  
 16 10 14 20 50 20.9990000  0 11G29G24G18G20G 4G 5G21G10G27G13G15
  22595100.943      167955.063       -2824.456          47.000  
  23695022.579     -232419.268        3886.634          41.000  
  21838108.630     -143961.871        2402.702          44.000  
  20064711.878       18150.540        -318.275          45.000  
  23011944.346      146289.886       -2470.556          41.000  
  23844281.324      140199.645       -2354.475          39.000  
  21069296.395     -120556.723        2011.555          46.000  
  24546535.881     -198821.947        3429.791          36.000  
  24635386.282     -104969.9622       3158.386          33.000  
  21268157.314       87784.278       -1489.946          46.000  
  19997563.614      -14314.447         217.301          46.000  
 16 10 14 20 50 21.1990000  0 11G29G24G18G20G 4G 5G21G10G27G13G15
  22595208.698      168519.931       -2824.507          47.000  
  23694874.427     -233196.589        3886.676          41.000  
  21838017.470     -144442.415        2402.694          44.000  
  20064723.709       18214.099        -317.639          45.000  
  23012038.315      146784.007       -2470.529          41.000  
  23844370.791      140670.410       -2352.999          39.000  
  21069219.824     -120959.055        2011.853          46.000  
  24546404.900     -199508.017        3429.889          36.000  
  24635266.225     -105601.4422       3157.280          34.000  
  21268214.115       88082.183       -1490.075          46.000  
  19997555.133      -14357.936         217.581          46.000  
 16 10 14 20 50 21.3990000  0 11G29G24G18G20G 4G 5G21G10G27G13G15
  22595316.035      169084.825       -2824.040          47.000  
  23694726.763     -233973.890        3886.884          41.000  
  21837926.049     -144922.957        2402.510          44.000  
  20064735.802       18277.675        -317.692          45.000  
  23012132.058      147278.147       -2469.817          41.000  
  23844460.485      141141.149       -2354.067          39.000  
  21069143.444     -121361.371        2011.601          46.000  
  24546274.250     -200194.010        3430.029          36.000  
  24635146.411     -106232.8572       3156.119          33.000  
  21268270.793       88380.125       -1489.750          46.000  
  19997547.071      -14401.383         217.362          46.000  
 16 10 14 20 50 21.5990000  0 11G29G24G18G20G 4G 5G21G10G27G13G15
  22595423.632      169649.691       -2824.354          47.000  
  23694578.924     -234751.229        3886.530          41.000  
  21837834.696     -145403.518        2403.066          44.000  
  20064747.982       18341.234        -317.954          45.000  
  23012225.887      147772.275       -2470.799          41.000  
  23844549.830      141611.891       -2354.468          39.000  
  21069066.837     -121763.713        2011.735          46.000  
  24546143.757     -200880.098        3428.663          36.000  
  24635026.231     -106864.2762       3157.705          33.000  
  21268327.296       88678.045       -1489.718          46.000  
  19997538.608      -14444.841         217.468          46.000  
 16 10 14 20 50 21.7990000  0 11G29G24G18G20G 4G 5G21G10G27G13G15
  22595531.457      170214.580       -2824.700          47.000  
  23694430.964     -235528.550        3886.414          41.000  
  21837743.380     -145884.053        2402.595          44.000  
  20064759.987       18404.821        -317.886          45.000  
  23012320.345      148266.414       -2470.670          41.000  
  23844639.507      142082.640       -2354.306          39.000  
  21068990.266     -122166.011        2011.761          46.000  
  24546013.212     -201566.121        3429.447          36.000  
  24634905.842     -107495.7052       3156.067          33.000  
  21268384.044       88976.000       -1489.885          46.000  
  19997530.301      -14488.267         216.716          46.000  
 16 10 14 20 50 21.9990000  0 11G29G24G18G20G 4G 5G21G10G27G13G15
  22595638.724      170779.478       -2824.588          47.000  
  23694282.986     -236305.870        3886.396          41.000  
  21837652.289     -146364.590        2402.521          44.000  
  20064772.482       18468.422        -318.606          45.000  
  23012414.349      148760.598       -2470.345          41.000  
  23844729.079      142553.398       -2353.185          39.000  
  21068913.642     -122568.298        2011.305          46.000  
  24545882.562     -202252.169        3428.886          37.000  
  24634785.889     -108127.0812       3156.170          33.000  
  21268440.688       89273.981       -1490.295          46.000  
  19997521.873      -14531.655         216.935          46.000  
 16 10 14 20 50 22.1990000  0 11G29G24G18G20G 4G 5G21G10G27G13G15
  22595746.147      171344.393       -2824.835          47.000  
  23694135.200     -237083.167        3886.580          41.000  
  21837560.606     -146845.108        2402.856          44.000  
  20064784.540       18532.038        -318.432          45.000  
  23012508.633      149254.765       -2470.821          41.000  
  23844818.773      143024.155       -2354.664          39.000  
  21068837.297     -122970.573        2011.263          46.000  
  24545752.034     -202938.188        3429.468          37.000  
  24634665.780     -108758.4502       3158.360          33.000  
  21268497.541       89571.994       -1489.935          46.000  
  19997513.741      -14575.016         216.485          46.000  
 16 10 14 20 50 22.3990000  0 11G29G24G18G20G 4G 5G21G10G27G13G15
  22595853.658      171909.311       -2824.574          47.000  
  23693987.397     -237860.482        3886.980          41.000  
  21837468.870     -147325.632        2402.792          44.000  
  20064796.354       18595.676        -317.766          45.000  
  23012602.515      149748.933       -2471.058          41.000  
  23844908.292      143494.938       -2352.757          39.000  
  21068760.760     -123372.832        2011.631          46.000  
  24545621.541     -203624.200        3431.923          37.000  
  24634545.722     -109389.8012       3157.045          33.000  
  21268554.428       89869.995       -1490.317          46.000  
  19997505.714      -14618.356         216.943          46.000  
 16 10 14 20 50 22.5990000  0 11G29G24G18G20G 4G 5G21G10G27G13G15
  22595961.238      172474.239       -2824.645          47.000  
  23693839.523     -238637.788        3886.708          41.000  
  21837377.465     -147806.141        2402.230          44.000  
  20064808.446       18659.306        -318.447          45.000  
  23012696.589      150243.139       -2470.732          41.000  
  23844997.724      143965.666       -2354.191          39.000  
  21068684.293     -123775.078        2011.354          46.000  
  24545491.013     -204310.249        3429.418          36.000  
  24634425.699     -110021.1542       3153.614          33.000  
  21268611.228       90168.046       -1490.090          46.000  
  19997497.268      -14661.690         216.594          46.000  
 16 10 14 20 50 22.7990000  0 11G29G24G18G20G 4G 5G21G10G27G13G15
  22596068.714      173039.196       -2824.433          47.000  
  23693691.877     -239415.066        3886.711          41.000  
  21837286.044     -148286.632        2402.410          44.000  
  20064820.592       18722.973        -318.027          45.000  
  23012790.471      150737.367       -2471.596          41.000  
  23845087.139      144436.448       -2353.617          39.000  
  21068607.809     -124177.300        2010.889          46.000  
  24545360.643     -204996.252        3430.602          37.000  
  24634305.711     -110652.4552       3155.691          33.000  
  21268668.308       90466.113       -1490.386          46.000  
  19997488.734      -14704.962         216.282          46.000  
 16 10 14 20 50 22.9990000  0 11G29G24G18G20G 4G 5G21G10G27G13G15
  22596176.260      173604.161       -2825.187          47.000  
  23693543.707     -240192.344        3886.580          41.000  
  21837194.640     -148767.109        2402.116          44.000  
  20064832.597       18786.658        -318.833          45.000  
  23012884.754      151231.600       -2471.479          41.000  
  23845176.990      144907.225       -2353.923          39.000  
  21068531.482     -124579.492        2010.744          46.000  
  24545229.993     -205682.259        3431.259          37.000  
  24634185.759     -111283.7002       3155.906          33.000  
  21268724.847       90764.216       -1491.014          46.000  
  19997480.655      -14748.214         215.640          46.000  
 16 10 14 20 50 23.1990000  0 11G29G24G18G20G 4G 5G21G10G27G13G15
  22596283.788      174169.158       -2824.978          47.000  
  23693395.956     -240969.589        3886.145          41.000  
  21837103.375     -149247.563        2402.400          44.000  
  20064844.725       18850.391        -318.315          45.000  
  23012978.637      151725.861       -2471.704          41.000  
  23845266.510      145378.040       -2353.113          39.000  
  21068454.893     -124981.652        2010.835          46.000  
  24545099.640     -206368.246        3429.277          37.000  
  24634066.067     -111914.9532       3155.882          33.000  
  21268781.717       91062.370       -1490.400          46.000  
  19997472.698      -14791.406         216.239          46.000  
 16 10 14 20 50 23.3990000  0 11G29G24G18G20G 4G 5G21G10G27G13G15
  22596391.246      174734.153       -2824.983          47.000  
  23693247.909     -241746.847        3886.254          41.000  
  21837012.110     -149728.019        2402.728          44.000  
  20064856.783       18914.097        -318.740          45.000  
  23013072.589      152220.133       -2471.184          41.000  
  23845356.047      145848.827       -2353.228          39.000  
  21068378.094     -125383.806        2010.874          46.000  
  24544969.025     -207054.263        3430.084          37.000  
  24633946.010     -112546.1342       3158.786          34.000  
  21268838.203       91360.515       -1490.791          46.000  
  19997464.304      -14834.603         216.036          46.000  
 16 10 14 20 50 23.5990000  0 11G29G24G18G20G 4G 5G21G10G27G13G15
  22596498.879      175299.151       -2825.539          47.000  
  23693099.808     -242524.110        3886.228          41.000  
  21836920.601     -150208.480        2402.400          44.000  
  20064869.155       18977.837        -319.046          45.000  
  23013166.645      152714.420       -2471.540          41.000  
  23845445.741      146319.631       -2354.445          39.000  
  21068301.435     -125785.962        2010.191          46.000  
  24544838.532     -207740.234        3429.856          36.000  
  24633825.812     -113177.4262       3155.094          34.000  
  21268895.003       91658.692       -1491.379          46.000  
  19997456.259      -14877.765         215.242          46.000  
 16 10 14 20 50 23.7990000  0 11G29G24G18G20G 4G 5G21G10G27G13G15
  22596606.355      175864.204       -2825.417          47.000  
  23692951.918     -243301.307        3886.443          41.000  
  21836829.249     -150688.883        2402.305          44.000  
  20064881.684       19041.619        -318.870          45.000  
  23013260.632      153208.739       -2471.883          41.000  
  23845535.505      146790.447       -2354.085          39.000  
  21068224.671     -126188.053        2010.575          46.000  
  24544708.336     -208426.184        3427.735          36.000  
  24633705.825     -113808.5752       3155.588          33.000  
  21268951.350       91956.925       -1491.259          46.000  
  19997448.110      -14920.869         215.093          46.000  
 16 10 14 20 50 23.9990000  0 11G29G24G18G20G 4G 5G21G10G27G13G15
  22596713.866      176429.283       -2825.539          47.000  
  23692803.818     -244078.518        3885.729          41.000  
  21836737.792     -151169.285        2401.787          44.000  
  20064893.917       19105.435        -319.951          45.000  
  23013354.811      153703.089       -2471.978          41.000  
  23845625.216      147261.300       -2354.177          39.000  
  21068148.117     -126590.117        2010.775          46.000  
  24544577.703     -209112.092        3429.827          36.000  
  24633585.820     -114439.7232       3154.414          33.000  
  21269008.220       92255.182       -1491.727          46.000  
  19997439.559      -14963.927         215.058          46.000  
 16 10 14 20 50 24.1990000  0 11G29G24G18G20G 4G 5G21G10G27G13G15
  22596821.446      176994.382       -2825.623          47.000  
  23692656.084     -244855.691        3886.152          41.000  
  21836646.475     -151649.635        2401.945          44.000  
  20064905.801       19169.269        -319.284          45.000  
  23013449.146      154197.469       -2472.127          41.000  
  23845714.858      147732.152       -2354.878          39.000  
  21068071.581     -126992.162        2010.017          46.000  
  24544447.298     -209798.019        3429.735          36.000  
  24633465.937     -115071.301        3155.283          33.000  
  21269064.829       92553.469       -1491.697          46.000  
  19997431.462      -15006.953         215.175          46.000  
 16 10 14 20 50 24.3990000  0 11G29G24G18G20G 4G 5G21G10G27G13G15
  22596928.992      177559.471       -2825.246          47.000  
  23692508.124     -245632.881        3886.360          41.000  
  21836555.228     -152130.008        2401.988          44.000  
  20064918.051       19233.122        -319.236          45.000  
  23013543.203      154691.842       -2471.885          41.000  
  23845804.517      148203.007       -2354.053          39.000  
  21067995.393     -127394.198        2010.498          46.000  
  24544316.543     -210483.954        3429.994          36.000  
  24633345.774     -115702.417        3156.386          33.000  
  21269121.333       92851.788       -1490.999          46.000  
  19997423.418      -15049.968         215.047          46.000  
 16 10 14 20 50 24.5990000  0 11G29G24G18G20G 4G 5G21G10G27G13G15
  22597036.398      178124.561       -2825.489          47.000  
  23692360.355     -246410.088        3885.185          41.000  
  21836463.754     -152610.402        2402.286          44.000  
  20064930.126       19296.952        -319.162          45.000  
  23013637.330      155186.214       -2471.699          41.000  
  23845894.403      148673.865       -2353.864          39.000  
  21067918.874     -127796.229        2010.504          46.000  
  24544185.806     -211169.875        3430.242          36.000  
  24633225.595     -116333.487        3155.822          33.000  
  21269178.290       93150.092       -1491.280          46.000  
  19997415.461      -15092.972         214.982          46.000  
 16 10 14 20 50 24.7990000  0 11G29G24G18G20G 4G 5G21G10G27G13G15
  22597144.083      178689.647       -2825.744          47.000  
  23692212.325     -247187.294        3885.804          41.000  
  21836372.315     -153090.785        2401.863          44.000  
  20064942.149       19360.793        -319.309          45.000  
  23013731.438      155680.585       -2471.342          41.000  
  23845984.202      149144.703       -2354.963          39.000  
  21067842.075     -128198.264        2009.813          46.000  
  24544055.174     -211855.839        3430.268          36.000  
  24633105.205     -116964.593        3155.675          33.000  
  21269235.055       93448.405       -1491.717          46.000  
  19997407.311      -15135.959         214.541          46.000  
 16 10 14 20 50 24.9990000  0 11G29G24G18G20G 4G 5G21G10G27G13G15
  22597251.576      179254.738       -2825.819          47.000  
  23692064.242     -247964.496        3886.105          41.000  
  21836281.050     -153571.176        2401.866          44.000  
  20064954.451       19424.647        -319.312          45.000  
  23013825.687      156174.956       -2472.258          41.000  
  23846073.669      149615.533       -2354.670          39.000  
  21067765.748     -128600.285        2009.882          46.000  
  24543924.786     -212541.812        3428.822          36.000  
  24632985.061     -117595.690        3154.521          33.000  
  21269292.013       93746.744       -1491.657          46.000  
  19997399.319      -15178.921         214.395          46.000  
 16 10 14 20 50 25.1990000  0 11G29G24G18G20G 4G 5G21G10G27G13G15
  22597359.087      179819.833       -2825.745          47.000  
  23691916.229     -248741.702        3885.745          41.000  
  21836189.716     -154051.552        2401.935          44.000  
  20064966.562       19488.500        -319.990          45.000  
  23013919.778      156669.337       -2471.751          41.000  
  23846163.311      150086.386       -2353.770          39.000  
  21067689.124     -129002.283        2010.531          46.000  
  24543794.066     -213227.715        3430.008          36.000  
  24632864.898     -118226.735        3154.925          33.000  
  21269348.656       94045.105       -1491.854          46.000  
  19997391.082      -15221.874         214.360          46.000  
 16 10 14 20 50 25.3990000  0 11G29G24G18G20G 4G 5G21G10G27G13G15
  22597466.667      180384.967       -2825.963          47.000  
  23691768.269     -249518.880        3885.663          41.000  
  21836098.119     -154531.913        2401.797          44.000  
  20064978.533       19552.403        -319.489          45.000  
  23014013.870      157163.776       -2472.167          41.000  
  23846253.110      150557.224       -2354.014          39.000  
  21067612.762     -129404.257        2010.067          46.000  
  24543663.538     -213913.632        3429.214          36.000  
  24632744.736     -118857.754        3155.477          33.000  
  21269405.439       94343.493       -1492.208          46.000  
  19997382.985      -15264.761         214.682          46.000  
 16 10 14 20 50 25.5990000  0 11G29G24G18G20G 4G 5G21G10G27G13G15
  22597574.492      180950.095       -2825.780          47.000  
  23691620.535     -250296.075        3886.277          41.000  
  21836006.837     -155012.281        2401.474          44.000  
  20064990.626       19616.290        -319.695          45.000  
  23014107.804      157658.180       -2471.785          41.000  
  23846342.734      151028.059       -2354.909          39.000  
  21067535.998     -129806.234        2010.255          46.000  
  24543532.662     -214599.591        3431.211          36.000  
  24632624.452     -119488.770        3154.768          33.000  
  21269462.275       94641.897       -1491.746          46.000  
  19997374.749      -15307.652         214.353          46.000  
 16 10 14 20 50 25.7990000  0 11G29G24G18G20G 4G 5G21G10G27G13G15
  22597681.950      181515.214       -2825.481          47.000  
  23691472.505     -251073.282        3885.976          41.000  
  21835915.433     -155492.648        2401.507          44.000  
  20065002.666       19680.185        -319.978          45.000  
  23014201.913      158152.594       -2472.562          41.000  
  23846432.183      151498.888       -2355.390          39.000  
  21067459.688     -130208.208        2009.820          46.000  
  24543402.291     -215285.551        3427.375          36.000  
  24632504.219     -120119.786        3155.861          33.000  
  21269519.267       94940.297       -1492.263          46.000  
  19997366.617      -15350.532         213.824          46.000  
 16 10 14 20 50 25.9990000  0 11G29G24G18G20G 4G 5G21G10G27G13G15
  22597789.391      182080.362       -2825.558          47.000  
  23691324.998     -251850.474        3885.390          41.000  
  21835823.959     -155972.985        2401.718          44.000  
  20065014.898       19744.105        -319.455          45.000  
  23014295.656      158647.046       -2471.842          41.000  
  23846521.633      151969.732       -2355.034          39.000  
  21067383.134     -130610.153        2009.580          46.000  
  24543271.624     -215971.448        3430.505          37.000  
  24632384.214     -120750.770        3154.663          33.000  
  21269576.242       95238.758       -1492.431          46.000  
  19997358.206      -15393.362         214.365          46.000  
 16 10 14 20 50 26.1990000  0 11G29G24G18G20G 4G 5G21G10G27G13G15
  22597896.902      182645.521       -2825.402          47.000  
  23691177.369     -252627.646        3886.042          41.000  
  21835732.170     -156453.315        2401.608          44.000  
  20065027.410       19808.050        -319.847          45.000  
  23014389.852      159141.488       -2472.569          41.000  
  23846611.502      152440.590       -2354.208          39.000  
  21067306.650     -131012.074        2009.747          46.000  
  24543140.921     -216657.370        3429.541          36.000  
  24632264.244     -121381.730        3155.647          34.000  
  21269632.885       95537.226       -1491.849          46.000  
  19997350.213      -15436.166         214.032          46.000  
 16 10 14 20 50 26.3990000  0 11G29G24G18G20G 4G 5G21G10G27G13G15
  22598004.465      183210.669       -2825.976          47.000  
  23691029.513     -253404.852        3886.278          41.000  
  21835640.923     -156933.668        2401.859          44.000  
  20065039.695       19871.984        -319.943          45.000  
  23014483.664      159635.939       -2471.784          41.000  
  23846701.091      152911.434       -2354.031          39.000  
  21067230.148     -131414.013        2009.496          46.000  
  24543010.394     -217343.338        3429.283          36.000  
  24632144.099     -122012.730        3156.106          34.000  
  21269689.598       95835.688       -1492.133          46.000  
  19997342.012      -15478.962         214.025          46.000  
 16 10 14 20 50 26.5990000  0 11G29G24G18G20G 4G 5G21G10G27G13G15
  22598112.203      183775.869       -2825.838          47.000  
  23690881.448     -254181.997        3885.514          41.000  
  21835549.275     -157413.967        2401.336          44.000  
  20065052.050       19935.972        -319.656          45.000  
  23014577.616      160130.430       -2472.837          41.000  
  23846790.768      153382.305       -2354.479          39.000  
  21067153.646     -131815.882        2009.730          46.000  
  24542880.023     -218029.214        3430.252          36.000  
  24632024.112     -122643.615        3155.502          34.000  
  21269746.329       96134.231       -1492.555          46.000  
  19997333.793      -15521.696         214.172          46.000  
 16 10 14 20 50 26.7990000  0 11G29G24G18G20G 4G 5G21G10G27G13G15
  22598219.644      184341.066       -2826.525          47.000  
  23690733.488     -254959.155        3885.643          41.000  
  21835457.975     -157894.263        2401.432          44.000  
  20065064.282       19999.960        -320.292          45.000  
  23014671.742      160624.950       -2472.331          41.000  
  23846880.444      153853.178       -2355.233          39.000  
  21067077.039     -132217.748        2008.690          46.000  
  24542749.652     -218715.133        3429.953          36.000  
  24631904.176     -123274.519        3154.337          34.000  
  21269802.972       96432.766       -1492.896          46.000  
  19997325.643      -15564.415         213.311          46.000  
 16 10 14 20 50 26.9990000  0 11G29G24G18G20G 4G 5G21G10G27G13G15
  22598327.294      184906.309       -2826.333          47.000  
  23690585.492     -255736.265        3885.424          41.000  
  21835366.553     -158374.526        2401.455          44.000  
  20065076.428       20064.005        -319.996          45.000  
  23014765.625      161119.486       -2472.561          41.000  
  23846970.138      154324.084       -2354.574          39.000  
  21067000.642     -132619.572        2009.355          46.000  
  24542619.194     -219401.005        3429.305          36.000  
  24631784.118     -123905.375        3153.175          34.000  
  21269859.947       96731.360       -1493.411          46.000  
  19997317.633      -15607.086         213.120          46.000  
 16 10 14 20 50 27.1990000  0 11G29G24G18G20G 4G 5G21G10G27G13G15
  22598434.368      185471.522       -2825.990          47.000  
  23690437.637     -256513.419        3885.973          41.000  
  21835274.782     -158854.825        2401.680          44.000  
  20065088.503       20128.011        -320.025          45.000  
  23014859.699      161614.011       -2471.955          41.000  
  23847059.658      154794.961       -2353.836          39.000  
  21066924.228     -133021.416        2009.530          46.000  
  24542488.737     -220086.906        3430.599          36.000  
  24631664.340     -124536.245        3155.837          34.000  
  21269916.904       97029.947       -1492.749          46.000  
  19997309.537      -15649.742         213.609          46.000  
 16 10 14 20 50 27.3990000  0 11G29G24G18G20G 4G 5G21G10G27G13G15
  22598542.298      186036.741       -2826.219          47.000  
  23690289.711     -257290.567        3885.520          41.000  
  21835183.343     -159335.118        2401.271          44.000  
  20065100.718       20192.045        -319.820          45.000  
  23014954.139      162108.514       -2472.756          41.000  
  23847149.317      155265.815       -2353.900          39.000  
  21066848.040     -133423.244        2009.017          46.000  
  24542358.296     -220772.795        3429.135          36.000  
  24631544.178     -125167.118        3154.320          34.000  
  21269973.740       97328.546       -1493.209          46.000  
  19997301.335      -15692.401         213.035          46.000  
 16 10 14 20 50 27.5990000  0 11G29G24G18G20G 4G 5G21G10G27G13G15
  22598649.966      186602.021       -2826.732          47.000  
  23690141.943     -258067.660        3885.725          41.000  
  21835091.922     -159815.352        2401.039          44.000  
  20065113.108       20256.124        -320.739          45.000  
  23015048.039      162603.115       -2472.460          41.000  
  23847238.924      155736.753       -2354.862          39.000  
  21066771.451     -133825.012        2008.619          46.000  
  24542227.646     -221458.660        3428.756          36.000  
  24631424.312     -125797.895        3153.891          34.000  
  21270030.784       97627.218       -1493.774          46.000  
  19997293.325      -15734.980         212.669          46.000  
 16 10 14 20 50 27.7990000  0 11G29G24G18G20G 4G 5G21G10G27G13G15
  22598757.616      187167.320       -2826.546          47.000  
  23689994.121     -258844.751        3885.839          41.000  
  21835000.848     -160295.570        2401.650          44.000  
  20065125.358       20320.226        -320.858          45.000  
  23015142.217      163097.705       -2473.417          41.000  
  23847328.740      156207.688       -2354.020          39.000  
  21066694.704     -134226.761        2008.543          46.000  
  24542097.101     -222144.482        3429.933          36.000  
  24631304.499     -126428.650        3153.453          34.000  
  21270087.410       97925.909       -1493.503          46.000  
  19997285.350      -15777.518         212.316          46.000  
 16 10 14 20 50 27.9990000  0 11G29G24G18G20G 4G 5G21G10G27G13G15
  22598865.301      187732.615       -2826.858          47.000  
  23689846.405     -259621.829        3884.659          41.000  
  21834909.392     -160775.797        2401.079          44.000  
  20065137.154       20384.337        -320.714          45.000  
  23015236.222      163592.332       -2472.832          41.000  
  23847418.190      156678.617       -2354.037          39.000  
  21066618.220     -134628.506        2008.243          46.000  
  24541966.329     -222830.347        3428.723          36.000  
  24631184.616     -127059.402        3154.571          34.000  
  21270144.193       98224.614       -1493.673          46.000  
  19997277.288      -15820.042         212.796          46.000  
 16 10 14 20 50 28.1990000  0 11G29G24G18G20G 4G 5G21G10G27G13G15
  22598972.952      188297.989       -2826.718          47.000  
  23689698.619     -260398.839        3885.410          41.000  
  21834817.778     -161255.945        2400.684          44.000  
  20065149.020       20448.529        -321.318          45.000  
  23015330.435      164087.014       -2473.335          41.000  
  23847507.814      157149.599       -2355.335          39.000  
  21066541.875     -135030.160        2008.006          46.000  
  24541835.766     -223516.130        3429.597          36.000  
  24631064.296     -127690.057        3153.495          34.000  
  21270201.116       98523.406       -1494.062          46.000  
  19997269.366      -15862.480         212.063          46.000  
 16 10 14 20 50 28.3990000  0 11G29G24G18G20G 4G 5G21G10G27G13G15
  22599080.550      188863.356       -2826.831          47.000  
  23689550.816     -261175.879        3884.946          41.000  
  21834726.252     -161736.110        2400.480          44.000  
  20065161.270       20512.727        -320.930          45.000  
  23015424.562      164581.683       -2474.320          41.000  
  23847597.543      157620.571       -2354.510          39.000  
  21066465.583     -135431.819        2008.348          46.000  
  24541705.274     -224201.915        3428.298          36.000  
  24630943.977     -128320.769        3152.770          34.000  
  21270257.934       98822.205       -1494.551          46.000  
  19997261.059      -15904.903         211.942          46.000  
 16 10 14 20 50 28.5990000  0 11G29G24G18G20G 4G 5G21G10G27G13G15
  22599187.903      189428.721       -2826.647          47.000  
  23689402.838     -261952.907        3885.950          41.000  
  21834634.743     -162216.257        2401.410          44.000  
  20065173.450       20576.927        -320.443          45.000  
  23015518.723      165076.375       -2473.193          41.000  
  23847687.115      158091.548       -2355.245          39.000  
  21066389.116     -135833.472        2008.846          46.000  
  24541574.449     -224887.709        3429.889          36.000  
  24630823.780     -128951.386        3154.334          34.000  
  21270314.717       99121.026       -1493.616          46.000  
  19997252.771      -15947.314         212.056          46.000  
 16 10 14 20 50 28.7990000  0 11G29G24G18G20G 4G 5G21G10G27G13G15
  22599295.117      189994.070       -2826.825          47.000  
  23689254.738     -262729.972        3885.249          41.000  
  21834543.251     -162696.448        2400.873          44.000  
  20065185.525       20641.107        -320.774          45.000  
  23015613.024      165571.047       -2472.788          41.000  
  23847776.878      158562.487       -2354.654          39.000  
  21066312.562     -136235.145        2008.064          46.000  
  24541443.799     -225573.551        3428.576          36.000  
  24630704.106     -129582.064        3152.722          34.000  
  21270371.726       99419.831       -1493.737          46.000  
  19997245.197      -15989.719         212.094          46.000  
 16 10 14 20 50 28.9990000  0 11G29G24G18G20G 4G 5G21G10G27G13G15
  22599402.523      190559.389       -2826.856          47.000  
  23689106.917     -263507.062        3885.743          41.000  
  21834451.794     -163176.658        2401.124          44.000  
  20065198.002       20705.250        -321.212          45.000  
  23015707.342      166065.687       -2473.507          41.000  
  23847866.607      159033.389       -2354.338          39.000  
  21066235.973     -136636.833        2008.330          46.000  
  24541313.132     -226259.398        3428.951          36.000  
  24630584.136     -130212.769        3153.904          34.000  
  21270428.596       99718.612       -1494.729          46.000  
  19997237.309      -16032.146         211.767          46.000  
 16 10 14 20 50 29.1990000  0 11G29G24G18G20G 4G 5G21G10G27G13G15
  22599510.243      191124.758       -2826.691          47.000  
  23688958.974     -264284.121        3885.579          41.000  
  21834360.442     -163656.832        2400.963          44.000  
  20065210.444       20769.462        -321.216          45.000  
  23015801.556      166560.375       -2473.383          41.000  
  23847955.918      159504.356       -2354.708          39.000  
  21066159.645     -137038.472        2008.212          46.000  
  24541182.430     -226945.193        3430.039          36.000  
  24630463.991     -130843.426        3152.010          34.000  
  21270485.362      100017.466       -1494.341          46.000  
  19997229.265      -16074.508         211.681          46.000  
 16 10 14 20 50 29.3990000  0 11G29G24G18G20G 4G 5G21G10G27G13G15
  22599617.911      191690.145       -2826.978          47.000  
  23688811.223     -265061.151        3884.668          41.000  
  21834269.160     -164136.988        2400.472          44.000  
  20065222.677       20833.697        -321.230          45.000  
  23015895.682      167055.080       -2472.997          41.000  
  23848045.542      159975.309       -2354.883          39.000  
  21066083.144     -137440.079        2008.230          46.000  
  24541051.745     -227631.000        3429.735          36.000  
  24630343.934     -131474.026        3151.636          34.000  
  21270542.267      100316.337       -1494.531          46.000  
  19997220.854      -16116.836         211.277          46.000  
 16 10 14 20 50 29.5990000  0 11G29G24G18G20G 4G 5G21G10G27G13G15
  22599725.876      192255.539       -2827.285          47.000  
  23688663.263     -265838.189        3885.380          41.000  
  21834178.088     -164617.139        2400.979          44.000  
  20065234.822       20897.937        -321.459          45.000  
  23015989.687      167549.805       -2473.260          41.000  
  23848134.992      160446.286       -2354.657          39.000  
  21066006.834     -137841.685        2008.214          46.000  
  24540921.218     -228316.839        3428.224          36.000  
  24630223.963     -132104.632        3152.047          34.000  
  21270599.120      100615.229       -1494.492          46.000  
  19997212.966      -16159.135         212.035          46.000  
 16 10 14 20 50 29.7990000  0 11G29G24G18G20G 4G 5G21G10G27G13G15
  22599833.351      192820.954       -2827.240          47.000  
  23688515.284     -266615.210        3885.413          41.000  
  21834086.509     -165097.270        2400.858          44.000  
  20065246.985       20962.195        -321.276          45.000  
  23016083.638      168044.528       -2473.518          41.000  
  23848224.738      160917.235       -2355.272          39.000  
  21065930.559     -138243.259        2008.304          46.000  
  24540790.480     -229002.613        3429.008          36.000  
  24630104.307     -132735.184        3154.829          34.000  
  21270655.885      100914.158       -1494.558          46.000  
  19997204.834      -16201.415         211.266          46.000  
 16 10 14 20 50 29.9990000  0 11G29G24G18G20G 4G 5G21G10G27G13G15
  22599940.897      193386.371       -2826.931          47.000  
  23688367.481     -267392.235        3884.695          41.000  
  21833995.314     -165577.388        2401.005          44.000  
  20065259.217       21026.474        -321.066          45.000  
  23016177.817      168539.285       -2473.287          41.000  
  23848314.292      161388.236       -2353.693          39.000  
  21065854.196     -138644.827        2008.089          46.000  
  24540659.935     -229688.423        3429.449          36.000  
  24629984.302     -133365.772        3152.978          34.000  
  21270712.738      101213.098       -1494.731          46.000  
  19997196.999      -16243.650         211.356          46.000  
 16 10 14 20 50 30.1990000  0 11G29G24G18G20G 4G 5G21G10G27G13G15
  22600048.530      193951.804       -2826.890          47.000  
  23688219.730     -268169.246        3884.844          41.000  
  21833904.119     -166057.517        2400.427          44.000  
  20065271.118       21090.753        -321.413          45.000  
  23016271.961      169034.025       -2474.237          41.000  
  23848404.126      161859.185       -2354.424          39.000  
  21065777.782     -139046.389        2007.627          46.000  
  24540529.477     -230374.227        3428.991          36.000  
  24629864.262     -133996.287        3152.692          34.000  
  21270769.748      101512.056       -1494.991          46.000  
  19997188.884      -16285.877         210.874          46.000  
 16 10 14 20 50 30.3990000  0 11G29G24G18G20G 4G 5G21G10G27G13G15
  22600156.076      194517.232       -2827.095          47.000  
  23688071.578     -268946.260        3885.329          41.000  
  21833812.837     -166537.637        2400.636          44.000  
  20065283.578       21155.058        -321.444          45.000  
  23016366.070      169528.804       -2473.458          41.000  
  23848493.419      162330.158       -2354.762          39.000  
  21065701.367     -139447.925        2007.804          46.000  
  24540399.037     -231060.028        3427.013          36.000  
  24629744.012     -134626.788        3151.543          34.000  
  21270826.583      101811.032       -1495.147          46.000  
  19997180.561      -16328.067         210.979          46.000  
 16 10 14 20 50 30.5990000  0 11G29G24G18G20G 4G 5G21G10G27G13G15
  22600263.464      195082.695       -2827.060          47.000  
  23687923.687     -269723.252        3885.043          41.000  
  21833721.485     -167017.726        2400.687          44.000  
  20065296.020       21219.386        -321.610          45.000  
  23016460.144      170023.572       -2473.982          41.000  
  23848583.095      162801.176       -2354.775          39.000  
  21065625.145     -139849.431        2007.522          46.000  
  24540268.439     -231745.775        3428.975          36.000  
  24629624.129     -135257.317        3152.481          34.000  
  21270883.453      102110.062       -1494.861          46.000  
  19997172.516      -16370.237         210.703          46.000  
 16 10 14 20 50 30.7990000  0 11G29G24G18G20G 4G 5G21G10G27G13G15
  22600370.940      195648.149       -2827.490          47.000  
  23687775.709     -270500.276        3884.856          41.000  
  21833630.167     -167497.848        2400.177          44.000  
  20065308.235       21283.711        -321.704          45.000  
  23016554.078      170518.386       -2474.153          41.000  
  23848672.440      163272.122       -2354.649          39.000  
  21065548.695     -140250.943        2007.549          46.000  
  24540138.121     -232431.590        3427.823          36.000  
  24629504.071     -135887.807        3152.827          34.000  
  21270940.183      102409.072       -1495.080          46.000  
  19997164.384      -16412.384         210.848          46.000  
 16 10 14 20 50 30.9990000  0 11G29G24G18G20G 4G 5G21G10G27G13G15
  22600478.765      196213.627       -2827.468          47.000  
  23687627.940     -271277.240        3885.087          41.000  
  21833538.536     -167977.924        2400.438          44.000  
  20065320.380       21348.060        -321.768          45.000  
  23016648.187      171013.196       -2473.821          41.000  
  23848761.663      163743.107       -2355.630          39.000  
  21065472.403     -140652.425        2007.424          46.000  
  24540007.942     -233117.341        3427.672          36.000  
  24629383.944     -136518.249        3152.340          34.000  
  21270997.333      102708.125       -1495.286          46.000  
  19997156.479      -16454.493         210.465          46.000  
 16 10 14 20 50 31.1990000  0 11G29G24G18G20G 4G 5G21G10G27G13G15
  22600586.537      196779.104       -2827.760          47.000  
  23687479.893     -272054.231        3884.724          41.000  
  21833447.272     -168458.002        2400.310          44.000  
  20065333.031       21412.431        -321.586          45.000  
  23016742.157      171508.017       -2474.716          41.000  
  23848851.218      164214.108       -2355.936          39.000  
  21065395.918     -141053.897        2007.508          46.000  
  24539877.327     -233803.091        3430.302          36.000  
  24629264.305     -137148.693        3151.600          34.000  
  21271054.308      103007.203       -1495.546          46.000  
  19997148.138      -16496.575         210.655          46.000  
 16 10 14 20 50 31.3990000  0 11G29G24G18G20G 4G 5G21G10G27G13G15
  22600694.083      197344.622       -2827.723          47.000  
  23687332.194     -272831.185        3883.802          41.000  
  21833356.234     -168938.051        2400.204          44.000  
  20065345.055       21476.829        -322.498          45.000  
  23016836.545      172002.887       -2473.498          41.000  
  23848940.912      164685.124       -2354.533          39.000  
  21065319.539     -141455.328        2006.793          46.000  
  24539747.044     -234488.833        3428.369          36.000  
  24629144.736     -137779.093        3151.640          34.000  
  21271111.300      103306.318       -1495.632          46.000  
  19997140.111      -16538.624         209.794          46.000  
 16 10 14 20 50 31.5990000  0 11G29G24G18G20G 4G 5G21G10G27G13G15
  22600801.489      197910.134       -2827.790          47.000  
  23687184.478     -273608.148        3884.047          41.000  
  21833264.812     -169418.124        2399.756          44.000  
  20065357.113       21541.226        -322.359          45.000  
  23016930.759      172497.744       -2474.867          41.000  
  23849030.745      165156.134       -2355.501          39.000  
  21065242.828     -141856.753        2007.072          46.000  
  24539616.394     -235174.618        3428.557          36.000  
  24629025.010     -138409.505        3151.760          34.000  
  21271168.048      103605.438       -1496.022          46.000  
  19997132.293      -16580.637         209.675          46.000  
 16 10 14 20 50 31.7990000  0 11G29G24G18G20G 4G 5G21G10G27G13G15
  22600908.703      198475.654       -2827.635          47.000  
  23687036.587     -274385.125        3884.732          41.000  
  21833173.408     -169898.194        2399.746          44.000  
  20065369.380       21605.636        -321.863          45.000  
  23017024.815      172992.578       -2473.776          41.000  
  23849120.300      165627.126       -2354.171          39.000  
  21065166.570     -142258.188        2006.976          46.000  
  24539485.936     -235860.378        3427.305          36.000  
  24628905.144     -139039.885        3151.456          34.000  
  21271224.848      103904.568       -1495.848          46.000  
  19997124.562      -16622.652         209.897          46.000  
 16 10 14 20 50 31.9990000  0 11G29G24G18G20G 4G 5G21G10G27G13G15
  22601016.650      199041.153       -2827.529          47.000  
  23686888.574     -275162.121        3884.641          41.000  
  21833082.091     -170378.254        2400.120          44.000  
  20065381.543       21670.035        -321.884          45.000  
  23017118.732      173487.444       -2473.837          41.000  
  23849210.011      166098.118       -2354.844          39.000  
  21065090.225     -142659.617        2007.108          46.000  
  24539355.548     -236546.159        3428.970          36.000  
  24628785.139     -139670.291        3152.310          34.000  
  21271281.736      104203.708       -1495.807          45.000  
  19997116.727      -16664.660         209.429          46.000  
 16 10 14 20 50 32.1990000  0 11G29G24G18G20G 4G 5G21G10G27G13G15
  22601124.248      199606.712       -2827.927          47.000  
  23686740.823     -275939.056        3884.149          41.000  
  21832990.651     -170858.287        2399.573          44.000  
  20065393.810       21734.486        -322.854          45.000  
  23017213.207      173982.336       -2475.058          41.000  
  23849299.688      166569.143       -2355.296          39.000  
  21065014.107     -143060.976        2006.815          46.000  
  24539225.299     -237231.890        3427.414          36.000  
  24628665.152     -140300.626        3150.728          34.000  
  21271338.781      104502.913       -1496.403          45.000  
  19997108.560      -16706.593         209.548          46.000  
 16 10 14 20 50 32.3990000  0 11G29G24G18G20G 4G 5G21G10G27G13G15
  22601231.566      200172.251       -2827.790          47.000  
  23686592.985     -276716.009        3884.535          41.000  
  21832899.265     -171338.308        2400.170          44.000  
  20065406.112       21798.943        -322.143          45.000  
  23017307.421      174477.225       -2475.087          41.000  
  23849389.260      167040.139       -2354.919          39.000  
  21064937.640     -143462.358        2006.653          46.000  
  24539094.719     -237917.610        3428.329          36.000  
  24628545.234     -140930.957        3150.802          34.000  
  21271395.634      104802.114       -1496.166          45.000  
  19997100.289      -16748.525         209.452          46.000  
 16 10 14 20 50 32.5990000  0 11G29G24G18G20G 4G 5G21G10G27G13G15
  22601339.165      200737.828       -2827.986          47.000  
  23686445.252     -277492.957        3884.544          41.000  
  21832807.808     -171818.330        2399.928          44.000  
  20065418.118       21863.423        -322.296          45.000  
  23017401.548      174972.145       -2474.874          41.000  
  23849478.779      167511.178       -2354.236          39.000  
  21064861.383     -143863.693        2006.685          46.000  
  24538964.471     -238603.350        3428.039          36.000  
  24628425.438     -141561.246        3151.953          34.000  
  21271452.469      105101.359       -1496.541          45.000  
  19997092.052      -16790.414         209.111          46.000  
 16 10 14 20 50 32.7990000  0 11G29G24G18G20G 4G 5G21G10G27G13G15
  22601446.745      201303.410       -2827.735          47.000  
  23686297.431     -278269.882        3884.970          41.000  
  21832716.212     -172298.342        2400.115          44.000  
  20065430.403       21927.896        -322.849          45.000  
  23017495.866      175467.075       -2475.166          41.000  
  23849568.648      167982.212       -2355.011          39.000  
  21064785.021     -144265.045        2006.659          46.000  
  24538833.996     -239289.072        3428.315          36.000  
  24628305.729     -142191.534        3152.373          33.000  
  21271509.130      105400.613       -1496.549          45.000  
  19997084.462      -16832.281         208.992          46.000  
 16 10 14 20 50 32.9990000  0 11G29G24G18G20G 4G 5G21G10G27G13G15
  22601554.482      201868.967       -2828.246          47.000  
  23686149.575     -279046.835        3885.251          41.000  
  21832625.191     -172778.372        2400.074          44.000  
  20065442.478       21992.383        -322.650          45.000  
  23017589.765      175961.994       -2474.665          41.000  
  23849658.377      168453.204       -2354.631          39.000  
  21064708.658     -144666.381        2006.790          46.000  
  24538703.677     -239974.821        3428.384          36.000  
  24628185.445     -142821.852        3152.183          33.000  
  21271566.052      105699.870       -1496.517          45.000  
  19997076.469      -16874.145         208.964          46.000  
 16 10 14 20 50 33.1990000  0 11G29G24G18G20G 4G 5G21G10G27G13G15
  22601662.080      202434.603       -2828.355          47.000  
  23686001.736     -279823.740        3884.127          41.000  
  21832533.839     -173258.336        2400.077          44.000  
  20065454.641       22056.925        -322.710          45.000  
  23017684.258      176456.978       -2474.530          41.000  
  23849747.704      168924.257       -2355.618          39.000  
  21064632.366     -145067.656        2006.414          46.000  
  24538573.027     -240660.514        3428.690          36.000  
  24628065.666     -143452.061        3150.096          34.000  
  21271623.149      105999.196       -1496.514          45.000  
  19997068.634      -16915.930         209.209          46.000  
 16 10 14 20 50 33.3990000  0 11G29G24G18G20G 4G 5G21G10G27G13G15
  22601769.888      203000.186       -2828.408          47.000  
  23685853.881     -280600.670        3884.312          41.000  
  21832442.522     -173738.343        2399.158          44.000  
  20065467.258       22121.437        -323.193          45.000  
  23017778.420      176951.941       -2474.764          41.000  
  23849837.503      169395.277       -2355.130          39.000  
  21064555.777     -145468.968        2006.058          46.000  
  24538442.447     -241346.254        3428.328          36.000  
  24627945.591     -144082.363        3148.562          34.000  
  21271680.177      106298.502       -1497.253          46.000  
  19997061.078      -16957.744         208.099          46.000  
 16 10 14 20 50 33.5990000  0 11G29G24G18G20G 4G 5G21G10G27G13G15
  22601877.625      203565.819       -2828.251          47.000  
  23685705.728     -281377.581        3884.302          41.000  
  21832351.380     -174218.310        2399.621          44.000  
  20065479.595       22185.995        -322.778          45.000  
  23017872.581      177446.907       -2474.769          41.000  
  23849927.372      169866.303       -2355.779          39.000  
  21064479.554     -145870.241        2005.930          46.000  
  24538311.815     -242031.989        3428.765          36.000  
  24627825.673     -144712.510        3152.091          34.000  
  21271737.274      106597.845       -1497.391          45.000  
  19997053.400      -16999.500         208.399          46.000  
 16 10 14 20 50 33.7990000  0 11G29G24G18G20G 4G 5G21G10G27G13G15
  22601985.328      204131.452       -2828.351          47.000  
  23685558.047     -282154.481        3885.348          41.000  
  21832260.202     -174698.273        2399.879          44.000  
  20065491.932       22250.565        -322.558          45.000  
  23017967.074      177941.896       -2474.805          41.000  
  23850016.926      170337.365       -2355.624          39.000  
  21064402.965     -146271.480        2005.969          46.000  
  24538181.165     -242717.705        3428.488          36.000  
  24627705.738     -145342.710        3151.040          34.000  
  21271794.318      106897.219       -1497.020          45.000  
  19997045.495      -17041.224         208.790          46.000  
 16 10 14 20 50 33.9990000  0 11G29G24G18G20G 4G 5G21G10G27G13G15
  22602092.908      204697.057       -2827.630          47.000  
  23685410.331     -282931.420        3884.988          41.000  
  21832168.955     -175178.274        2399.979          44.000  
  20065504.060       22315.108        -322.544          45.000  
  23018061.078      178436.871       -2474.679          41.000  
  23850106.515      170808.358       -2354.873          39.000  
  21064326.620     -146672.743        2006.632          46.000  
  24538050.724     -243403.428        3429.084          36.000  
  24627585.750     -145972.934        3152.134          34.000  
  21271851.171      107196.565       -1496.685          45.000  
  19997037.450      -17082.970         208.629          46.000  
 16 10 14 20 50 34.1990000  0 11G29G24G18G20G 4G 5G21G10G27G13G15
  22602200.646      205262.672       -2828.253          47.000  
  23685262.440     -283708.359        3884.673          41.000  
  21832077.306     -175658.269        2399.616          44.000  
  20065516.571       22379.659        -323.183          45.000  
  23018155.187      178931.862       -2474.407          41.000  
  23850196.122      171279.386       -2355.181          39.000  
  21064250.345     -147074.015        2006.106          46.000  
  24537920.616     -244089.173        3428.794          36.000  
  24627465.762     -146602.6173       3148.805          34.000  
  21271907.797      107495.937       -1497.132          45.000  
  19997029.632      -17124.687         208.276          46.000  
 16 10 14 20 50 34.3990000  0 11G29G24G18G20G 4G 5G21G10G27G13G15
  22602308.122      205828.289       -2828.288          47.000  
  23685114.759     -284485.289        3884.489          41.000  
  21831986.094     -176138.259        2400.294          44.000  
  20065528.909       22444.219        -323.158          45.000  
  23018249.470      179426.819       -2475.663          41.000  
  23850285.467      171750.388       -2354.535          39.000  
  21064173.896     -147475.264        2006.204          46.000  
  24537789.948     -244774.920        3428.207          36.000  
  24627345.652     -147232.8132       3150.955          34.000  
  21271964.458      107795.333       -1496.720          45.000  
  19997021.465      -17166.390         208.305          46.000  
 16 10 14 20 50 34.5990000  0 11G29G24G18G20G 4G 5G21G10G27G13G15
  22602415.703      206393.928       -2828.093          47.000  
  23684966.833     -285262.228        3884.556          41.000  
  21831894.655     -176618.231        2400.387          44.000  
  20065541.194       22508.802        -323.401          45.000  
  23018343.841      179921.829       -2475.692          41.000  
  23850375.214      172221.417       -2355.646          39.000  
  21064097.638     -147876.497        2006.087          46.000  
  24537659.368     -245460.667        3427.946          36.000  
  24627225.560     -147862.9842       3148.713          34.000  
  21272021.537      108094.738       -1497.669          45.000  
  19997013.683      -17208.061         208.232          46.000  
 16 10 14 20 50 34.7990000  0 11G29G24G18G20G 4G 5G21G10G27G13G15
  22602523.510      206959.579       -2828.262          47.000  
  23684818.821     -286039.138        3884.797          41.000  
  21831803.373     -177098.195        2399.893          44.000  
  20065553.653       22573.409        -323.126          45.000  
  23018437.968      180416.853       -2474.526          41.000  
  23850464.698      172692.443       -2354.746          39.000  
  21064021.381     -148277.700        2006.154          46.000  
  24537528.579     -246146.360        3428.646          36.000  
  24627105.695     -148493.1052       3149.419          33.000  
  21272078.634      108394.179       -1496.961          45.000  
  19997005.673      -17249.698         208.340          46.000  
 16 10 14 20 50 34.9990000  0 11G29G24G18G20G 4G 5G21G10G27G13G15
  22602630.846      207525.266       -2828.224          47.000  
  23684670.947     -286816.039        3884.234          41.000  
  21831712.020     -177578.134        2399.629          44.000  
  20065565.920       22638.050        -323.000          45.000  
  23018532.320      180911.920       -2475.106          41.000  
  23850554.130      173163.472       -2355.480          39.000  
  21063944.879     -148678.867        2006.093          46.000  
  24537398.103     -246832.082        3429.188          36.000  
  24626985.898     -149123.2132       3150.547          33.000  
  21272135.923      108693.670       -1497.418          45.000  
  19996997.471      -17291.282         208.050          46.000  
 16 10 14 20 50 35.1990000  0 11G29G24G18G20G 4G 5G21G10G27G13G15
  22602738.671      208090.946       -2829.105          47.000  
  23684523.283     -287592.922        3884.368          41.000  
  21831620.616     -178058.072        2399.558          44.000  
  20065578.031       22702.696        -323.538          45.000  
  23018626.464      181406.970       -2474.953          41.000  
  23850643.772      173634.520       -2355.469          39.000  
  21063868.726     -149080.035        2005.691          46.000  
  24537267.611     -247517.768        3427.493          36.000  
  24626865.980     -149753.2732       3150.302          34.000  
  21272192.776      108993.158       -1497.602          45.000  
  19996989.915      -17332.852         207.820          46.000  
 16 10 14 20 50 35.3990000  0 11G29G24G18G20G 4G 5G21G10G27G13G15
  22602846.426      208656.645       -2828.376          47.000  
  23684375.672     -288369.794        3884.321          41.000  
  21831529.020     -178537.994        2399.788          44.000  
  20065590.473       22767.359        -323.318          45.000  
  23018720.783      181902.042       -2476.014          41.000  
  23850733.553      174105.579       -2355.120          39.000  
  21063792.294     -149481.178        2005.521          46.000  
  24537137.031     -248203.469        3429.073          36.000  
  24626746.045     -150383.3892       3147.921          33.000  
  21272249.908      109292.693       -1497.338          46.000  
  19996982.115      -17374.398         207.495          46.000  
 16 10 14 20 50 35.5990000  0 11G29G24G18G20G 4G 5G21G10G27G13G15
  22602954.059      209222.391       -2828.987          47.000  
  23684227.903     -289146.652        3884.401          41.000  
  21831437.877     -179017.892        2399.543          44.000  
  20065602.793       22832.067        -323.251          45.000  
  23018814.944      182397.161       -2475.812          41.000  
  23850823.213      174576.657       -2355.544          39.000  
  21063716.159     -149882.280        2005.526          46.000  
  24537006.643     -248889.188        3425.566          36.000  
  24626626.005     -151013.3602       3149.354          34.000  
  21272306.953      109592.260       -1497.987          46.000  
  19996974.157      -17415.881         207.096          46.000  
 16 10 14 20 50 35.7990000  0 11G29G24G18G20G 4G 5G21G10G27G13G15
  22603062.006      209788.111       -2828.614          47.000  
  23684080.048     -289923.534        3884.789          41.000  
  21831346.526     -179497.795        2399.500          44.000  
  20065614.955       22896.755        -323.303          45.000  
  23018909.036      182892.251       -2475.145          41.000  
  23850913.012      175047.724       -2354.576          39.000  
  21063639.674     -150283.390        2005.073          46.000  
  24536876.290     -249574.804        3428.535          36.000  
  24626506.122     -151643.4172       3149.352          34.000  
  21272364.102      109891.824       -1498.112          46.000  
  19996966.532      -17457.361         207.497          46.000  
 16 10 14 20 50 35.9990000  0 11G29G24G18G20G 4G 5G21G10G27G13G15
  22603169.830      210353.878       -2828.433          47.000  
  23683931.651     -290700.349        3883.951          41.000  
  21831255.016     -179977.657        2399.285          44.000  
  20065627.240       22961.506        -323.181          45.000  
  23019003.703      183387.410       -2475.861          41.000  
  23851002.566      175518.825       -2355.748          39.000  
  21063563.382     -150684.448        2005.212          46.000  
  24536745.674     -250260.459        3427.942          36.000  
  24626386.239     -152273.3612       3149.148          34.000  
  21272421.112      110191.454       -1498.508          45.000  
  19996958.644      -17498.789         207.236          46.000  
 16 10 14 20 50 36.3990000  0 11G29G24G18G20G 4G 5G21G10G27G13G15
  22603384.991      211485.414       -2828.722          47.000  
  23683635.835     -292254.046        3883.558          41.000  
  21831072.312     -180937.403        2399.571          44.000  
  20065651.897       23090.987        -324.193          45.000  
  23019192.235      184377.698       -2475.753          41.000  
  23851182.198      176460.969       -2356.328          39.000  
  21063410.640     -151486.564        2005.017          46.000  
  24536484.724     -251631.792        3429.545          36.000  
  24626146.665     -153533.3102       3150.455          34.000  
  21272535.393      110790.743       -1498.152          45.000  
  19996942.520      -17581.608         207.137          46.000  
 16 10 14 20 50 36.5990000  0 11G29G24G18G20G 4G 5G21G10G27G13G15
  22603492.467      212051.191       -2828.731          47.000  
  23683487.979     -293030.874        3884.438          41.000  
  21830980.961     -181417.272        2399.141          44.000  
  20065664.252       23155.751        -323.744          45.000  
  23019286.344      184872.854       -2475.946          41.000  
  23851271.700      176932.071       -2355.164          39.000  
  21063334.208     -151887.592        2005.517          46.000  
  24536354.301     -252317.463        3429.327          36.000  
  24626026.764     -154163.2542       3150.183          34.000  
  21272592.351      111090.393       -1498.248          46.000  
  19996934.615      -17622.979         206.831          46.000  
 16 10 14 20 50 36.7990000  0 11G29G24G18G20G 4G 5G21G10G27G13G15
  22603600.188      212616.976       -2828.809          47.000  
  23683340.106     -293807.709        3884.415          41.000  
  21830889.940     -181897.126        2399.721          44.000  
  20065676.484       23220.531        -323.412          45.000  
  23019380.540      185368.012       -2476.502          41.000  
  23851361.394      177403.158       -2355.276          39.000  
  21063258.177     -152288.621        2005.556          46.000  
  24536223.808     -253003.128        3428.940          36.000  
  24625906.829     -154793.1592       3150.455          34.000  
  21272649.360      111390.076       -1498.378          45.000  
  19996926.605      -17664.329         206.832          46.000  
 16 10 14 20 50 36.9990000  0 11G29G24G18G20G 4G 5G21G10G27G13G15
  22603707.646      213182.755       -2828.812          47.000  
  23683192.477     -294584.552        3883.934          41.000  
  21830798.640     -182377.002        2399.281          44.000  
  20065688.856       23285.290        -323.999          45.000  
  23019474.754      185863.198       -2475.794          41.000  
  23851451.228      177874.236       -2354.417          39.000  
  21063181.902     -152689.642        2005.318          46.000  
  24536093.123     -253688.833        3428.069          36.000  
  24625786.893     -155423.0852       3149.962          33.000  
  21272706.317      111689.760       -1498.272          45.000  
  19996918.822      -17705.666         206.491          46.000  
 16 10 14 20 50 37.1990000  0 11G29G24G18G20G 4G 5G21G10G27G13G15
  22603815.279      213748.556       -2828.673          47.000  
  23683044.726     -295361.382        3884.961          41.000  
  21830707.288     -182856.860        2399.664          44.000  
  20065701.211       23350.092        -323.828          45.000  
  23019568.967      186358.388       -2475.418          41.000  
  23851540.957      178345.313       -2355.066          39.000  
  21063105.697     -153090.641        2005.553          46.000  
  24535962.822     -254374.454        3428.971          36.000  
  24625667.062     -156052.9672       3149.960          33.000  
  21272763.484      111989.496       -1498.012          45.000  
  19996911.039      -17746.966         207.148          46.000  
 16 10 14 20 50 37.3990000  0 11G29G24G18G20G 4G 5G21G10G27G13G15
  22603923.138      214314.325       -2829.106          47.000  
  23682896.992     -296138.259        3884.128          41.000  
  21830616.373     -183336.726        2399.544          44.000  
  20065713.391       23414.875        -323.783          45.000  
  23019663.198      186853.556       -2476.047          41.000  
  23851630.581      178816.376       -2354.556          39.000  
  21063029.562     -153491.650        2004.663          46.000  
  24535832.050     -255060.154        3428.851          36.000  
  24625547.040     -156682.8952       3146.136          34.000  
  21272820.337      112289.197       -1498.341          45.000  
  19996903.344      -17788.272         206.253          46.000  
 16 10 14 20 50 37.5990000  0 11G29G24G18G20G 4G 5G21G10G27G13G15
  22604030.754      214880.129       -2828.933          47.000  
  23682749.485     -296915.093        3884.470          41.000  
  21830525.265     -183816.589        2399.221          44.000  
  20065725.659       23479.684        -323.945          45.000  
  23019757.325      187348.757       -2475.534          41.000  
  23851720.502      179287.448       -2355.860          39.000  
  21062953.112     -153892.645        2004.640          46.000  
  24535701.680     -255745.836        3428.749          36.000  
  24625427.157     -157312.7272       3150.112          34.000  
  21272877.504      112588.946       -1498.442          46.000  
  19996895.788      -17829.551         206.345          46.000  
 16 10 14 20 50 37.7990000  0 11G29G24G18G20G 4G 5G21G10G27G13G15
  22604138.317      215445.921       -2828.887          47.000  
  23682601.385     -297691.955        3884.300          41.000  
  21830434.140     -184296.449        2399.780          44.000  
  20065738.031       23544.481        -323.938          45.000  
  23019851.399      187843.929       -2475.789          40.000  
  23851810.126      179758.487       -2355.322          39.000  
  21062876.785     -154293.635        2005.317          46.000  
  24535571.292     -256431.494        3429.638          36.000  
  24625307.413     -157942.6542       3149.797          34.000  
  21272934.357      112888.682       -1498.382          46.000  
  19996887.464      -17870.813         206.309          46.000  
 16 10 14 20 50 37.9990000  0 11G29G24G18G20G 4G 5G21G10G27G13G15
  22604245.932      216011.682       -2829.359          47.000  
  23682453.023     -298468.856        3884.596          41.000  
  21830342.858     -184776.342        2399.646          44.000  
  20065750.630       23609.259        -323.956          45.000  
  23019945.665      188339.087       -2476.447          41.000  
  23851899.593      180229.518       -2354.997          39.000  
  21062800.667     -154694.650        2004.462          46.000  
  24535440.833     -257117.250        3428.498          36.000  
  24625187.338     -158572.5362       3149.730          33.000  
  21272991.419      113188.417       -1499.269          46.000  
  19996879.489      -17912.077         206.221          46.000  
 16 10 14 20 50 38.1990000  0 11G29G24G18G20G 4G 5G21G10G27G13G15
  22604353.739      216577.492       -2829.199          47.000  
  23682304.958     -299245.700        3884.539          41.000  
  21830251.558     -185256.204        2399.197          44.000  
  20065763.019       23674.088        -324.199          45.000  
  23020039.791      188834.277       -2476.552          41.000  
  23851989.095      180700.570       -2355.546          39.000  
  21062724.287     -155095.600        2004.945          46.000  
  24535310.445     -257802.953        3428.612          36.000  
  24625067.403     -159202.3952       3150.661          33.000  
  21273048.219      113488.203       -1499.259          46.000  
  19996871.619      -17953.294         205.869          46.000  
 16 10 14 20 50 38.3990000  0 11G29G24G18G20G 4G 5G21G10G27G13G15
  22604461.826      217143.335       -2829.003          47.000  
  23682157.329     -300022.544        3883.969          41.000  
  21830160.311     -185736.033        2399.589          44.000  
  20065775.671       23738.942        -324.283          45.000  
  23020134.022      189329.523       -2476.249          41.000  
  23852078.458      181171.644       -2355.668          39.000  
  21062647.890     -155496.538        2004.780          46.000  
  24535180.040     -258488.591        3427.848          36.000  
  24624947.973     -159832.1892       3148.407          34.000  
  21273105.316      113788.034       -1499.019          45.000  
  19996863.941      -17994.459         206.085          46.000  
 16 10 14 20 50 38.5990000  0 11G29G24G18G20G 4G 5G21G10G27G13G15
  22604569.459      217709.131       -2829.151          47.000  
  23682009.282     -300799.425        3884.149          41.000  
  21830068.907     -186215.900        2399.338          44.000  
  20065788.025       23803.768        -324.271          45.000  
  23020228.358      189824.728       -2476.286          41.000  
  23852168.100      181642.682       -2355.208          39.000  
  21062571.353     -155897.509        2004.529          46.000  
  24535049.425     -259174.304        3429.701          36.000  
  24624828.300     -160462.0232       3147.202          33.000  
  21273162.797      114087.818       -1499.330          45.000  
  19996856.140      -18035.652         205.869          46.000  
 16 10 14 20 50 38.7990000  0 11G29G24G18G20G 4G 5G21G10G27G13G15
  22604677.005      218274.931       -2828.907          47.000  
  23681861.775     -301576.298        3884.399          41.000  
  21829977.502     -186695.780        2399.468          44.000  
  20065800.188       23868.589        -324.129          45.000  
  23020322.677      190319.928       -2476.487          41.000  
  23852257.707      182113.723       -2354.318          39.000  
  21062495.131     -156298.462        2004.808          46.000  
  24534918.793     -259860.041        3428.687          36.000  
  24624708.679     -161091.8592       3148.864          33.000  
  21273219.685      114387.643       -1499.100          45.000  
  19996848.009      -18076.837         205.879          46.000  
 16 10 14 20 50 38.9990000  0 11G29G24G18G20G 4G 5G21G10G27G13G15
  22604784.742      218840.732       -2828.883          47.000  
  23681714.233     -302353.179        3884.253          41.000  
  21829886.133     -187175.656        2399.581          44.000  
  20065812.752       23933.430        -324.058          45.000  
  23020416.681      190815.126       -2475.835          41.000  
  23852347.156      182584.718       -2354.221          39.000  
  21062418.925     -156699.396        2004.746          46.000  
  24534788.561     -260545.736        3429.029          36.000  
  24624588.760     -161721.6702       3147.781          33.000  
  21273276.729      114687.462       -1498.760          45.000  
  19996840.173      -18117.986         205.992          46.000  
 16 10 14 20 50 39.1990000  0 11G29G24G18G20G 4G 5G21G10G27G13G15
  22604892.235      219406.554       -2829.153          47.000  
  23681566.674     -303130.047        3884.377          41.000  
  21829794.816     -187655.518        2399.188          44.000  
  20065825.037       23998.281        -324.427          45.000  
  23020511.139      191310.349       -2476.549          41.000  
  23852436.850      183055.766       -2355.867          39.000  
  21062342.703     -157100.337        2004.394          46.000  
  24534657.929     -261231.472        3428.013          36.000  
  24624468.999     -162351.4862       3149.687          33.000  
  21273333.861      114987.310       -1499.553          45.000  
  19996832.512      -18159.112         205.342          46.000  
 16 10 14 20 50 39.3990000  0 11G29G24G18G20G 4G 5G21G10G27G13G15
  22604999.781      219972.402       -2829.270          47.000  
  23681418.696     -303906.881        3883.880          41.000  
  21829703.411     -188135.351        2399.103          44.000  
  20065837.427       24063.165        -324.823          45.000  
  23020605.352      191805.612       -2476.240          41.000  
  23852526.701      183526.815       -2355.860          39.000  
  21062266.131     -157501.231        2004.447          46.000  
  24534527.733     -261917.144        3427.226          36.000  
  24624348.942     -162981.2192       3148.862          34.000  
  21273390.958      115287.207       -1499.596          46.000  
  19996824.974      -18200.191         205.142          46.000  
 16 10 14 20 50 39.5990000  0 11G29G24G18G20G 4G 5G21G10G27G13G15
  22605107.309      220538.252       -2829.170          47.000  
  23681270.980     -304683.734        3884.206          42.000  
  21829612.025     -188615.197        2398.525          44.000  
  20065849.834       24128.072        -324.020          45.000  
  23020699.880      192300.863       -2476.687          41.000  
  23852616.308      183997.855       -2354.537          39.000  
  21062189.787     -157902.113        2004.476          46.000  
  24534397.292     -262602.815        3429.311          36.000  
  24624228.989     -163610.9792       3148.096          34.000  
  21273448.090      115587.109       -1499.689          46.000  
  19996816.947      -18241.261         204.897          46.000  
 16 10 14 20 50 39.7990000  0 11G29G24G18G20G 4G 5G21G10G27G13G15
  22605215.361      221104.122       -2829.358          47.000  
  23681123.019     -305460.559        3884.330          41.000  
  21829520.760     -189094.998        2399.121          44.000  
  20065862.119       24192.986        -324.366          45.000  
  23020794.164      192796.152       -2476.028          41.000  
  23852706.229      184468.914       -2355.552          39.000  
  21062113.459     -158302.975        2004.278          46.000  
  24534267.131     -263288.506        3428.569          36.000  
  24624109.193     -164240.7002       3146.911          33.000  
  21273505.327      115887.055       -1499.123          46.000  
  19996808.989      -18282.278         205.689          46.000  
 16 10 14 20 50 39.9990000  0 11G29G24G18G20G 4G 5G21G10G27G13G15
  22605323.063      221669.977       -2828.785          47.000  
  23680975.024     -306237.417        3883.863          41.000  
  21829429.320     -189574.829        2399.450          44.000  
  20065874.194       24257.901        -323.982          45.000  
  23020888.185      193291.402       -2476.328          41.000  
  23852795.870      184939.972       -2354.604          39.000  
  21062037.201     -158703.846        2004.362          46.000  
  24534136.516     -263974.205        3429.694          36.000  
  24623989.205     -164870.4192       3149.362          34.000  
  21273562.267      116186.986       -1499.393          46.000  
  19996801.171      -18323.309         205.171          46.000  
 16 10 14 20 50 40.1990000  0 11G29G24G18G20G 4G 5G21G10G27G13G15
  22605430.818      222235.870       -2829.886          47.000  
  23680827.377     -307014.227        3883.556          41.000  
  21829337.899     -190054.612        2398.346          44.000  
  20065886.479       24322.862        -324.882          45.000  
  23020982.626      193786.741       -2476.458          41.000  
  23852885.634      185411.053       -2356.041          39.000  
  21061960.874     -159104.654        2003.786          46.000  
  24534005.901     -264659.867        3426.273          36.000  
  24623869.095     -165500.0512       3149.033          33.000  
  21273619.067      116486.982       -1500.030          46.000  
  19996793.389      -18364.263         204.521          46.000  
 16 10 14 20 50 40.3990000  0 11G29G24G18G20G 4G 5G21G10G27G13G15
  22605538.347      222801.795       -2829.887          47.000  
  23680679.626     -307791.037        3884.052          41.000  
  21829246.547     -190534.403        2398.927          44.000  
  20065899.078       24387.841        -324.809          45.000  
  23021076.944      194282.058       -2477.364          41.000  
  23852975.451      185882.121       -2355.054          39.000  
  21061884.983     -159505.452        2004.126          46.000  
  24533875.565     -265345.507        3427.747          36.000  
  24623749.073     -166129.7492       3148.523          34.000  
  21273676.374      116786.985       -1500.375          46.000  
  19996785.501      -18405.200         204.465          46.000  
 16 10 14 20 50 40.5990000  0 11G29G24G18G20G 4G 5G21G10G27G13G15
  22605646.154      223367.714       -2829.449          47.000  
  23680531.753     -308567.838        3884.140          42.000  
  21829155.422     -191014.180        2399.276          44.000  
  20065911.415       24452.811        -324.733          45.000  
  23021170.861      194777.413       -2476.055          41.000  
  23853065.162      186353.213       -2354.726          39.000  
  21061808.516     -159906.238        2004.369          46.000  
  24533745.177     -266031.162        3428.841          36.000  
  24623629.260     -166759.4152       3150.584          33.000  
  21273733.750      117087.031       -1499.984          46.000  
  19996777.771      -18446.112         204.754          46.000  
 16 10 14 20 50 40.7990000  0 11G29G24G18G20G 4G 5G21G10G27G13G15
  22605753.996      223933.612       -2829.782          47.000  
  23680383.950     -309344.667        3884.443          42.000  
  21829064.052     -191493.990        2399.292          44.000  
  20065923.909       24517.785        -325.046          45.000  
  23021264.953      195272.726       -2476.724          41.000  
  23853155.048      186824.262       -2355.184          39.000  
  21061732.294     -160307.049        2003.688          46.000  
  24533614.580     -266716.834        3428.717          36.000  
  24623509.673     -167389.0523       3147.155          33.000  
  21273790.673      117387.042       -1500.196          46.000  
  19996769.988      -18487.033         204.462          46.000  
 16 10 14 20 50 40.9990000  0 11G29G24G18G20G 4G 5G21G10G27G13G15
  22605861.978      224499.551       -2829.769          47.000  
  23680236.199     -310121.473        3884.295          42.000  
  21828972.561     -191973.754        2398.879          44.000  
  20065936.648       24582.797        -325.077          45.000  
  23021359.446      195768.083       -2476.626          41.000  
  23853244.446      187295.348       -2355.449          39.000  
  21061656.019     -160707.806        2003.877          46.000  
  24533483.983     -267402.485        3428.947          36.000  
  24623389.843     -168018.6462       3146.995          33.000  
  21273847.613      117687.120       -1500.604          46.000  
  19996762.030      -18527.901         204.099          46.000  
 16 10 14 20 50 41.1990000  0 11G29G24G18G20G 4G 5G21G10G27G13G15
  22605969.576      225065.533       -2829.870          47.000  
  23680088.413     -310898.245        3884.252          42.000  
  21828881.261     -192453.476        2398.397          44.000  
  20065948.915       24647.845        -325.252          45.000  
  23021453.502      196263.461       -2477.762          41.000  
  23853334.052      187766.473       -2355.273          39.000  
  21061579.796     -161108.512        2003.891          46.000  
  24533353.437     -268088.152        3427.863          36.000  
  24623269.977     -168648.2062       3147.497          34.000  
  21273904.919      117987.246       -1500.773          46.000  
  19996754.404      -18568.698         203.844          46.000  
 16 10 14 20 50 41.3990000  0 11G29G24G18G20G 4G 5G21G10G27G13G15
  22606077.296      225631.500       -2829.718          48.000  
  23679940.662     -311675.031        3884.320          42.000  
  21828790.153     -192933.226        2398.669          44.000  
  20065961.113       24712.884        -325.658          45.000  
  23021547.750      196758.884       -2476.123          41.000  
  23853423.554      188237.561       -2355.283          39.000  
  21061503.277     -161509.246        2003.567          46.000  
  24533222.944     -268773.789        3428.712          36.000  
  24623150.006     -169277.8342       3146.873          34.000  
  21273961.894      118287.363       -1500.500          46.000  
  19996746.604      -18609.511         204.000          46.000  
 16 10 14 20 50 41.5990000  0 11G29G24G18G20G 4G 5G21G10G27G13G15
  22606185.086      226197.493       -2830.192          48.000  
  23679792.823     -312451.799        3883.611          42.000  
  21828698.697     -193412.937        2398.374          44.000  
  20065973.555       24777.973        -325.221          45.000  
  23021642.017      197254.292       -2477.672          41.000  
  23853513.528      188708.676       -2355.905          39.000  
  21061427.037     -161909.927        2003.577          46.000  
  24533092.486     -269459.386        3428.834          36.000  
  24623030.560     -169907.2822       3148.866          34.000  
  21274019.008      118587.542       -1501.097          46.000  
  19996738.699      -18650.266         203.922          46.000  
 16 10 14 20 50 41.7990000  0 11G29G24G18G20G 4G 5G21G10G27G13G15
  22606292.772      226763.488       -2829.976          48.000  
  23679644.933     -313228.571        3883.466          42.000  
  21828607.432     -193892.667        2398.981          44.000  
  20065985.665       24843.053        -325.397          45.000  
  23021736.283      197749.729       -2476.942          41.000  
  23853603.239      189179.782       -2355.277          39.000  
  21061350.849     -162310.623        2003.407          46.000  
  24532962.064     -270145.013        3428.574          36.000  
  24622910.973     -170536.8112       3146.790          34.000  
  21274076.228      118887.697       -1500.776          46.000  
  19996731.143      -18691.016         204.023          46.000  
 16 10 14 20 50 41.9990000  0 11G29G24G18G20G 4G 5G21G10G27G13G15
  22606400.509      227329.462       -2829.908          48.000  
  23679497.182     -314005.371        3883.721          42.000  
  21828516.272     -194372.415        2398.559          44.000  
  20065998.142       24908.127        -325.524          45.000  
  23021830.619      198245.116       -2477.228          41.000  
  23853692.794      189650.874       -2354.636          39.000  
  21061274.853     -162711.313        2003.289          46.000  
  24532831.693     -270830.653        3428.073          36.000  
  24622791.370     -171166.3582       3147.634          34.000  
  21274133.168      119187.858       -1500.894          46.000  
  19996723.535      -18731.761         203.697          46.000  
 16 10 14 20 50 42.1990000  0 11G29G24G18G20G 4G 5G21G10G27G13G15
  22606508.107      227895.470       -2830.027          48.000  
  23679349.273     -314782.134        3883.724          42.000  
  21828425.164     -194852.117        2398.672          44.000  
  20066010.671       24973.235        -325.056          45.000  
  23021924.657      198740.555       -2477.053          41.000  
  23853782.453      190121.979       -2355.330          39.000  
  21061198.630     -163111.980        2003.335          46.000  
  24532701.427     -271516.286        3428.510          36.000  
  24622671.312     -171795.8452       3147.863          34.000  
  21274190.003      119488.065       -1501.198          46.000  
  19996715.804      -18772.463         203.383          46.000  
 16 10 14 20 50 42.3990000  0 11G29G24G18G20G 4G 5G21G10G27G13G15
  22606615.932      228461.471       -2829.762          48.000  
  23679201.540     -315558.901        3884.376          42.000  
  21828333.812     -195331.839        2398.996          44.000  
  20066023.078       25038.319        -325.448          45.000  
  23022018.801      199235.979       -2476.934          41.000  
  23853872.147      190593.071       -2355.591          39.000  
  21061122.233     -163512.641        2003.654          46.000  
  24532570.672     -272201.922        3430.831          36.000  
  24622551.446     -172425.3112       3147.851          34.000  
  21274247.030      119788.282       -1500.778          46.000  
  19996708.423      -18813.162         203.817          46.000  
 16 10 14 20 50 42.5990000  0 11G29G24G18G20G 4G 5G21G10G27G13G15
  22606723.826      229027.453       -2830.272          48.000  
  23679053.771     -316335.697        3883.522          42.000  
  21828242.565     -195811.584        2398.456          44.000  
  20066035.468       25103.413        -325.746          45.000  
  23022112.840      199731.396       -2476.270          41.000  
  23853961.911      191064.133       -2356.409          39.000  
  21061046.081     -163913.309        2003.221          46.000  
  24532440.337     -272887.597        3427.730          36.000  
  24622431.685     -173054.8262       3147.769          34.000  
  21274304.354      120088.497       -1500.919          46.000  
  19996700.343      -18853.838         203.340          46.000  
 16 10 14 20 50 42.7990000  0 11G29G24G18G20G 4G 5G21G10G27G13G15
  22606831.355      229593.487       -2829.956          48.000  
  23678905.846     -317112.450        3884.250          41.000  
  21828151.283     -196291.282        2399.025          44.000  
  20066047.927       25168.563        -324.882          45.000  
  23022207.264      200226.876       -2476.379          41.000  
  23854051.552      191535.283       -2355.466          39.000  
  21060969.823     -164313.929        2003.120          46.000  
  24532309.809     -273573.212        3428.912          36.000  
  24622312.116     -173684.2622       3146.400          34.000  
  21274361.556      120388.749       -1501.217          46.000  
  19996692.578      -18894.469         203.209          46.000  
 16 10 14 20 50 42.9990000  0 11G29G24G18G20G 4G 5G21G10G27G13G15
  22606938.970      230159.504       -2830.294          48.000  
  23678757.903     -317889.237        3883.817          42.000  
  21828060.315     -196770.996        2398.525          44.000  
  20066060.404       25233.680        -326.184          45.000  
  23022301.652      200722.325       -2476.985          41.000  
  23854141.142      192006.346       -2355.286          39.000  
  21060894.037     -164714.562        2002.980          46.000  
  24532179.264     -274258.863        3427.899          36.000  
  24622192.251     -174313.7152       3146.800          34.000  
  21274418.740      120689.013       -1501.888          46.000  
  19996684.830      -18935.101         202.924          46.000  
 16 10 14 20 50 43.1990000  0 11G29G24G18G20G 4G 5G21G10G27G13G15
  22607046.864      230725.561       -2830.093          47.000  
  23678610.256     -318665.985        3884.019          42.000  
  21827968.771     -197250.687        2398.435          44.000  
  20066072.619       25298.855        -325.534          45.000  
  23022395.848      201217.814       -2476.606          41.000  
  23854230.923      192477.457       -2354.926          39.000  
  21060817.639     -165115.147        2003.305          46.000  
  24532048.509     -274944.425        3428.601          36.000  
  24622072.402     -174943.1102       3146.756          34.000  
  21274475.924      120989.329       -1501.414          46.000  
  19996677.116      -18975.684         203.426          46.000  
 16 10 14 20 50 43.3990000  0 11G29G24G18G20G 4G 5G21G10G27G13G15
  22607154.288      231291.592       -2830.623          48.000  
  23678462.523     -319442.752        3883.554          42.000  
  21827877.716     -197730.389        2398.039          44.000  
  20066084.851       25364.011        -326.148          45.000  
  23022489.957      201713.298       -2477.907          41.000  
  23854320.285      192948.552       -2356.032          39.000  
  21060741.225     -165515.749        2002.094          46.000  
  24531918.016     -275630.080        3428.655          36.000  
  24621952.519     -175572.5672       3145.255          34.000  
  21274533.108      121289.632       -1501.406          46.000  
  19996669.561      -19016.252         202.519          46.000  
 16 10 14 20 50 43.5990000  0 11G29G24G18G20G 4G 5G21G10G27G13G15
  22607262.113      231857.656       -2830.453          48.000  
  23678314.580     -320219.491        3883.908          42.000  
  21827786.399     -198210.061        2398.287          44.000  
  20066096.979       25429.194        -326.078          45.000  
  23022584.170      202208.800       -2477.831          41.000  
  23854410.032      193419.673       -2356.429          39.000  
  21060665.351     -165916.310        2002.781          46.000  
  24531787.628     -276315.690        3428.416          36.000  
  24621833.020     -176201.8782       3148.329          34.000  
  21274590.310      121589.974       -1501.458          46.000  
  19996661.708      -19056.797         202.367          46.000  
 16 10 14 20 50 43.7990000  0 11G29G24G18G20G 4G 5G21G10G27G13G15
  22607369.589      232423.719       -2830.276          48.000  
  23678166.689     -320996.249        3884.426          42.000  
  21827695.064     -198689.737        2398.573          44.000  
  20066109.352       25494.394        -325.926          45.000  
  23022678.786      202704.307       -2478.280          41.000  
  23854499.813      193890.798       -2355.852          39.000  
  21060589.111     -166316.878        2003.078          46.000  
  24531657.153     -277001.328        3427.678          36.000  
  24621713.434     -176831.2792       3147.147          34.000  
  21274647.477      121890.319       -1502.122          46.000  
  19996653.768      -19097.319         202.753          46.000  
 16 10 14 20 50 43.9990000  0 11G29G24G18G20G 4G 5G21G10G27G13G15
  22607477.169      232989.787       -2830.138          47.000  
  23678018.886     -321773.026        3883.804          42.000  
  21827603.852     -199169.426        2398.746          44.000  
  20066121.759       25559.586        -325.555          45.000  
  23022773.244      203199.824       -2476.691          41.000  
  23854589.280      194361.881       -2355.164          39.000  
  21060512.487     -166717.429        2002.748          46.000  
  24531527.009     -277686.982        3428.073          36.000  
  24621593.551     -177460.6472       3147.428          34.000  
  21274704.819      122190.684       -1501.539          46.000  
  19996645.915      -19137.821         202.647          46.000  
 16 10 14 20 50 44.1990000  0 11G29G24G18G20G 4G 5G21G10G27G13G15
  22607584.941      233555.833       -2830.301          48.000  
  23677871.082     -322549.808        3883.387          42.000  
  21827512.465     -199649.119        2398.708          44.000  
  20066134.253       25624.771        -326.026          45.000  
  23022867.352      203695.307       -2477.552          41.000  
  23854678.852      194832.950       -2355.829          39.000  
  21060436.160     -167118.001        2002.556          46.000  
  24531396.673     -278372.614        3428.016          36.000  
  24621473.859     -178090.0122       3145.584          34.000  
  21274761.671      122491.044       -1502.047          46.000  
  19996638.045      -19178.317         202.442          46.000  
 16 10 14 20 50 44.3990000  0 11G29G24G18G20G 4G 5G21G10G27G13G15
  22607692.801      234121.915       -2830.220          48.000  
  23677723.348     -323326.561        3883.607          42.000  
  21827421.322     -200128.790        2398.024          44.000  
  20066147.044       25689.985        -326.220          45.000  
  23022961.845      204190.834       -2477.797          41.000  
  23854768.459      195304.055       -2355.431          39.000  
  21060360.269     -167518.516        2002.773          46.000  
  24531266.041     -279058.237        3428.008          36.000  
  24621354.291     -178719.3372       3146.255          34.000  
  21274818.873      122791.456       -1502.079          46.000  
  19996630.384      -19218.772         202.184          46.000  
 16 10 14 20 50 44.5990000  0 11G29G24G18G20G 4G 5G21G10G27G13G15
  22607800.678      234688.010       -2830.332          47.000  
  23677575.493     -324103.299        3884.237          42.000  
  21827329.953     -200608.445        2398.624          44.000  
  20066159.346       25755.231        -326.261          45.000  
  23023056.181      204686.377       -2478.201          41.000  
  23854858.136      195775.161       -2355.073          39.000  
  21060284.064     -167919.025        2002.806          46.000  
  24531135.600     -279743.847        3428.170          36.000  
  24621234.652     -179348.6642       3146.147          34.000  
  21274875.761      123091.887       -1501.800          46.000  
  19996622.427      -19259.187         202.744          46.000  
 16 10 14 20 50 44.7990000  0 11G29G24G18G20G 4G 5G21G10G27G13G15
  22607908.591      235254.078       -2830.060          48.000  
  23677427.567     -324880.091        3883.834          42.000  
  21827238.584     -201088.138        2398.295          44.000  
  20066171.771       25820.448        -326.044          45.000  
  23023150.447      205181.901       -2477.624          40.000  
  23854947.969      196246.257       -2354.749          39.000  
  21060207.911     -168319.558        2002.569          46.000  
  24531005.177     -280429.481        3428.594          36.000  
  24621114.699     -179977.9782       3146.288          34.000  
  21274932.962      123392.300       -1501.739          46.000  
  19996614.923      -19299.627         202.094          46.000  
 16 10 14 20 50 44.9990000  0 11G29G24G18G20G 4G 5G21G10G27G13G15
  22608016.381      235820.199       -2830.260          48.000  
  23677279.886     -325656.815        3883.372          41.000  
  21827147.336     -201567.772        2398.382          44.000  
  20066184.090       25885.723        -326.191          45.000  
  23023244.818      205677.479       -2477.681          40.000  
  23855037.506      196717.363       -2355.591          39.000  
  21060131.653     -168720.030        2002.585          46.000  
  24530874.318     -281115.133        3427.028          36.000  
  24620994.764     -180607.2222       3148.083          33.000  
  21274990.251      123692.773       -1502.222          46.000  
  19996607.559      -19339.996         201.909          46.000  
 16 10 14 20 50 45.1990000  0 11G29G24G18G20G 4G 5G21G10G27G13G15
  22608123.891      236386.310       -2830.466          48.000  
  23677132.327     -326433.563        3884.036          42.000  
  21827055.827     -202047.421        2398.345          44.000  
  20066196.549       25950.979        -326.484          45.000  
  23023338.944      206173.057       -2478.424          40.000  
  23855127.113      197188.468       -2354.606          39.000  
  21060055.832     -169120.507        2002.339          46.000  
  24530743.825     -281800.736        3427.200          36.000  
  24620875.107     -181236.5232       3146.530          34.000  
  21275047.488      123993.244       -1502.023          46.000  
  19996599.794      -19380.359         201.975          46.000  
 16 10 14 20 50 45.3990000  0 11G29G24G18G20G 4G 5G21G10G27G13G15
  22608231.716      236952.441       -2830.652          48.000  
  23676984.576     -327210.297        3883.569          42.000  
  21826964.493     -202527.050        2398.716          44.000  
  20066209.079       26016.277        -326.442          45.000  
  23023433.245      206668.643       -2478.028          40.000  
  23855216.650      197659.569       -2355.933          39.000  
  21059979.574     -169520.954        2002.528          46.000  
  24530613.280     -282486.350        3427.174          36.000  
  24620755.416     -181865.7552       3146.277          34.000  
  21275104.777      124293.774       -1502.349          46.000  
  19996592.185      -19420.685         201.719          46.000  
 16 10 14 20 50 45.5990000  0 11G29G24G18G20G 4G 5G21G10G27G13G15
  22608339.296      237518.552       -2830.282          48.000  
  23676837.017     -327987.050        3884.349          42.000  
  21826873.315     -203006.715        2398.234          44.000  
  20066221.259       26081.546        -325.996          45.000  
  23023527.406      207164.197       -2478.371          40.000  
  23855306.169      198130.657       -2354.916          39.000  
  21059903.387     -169921.429        2002.282          46.000  
  24530482.735     -283171.963        3428.692          36.000  
  24620635.516     -182495.0082       3145.767          34.000  
  21275162.066      124594.264       -1502.243          46.000  
  19996584.647      -19461.025         201.555          46.000  
 16 10 14 20 50 45.7990000  0 11G29G24G18G20G 4G 5G21G10G27G13G15
  22608446.999      238084.681       -2830.509          48.000  
  23676689.353     -328763.803        3882.920          42.000  
  21826782.103     -203486.362        2397.875          44.000  
  20066233.945       26146.835        -326.952          45.000  
  23023621.725      207659.793       -2478.021          40.000  
  23855395.549      198601.753       -2355.974          39.000  
  21059827.112     -170321.863        2002.615          46.000  
  24530352.190     -283857.595        3427.827          36.000  
  24620515.510     -183124.2692       3144.889          34.000  
  21275219.477      124894.795       -1502.683          46.000  
  19996577.126      -19501.317         201.637          46.000  
 16 10 14 20 50 45.9990000  0 11G29G24G18G20G 4G 5G21G10G27G13G15
  22608554.772      238650.836       -2830.586          48.000  
  23676541.375     -329540.523        3884.272          42.000  
  21826690.803     -203965.981        2398.372          44.000  
  20066246.614       26212.172        -326.406          45.000  
  23023715.956      208155.421       -2477.322          40.000  
  23855485.296      199072.874       -2355.779          39.000  
  21059750.715     -170722.282        2002.003          46.000  
  24530221.767     -284543.217        3427.516          36.000  
  24620395.942     -183753.4432       3144.403          34.000  
  21275276.836      125195.361       -1502.621          46.000  
  19996569.448      -19541.558         201.466          46.000  
 16 10 14 20 50 46.1990000  0 11G29G24G18G20G 4G 5G21G10G27G13G15
  22608662.212      239216.962       -2830.746          48.000  
  23676393.501     -330317.266        3883.843          42.000  
  21826599.643     -204445.613        2398.574          44.000  
  20066258.951       26277.485        -326.393          45.000  
  23023810.448      208651.006       -2478.676          40.000  
  23855574.710      199543.974       -2355.370          39.000  
  21059674.125     -171122.711        2002.064          46.000  
  24530091.187     -285228.824        3428.554          36.000  
  24620276.442     -184382.6352       3145.156          34.000  
  21275334.055      125495.916       -1502.668          46.000  
  19996561.979      -19581.829         200.945          46.000  
 16 10 14 20 50 46.3990000  0 11G29G24G18G20G 4G 5G21G10G27G13G15
  22608769.810      239783.116       -2830.914          48.000  
  23676245.524     -331094.010        3883.723          42.000  
  21826508.274     -204925.253        2398.190          44.000  
  20066271.358       26342.803        -326.592          45.000  
  23023904.767      209146.640       -2477.799          40.000  
  23855664.509      200015.061       -2356.368          39.000  
  21059597.850     -171523.119        2002.118          46.000  
  24529960.781     -285914.444        3428.792          36.000  
  24620156.542     -185011.8102       3145.906          34.000  
  21275391.082      125796.504       -1502.534          46.000  
  19996554.161      -19622.060         201.236          46.000  
 16 10 14 20 50 46.5990000  0 11G29G24G18G20G 4G 5G21G10G27G13G15
  22608877.565      240349.225       -2830.390          48.000  
  23676097.703     -331870.806        3884.014          42.000  
  21826416.887     -205404.930        2398.312          44.000  
  20066283.364       26408.101        -326.672          45.000  
  23023999.382      209642.198       -2478.481          40.000  
  23855754.238      200486.101       -2355.565          39.000  
  21059521.645     -171923.552        2002.422          46.000  
  24529830.410     -286600.147        3429.137          36.000  
  24620036.746     -185641.0692       3144.934          34.000  
  21275448.598      126097.056       -1502.620          46.000  
  19996546.308      -19662.321         201.292          46.000  
 16 10 14 20 50 46.7990000  0 11G29G24G18G20G 4G 5G21G10G27G13G15
  22608985.478      240915.336       -2830.604          48.000  
  23675950.022     -332647.578        3884.311          42.000  
  21826326.006     -205884.596        2398.298          44.000  
  20066295.527       26473.404        -325.853          45.000  
  23024093.421      210137.789       -2477.597          40.000  
  23855843.793      200957.144       -2355.473          39.000  
  21059445.650     -172323.990        2002.285          46.000  
  24529700.232     -287285.826        3428.179          36.000  
  24619917.020     -186270.2442       3145.168          34.000  
  21275505.939      126397.630       -1502.360          46.000  
  19996538.962      -19702.545         201.504          46.000  
 16 10 14 20 50 46.9990000  0 11G29G24G18G20G 4G 5G21G10G27G13G15
  22609093.233      241481.458       -2830.434          48.000  
  23675802.131     -333424.374        3883.964          42.000  
  21826234.689     -206364.261        2398.285          44.000  
  20066307.934       26538.703        -326.423          45.000  
  23024187.757      210633.371       -2478.286          40.000  
  23855933.225      201428.190       -2355.636          39.000  
  21059369.514     -172724.406        2001.580          46.000  
  24529569.757     -287971.472        3428.935          36.000  
  24619797.399     -186899.4172       3146.518          34.000  
  21275563.019      126698.223       -1503.129          46.000  
  19996531.127      -19742.755         200.844          46.000  
 16 10 14 20 50 47.1990000  0 11G29G24G18G20G 4G 5G21G10G27G13G15
  22609201.092      242047.583       -2830.634          48.000  
  23675654.327     -334201.156        3883.748          42.000  
  21826143.389     -206843.933        2398.155          44.000  
  20066320.637       26604.030        -326.535          45.000  
  23024281.866      211128.973       -2477.528          41.000  
  23856022.901      201899.223       -2355.583          39.000  
  21059293.274     -173124.825        2002.074          46.000  
  24529439.211     -288657.155        3428.372          36.000  
  24619677.533     -187528.6342       3147.461          34.000  
  21275620.063      126998.836       -1502.952          46.000  
  19996523.605      -19782.948         200.967          46.000  
 16 10 14 20 50 47.3990000  0 11G29G24G18G20G 4G 5G21G10G27G13G15
  22609308.742      242613.690       -2830.692          48.000  
  23675506.489     -334977.966        3883.925          42.000  
  21826052.229     -207323.618        2398.217          44.000  
  20066333.079       26669.334        -326.997          45.000  
  23024376.201      211624.544       -2478.328          40.000  
  23856112.735      202370.252       -2354.624          39.000  
  21059217.104     -173525.243        2001.849          46.000  
  24529309.015     -289342.841        3428.980          36.000  
  24619557.859     -188157.7662       3146.553          33.000  
  21275677.405      127299.443       -1502.871          46.000  
  19996515.875      -19823.145         200.527          46.000  
