     2.10           OBSERVATION DATA    G (GPS)             RINEX VERSION / TYPE
RTKCONV 2.4.2                           20160928 180949 UTC PGM / RUN BY / DATE 
log: C:\Users\macshen\Desktop\exp_924\multipath effect\mul  COMMENT             
format: u-blox                                              COMMENT             
                                                            MARKER NAME         
                                                            MARKER NUMBER       
                                                            OBSERVER / AGENCY   
                                                            REC # / TYPE / VERS 
                                                            ANT # / TYPE        
   518023.8967 -4696366.9811  4270419.1857                  APPROX POSITION XYZ 
        0.0000        0.0000        0.0000                  ANTENNA: DELTA H/E/N
     1     1                                                WAVELENGTH FACT L1/2
     4    C1    L1    D1    S1                              # / TYPES OF OBSERV 
  2016     9    24    21    28   56.0000000     GPS         TIME OF FIRST OBS   
  2016     9    24    21    44    0.1990000     GPS         TIME OF LAST OBS    
                                                            END OF HEADER       
 16  9 24 21 28 56.0000000  0 11G18G20G21G 2G 4G 5G24G29G30G13G15
  22970920.319     -885423.0213       2951.787          28.000  
  20007250.968     -246103.145         792.783          49.000  
  22051026.018     -852490.496        2835.690          47.000  
  24394952.911      139579.843       -2473.284          36.000  
  21855558.242      361250.171       -1249.518          48.000  
  22550562.897      599353.598       -1980.699          49.000  
  25467052.409       10711.8323       3914.917          27.000  
  21310458.077      509770.9493      -1736.144          28.000  
  24874603.626      -22955.147         199.056          41.000  
  20779725.026      -87723.321         220.957          49.000  
  20393858.552     -633280.719        2042.342          49.000  
 16  9 24 21 28 56.2000000  0 11G18G20G21G 2G 4G 5G24G29G30G13G15
  22970807.243     -886013.4063       2952.045          28.000  
  20007220.710     -246261.739         792.559          49.000  
  22050918.107     -853057.640        2835.595          47.000  
  24395047.039      140074.482       -2473.328          36.000  
  21855605.707      361500.104       -1249.702          48.000  
  22550638.213      599749.757       -1981.300          49.000  
  25466898.848        9928.6463       3915.185          27.000  
  21310524.110      510118.2173      -1736.545          29.000  
  24874595.844      -22995.117         199.558          41.000  
  20779716.476      -87767.471         220.143          49.000  
  20393780.760     -633689.224        2042.076          49.000  
 16  9 24 21 28 56.4000000  0 11G18G20G21G 2G 4G 5G24G29G30G13G15
  22970694.375     -886603.7853       2951.885          28.000  
  20007190.591     -246420.281         792.721          49.000  
  22050810.195     -853624.753        2835.727          47.000  
  24395141.200      140569.117       -2472.513          35.000  
  21855653.242      361750.072       -1250.321          48.000  
  22550713.598      600145.963       -1980.895          49.000  
  25466749.788        9145.5063       3916.437          27.000  
  21310590.316      510465.5743      -1736.859          29.000  
  24874588.201      -23035.009         200.349          41.000  
  20779708.135      -87811.549         220.179          49.000  
  20393703.072     -634097.674        2041.997          49.000  
 16  9 24 21 28 56.6000000  0 11G18G20G21G 2G 4G 5G24G29G30G13G15
  22970582.310     -887194.0903       2952.150          28.000  
  20007160.507     -246578.794         792.382          49.000  
  22050702.109     -854191.838        2835.160          47.000  
  24395235.327      141063.798       -2472.915          35.000  
  21855700.742      362000.092       -1250.253          48.000  
  22550788.983      600542.180       -1981.055          49.000  
  25466594.063        8362.3753       3916.185          27.000  
  21310656.453      510812.9693      -1737.025          29.000  
  24874580.698      -23074.899         199.275          41.000  
  20779700.004      -87855.585         219.731          49.000  
  20393625.489     -634506.083        2041.684          49.000  
 16  9 24 21 28 56.8000000  0 11G18G20G21G 2G 4G 5G24G29G30G13G15
  22970470.140     -887784.4423       2951.920          28.000  
  20007130.318     -246737.313         792.460          49.000  
  22050594.162     -854758.930        2835.747          47.000  
  24395329.593      141558.468       -2473.415          35.000  
  21855748.242      362250.113       -1250.407          48.000  
  22550864.298      600938.384       -1981.063          49.000  
  25466441.443        7579.1993       3915.801          27.000  
  21310722.659      511160.3483      -1736.648          29.000  
  24874573.125      -23114.765         198.732          41.000  
  20779691.628      -87899.615         219.896          49.000  
  20393547.626     -634914.490        2041.732          49.000  
 16  9 24 21 28 57.0000000  0 11G18G20G21G 2G 4G 5G24G29G30G13G15
  22970357.691     -888374.7733       2951.114          28.000  
  20007100.339     -246895.783         791.934          49.000  
  22050486.250     -855325.987        2835.035          47.000  
  24395423.964      142053.181       -2472.929          35.000  
  21855795.671      362500.179       -1250.629          48.000  
  22550939.683      601334.630       -1981.351          49.000  
  25466289.801        6796.0183       3914.302          27.000  
  21310788.656      511507.7733      -1736.789          29.000  
  24874565.237      -23154.579         198.000          41.000  
  20779683.217      -87943.589         219.558          49.000  
  20393469.973     -635322.833        2041.478          49.000  
 16  9 24 21 28 57.2000000  0 11G18G20G21G 2G 4G 5G24G29G30G13G15
  22970245.208     -888965.0623       2951.683          28.000  
  20007070.291     -247054.256         792.174          49.000  
  22050378.234     -855893.060        2835.012          47.000  
  24395518.231      142547.864       -2473.936          35.000  
  21855843.102      362750.251       -1250.595          48.000  
  22551014.999      601730.849       -1981.608          49.000  
  25466140.672        6012.8443       3916.635          27.000  
  21310854.270      511855.2223      -1737.232          29.000  
  24874557.769      -23194.394         198.286          41.000  
  20779674.702      -87987.548         219.749          49.000  
  20393392.215     -635731.172        2041.406          49.000  
 16  9 24 21 28 57.4000000  0 11G18G20G21G 2G 4G 5G24G29G30G13G15
  22970132.444     -889555.4313       2950.826          28.000  
  20007040.171     -247212.719         792.338          49.000  
  22050270.252     -856460.113        2835.585          47.000  
  24395612.392      143042.551       -2471.885          35.000  
  21855890.706      363000.339       -1250.386          48.000  
  22551090.349      602127.095       -1981.172          49.000  
  25465981.840        5229.7233       3916.788          27.000  
  21310920.336      512202.6693      -1737.626          29.000  
  24874550.161      -23234.182         199.121          41.000  
  20779666.536      -88031.488         219.580          49.000  
  20393314.457     -636139.493        2041.413          49.000  
 16  9 24 21 28 57.6000000  0 11G18G20G21G 2G 4G 5G24G29G30G13G15
  22970019.682     -890145.7273       2951.520          28.000  
  20007009.914     -247371.179         792.014          49.000  
  22050162.410     -857027.178        2835.316          47.000  
  24395706.659      143537.281       -2472.554          35.000  
  21855938.346      363250.436       -1250.793          48.000  
  22551165.665      602523.311       -1981.227          49.000  
  25465828.977        4446.5213       3915.522          27.000  
  21310986.508      512550.1503      -1737.811          29.000  
  24874542.554      -23273.971         199.206          41.000  
  20779658.230      -88075.409         219.246          49.000  
  20393236.769     -636547.798        2040.999          49.000  
 16  9 24 21 28 57.8000000  0 11G18G20G21G 2G 4G 5G24G29G30G13G15
  22969907.163     -890736.0043       2951.906          27.000  
  20006979.620     -247529.619         792.341          49.000  
  22050054.429     -857594.233        2835.288          47.000  
  24395800.925      144031.935       -2473.431          35.000  
  21855985.880      363500.565       -1250.544          48.000  
  22551241.050      602919.549       -1981.203          49.000  
  25465679.778        3663.2833       3915.183          27.000  
  21311052.645      512897.6453      -1737.349          29.000  
  24874535.085      -23313.695         199.624          41.000  
  20779649.819      -88119.297         219.210          49.000  
  20393159.116     -636956.070        2041.206          49.000  
 16  9 24 21 28 58.0000000  0 11G18G20G21G 2G 4G 5G24G29G30G13G15
  22969795.098     -891326.3393       2950.651          27.000  
  20006949.466     -247688.056         791.627          49.000  
  22049946.482     -858161.282        2835.109          47.000  
  24395895.087      144526.639       -2473.327          35.000  
  21856033.450      363750.695       -1250.911          48.000  
  22551316.191      603315.772       -1981.410          49.000  
  25465530.474        2880.0623       3916.510          26.000  
  21311118.746      513245.1393      -1738.109          30.000  
  24874527.512      -23353.448         198.191          41.000  
  20779641.338      -88163.171         218.951          49.000  
  20393081.393     -637364.332        2040.673          49.000  
 16  9 24 21 28 58.4000000  0 11G18G20G21G 2G 4G 5G24G29G30G13G15
  22969569.920     -892506.9003       2951.524          28.000  
  20006889.158     -248004.813         791.775          49.000  
  22049730.727     -859295.307        2834.901          47.000  
  24396083.689      145516.151       -2472.785          35.000  
  21856128.623      364251.101       -1251.175          48.000  
  22551466.577      604108.321       -1981.352          49.000  
  25465221.710        1313.7263       3917.142          26.000  
  21311250.565      513940.2733      -1737.820          30.000  
  24874512.504      -23432.800         197.227          41.000  
  20779624.761      -88250.770         218.963          49.000  
  20392926.225     -638180.691        2040.893          49.000  
 16  9 24 21 28 58.6000000  0 11G18G20G21G 2G 4G 5G24G29G30G13G15
  22969457.507     -893097.1663       2951.729          28.000  
  20006859.075     -248163.199         792.166          49.000  
  22049622.746     -859862.339        2834.880          47.000  
  24396178.025      146010.838       -2472.854          35.000  
  21856176.333      364501.285       -1251.213          48.000  
  22551541.823      604504.564       -1981.247          49.000  
  25465072.197         530.4793       3916.456          26.000  
  21311316.597      514287.8503      -1737.626          30.000  
  24874504.722      -23472.488         197.427          41.000  
  20779616.525      -88294.567         218.840          50.000  
  20392848.643     -638588.883        2040.967          49.000  
 16  9 24 21 28 58.8000000  0 11G18G20G21G 2G 4G 5G24G29G30G13G15
  22969344.534     -893687.4633       2951.122          28.000  
  20006829.130     -248321.571         791.838          49.000  
  22049514.729     -860429.357        2835.187          47.000  
  24396272.257      146505.623       -2473.146          35.000  
  21856224.007      364751.506       -1251.226          48.000  
  22551617.173      604900.811       -1981.251          49.000  
  25464920.973        -252.7673       3915.227          26.000  
  21311382.559      514635.4223      -1737.834          30.000  
  24874497.009      -23512.101         197.698          40.000  
  20779608.044      -88338.330         218.757          50.000  
  20392771.024     -638997.035        2040.618          49.000  
 16  9 24 21 28 59.0000000  0 11G18G20G21G 2G 4G 5G24G29G30G13G15
  22969232.329     -894277.7383       2951.535          28.000  
  20006798.906     -248479.957         791.819          49.000  
  22049406.817     -860996.390        2834.875          47.000  
  24396366.697      147000.310       -2473.396          35.000  
  21856271.646      365001.727       -1250.907          48.000  
  22551692.419      605297.052       -1981.334          49.000  
  25464768.144       -1035.9863       3917.601          26.000  
  21311448.382      514983.0123      -1738.356          30.000  
  24874489.366      -23551.747         198.182          40.000  
  20779599.703      -88382.094         218.803          50.000  
  20392693.161     -639405.189        2040.901          49.000  
 16  9 24 21 28 59.2000000  0 11G18G20G21G 2G 4G 5G24G29G30G13G15
  22969120.369     -894868.0423       2951.562          28.000  
  20006768.788     -248638.333         791.813          49.000  
  22049298.871     -861563.421        2834.988          47.000  
  24396460.894      147495.015       -2472.673          35.000  
  21856319.146      365251.955       -1251.325          49.000  
  22551767.874      605693.282       -1981.158          49.000  
  25464615.910       -1819.2763       3917.780          26.000  
  21311513.786      515330.3883      -1738.300          30.000  
  24874481.759      -23591.385         198.849          40.000  
  20779591.432      -88425.829         218.695          50.000  
  20392615.508     -639813.314        2040.731          49.000  
 16  9 24 21 28 59.4000000  0 11G18G20G21G 2G 4G 5G24G29G30G13G15
  22969008.025     -895458.3483       2951.187          28.000  
  20006738.634     -248796.704         791.885          49.000  
  22049190.819     -862130.465        2835.292          47.000  
  24396555.335      147989.738       -2472.420          35.000  
  21856366.681      365502.195       -1251.181          48.000  
  22551843.189      606089.506       -1980.883          49.000  
  25464462.348       -2602.6193       3916.831          25.000  
  21311580.027      515678.0082      -1740.025          30.000  
  24874474.046      -23631.022         198.157          40.000  
  20779583.301      -88469.555         218.603          50.000  
  20392537.855     -640221.433        2040.600          49.000  
 16  9 24 21 28 59.6000000  0 11G18G20G21G 2G 4G 5G24G29G30G13G15
  22968895.507     -896048.6643       2951.083          28.000  
  20006708.621     -248955.066         791.938          49.000  
  22049082.873     -862697.498        2835.017          47.000  
  24396649.672      148484.440       -2472.424          35.000  
  21856414.286      365752.451       -1251.222          48.000  
  22551918.645      606485.732       -1981.160          49.000  
  25464313.498       -3385.9283       3917.240          25.000  
  21311644.908      516025.6352      -1737.358          30.000  
  24874466.578      -23670.585         199.150          38.000  
  20779575.170      -88513.252         218.496          50.000  
  20392460.237     -640629.534        2040.443          49.000  
 16  9 24 21 28 59.8000000  0 11G18G20G21G 2G 4G 5G24G29G30G13G15
  22968783.197     -896638.9963       2951.448          28.000  
  20006678.432     -249113.443         791.625          49.000  
  22048974.995     -863264.550        2835.182          47.000  
  24396744.042      148979.138       -2473.640          35.000  
  21856461.925      366002.698       -1251.521          48.000  
  22551993.925      606881.933       -1981.293          49.000  
  25464163.915       -4169.2953       3915.620          25.000  
  21311712.684      516373.2532      -1737.656          31.000  
  24874458.970      -23710.210         198.207          38.000  
  20779566.584      -88556.949         218.581          50.000  
  20392382.514     -641037.639        2040.196          49.000  
 16  9 24 21 29  0.0000000  0 11G18G20G21G 2G 4G 5G24G29G30G13G15
  22968670.294     -897229.3383       2950.925          28.000  
  20006648.417     -249271.800         791.915          49.000  
  22048867.083     -863831.602        2834.995          47.000  
  24396838.413      149473.820       -2473.831          35.000  
  21856509.634      366252.967       -1251.205          49.000  
  22552069.240      607278.140       -1980.700          49.000  
  25464016.146       -4952.6383       3917.497          25.000  
  21311776.482      516720.8692      -1738.708          31.000  
  24874451.222      -23749.807         196.247          38.000  
  20779558.173      -88600.641         218.279          50.000  
  20392304.930     -641445.720        2039.980          49.000  
 16  9 24 21 29  0.4000000  0 11G18G20G21G 2G 4G 5G24G29G30G13G15
  22968445.849     -898409.9393       2951.488          28.000  
  20006588.075     -249588.452         791.357          49.000  
  22048651.050     -864965.634        2834.763          47.000  
  24397027.050      150463.275       -2473.512          35.000  
  21856605.017      366753.593       -1251.620          48.000  
  22552219.801      608070.592       -1981.073          49.000  
  25463712.059       -6519.4083       3916.329          25.000  
  21311906.556      517416.1902      -1739.083          31.000  
  24874435.900      -23828.833         197.617          38.000  
  20779541.735      -88687.882         217.874          50.000  
  20392149.414     -642261.769        2039.901          49.000  
 16  9 24 21 29  0.6000000  0 11G18G20G21G 2G 4G 5G24G29G30G13G15
  22968333.715     -899000.2433       2950.462          28.000  
  20006558.096     -249746.722         791.151          49.000  
  22048543.208     -865532.617        2834.679          47.000  
  24397121.457      150957.999       -2473.824          35.000  
  21856652.517      367003.961       -1251.905          48.000  
  22552295.117      608466.858       -1981.677          49.000  
  25463558.952       -7302.7463       3915.330          24.000  
  21311973.007      517763.9232      -1738.555          31.000  
  24874428.328      -23868.328         196.984          38.000  
  20779533.534      -88731.436         217.559          50.000  
  20392071.866     -642669.726        2039.826          49.000  
 16  9 24 21 29  0.8000000  0 11G18G20G21G 2G 4G 5G24G29G30G13G15
  22968220.917     -899590.4743       2951.458          28.000  
  20006528.151     -249904.984         790.834          49.000  
  22048435.331     -866099.592        2835.016          47.000  
  24397215.827      151452.768       -2473.198          35.000  
  21856700.226      367254.347       -1252.217          48.000  
  22552370.292      608863.117       -1981.461          49.000  
  25463407.728       -8086.0703       3918.291          24.000  
  21312039.528      518111.6712      -1738.676          31.000  
  24874420.859      -23907.761         197.629          38.000  
  20779525.123      -88774.971         217.335          50.000  
  20391994.143     -643077.655        2039.341          49.000  
 16  9 24 21 29  1.0000000  0 11G18G20G21G 2G 4G 5G24G29G30G13G15
  22968109.026     -900180.7213       2950.999          28.000  
  20006498.032     -250063.246         791.316          49.000  
  22048327.349     -866666.573        2834.992          47.000  
  24397310.163      151947.532       -2474.472          35.000  
  21856747.900      367504.744       -1252.528          48.000  
  22552445.747      609259.377       -1981.473          49.000  
  25463256.400       -8869.3893       3916.198          24.000  
  21312105.245      518459.3972      -1740.000          31.000  
  24874413.286      -23947.219         196.883          38.000  
  20779516.957      -88818.487         217.376          50.000  
  20391916.350     -643485.580        2039.575          49.000  
 16  9 24 21 29  1.4000000  0 11G18G20G21G 2G 4G 5G24G29G30G13G15
  22967884.093     -901361.2643       2951.317          27.000  
  20006437.620     -250379.732         791.193          49.000  
  22048111.629     -867800.522        2834.639          47.000  
  24397498.940      152937.067       -2473.431          35.000  
  21856843.248      368005.601       -1252.034          48.000  
  22552596.342      610051.893       -1981.337          49.000  
  25462958.245      -10435.9483       3915.511          23.000  
  21312239.612      519154.9762      -1737.656          32.000  
  24874398.104      -24026.010         198.423          38.000  
  20779500.484      -88905.452         217.316          50.000  
  20391760.903     -644301.366        2039.524          49.000  
 16  9 24 21 29  1.6000000  0 11G18G20G21G 2G 4G 5G24G29G30G13G15
  22967771.120     -901951.5473       2951.596          27.000  
  20006407.431     -250538.007         790.966          49.000  
  22048003.822     -868367.536        2834.996          47.000  
  24397593.415      153431.807       -2472.282          34.000  
  21856890.887      368255.994       -1252.354          48.000  
  22552671.692      610448.106       -1981.363          49.000  
  25462807.964      -11219.0483       3915.511          22.000  
  21312305.050      519502.7262      -1740.600          32.000  
  24874390.566      -24065.459         197.198          36.000  
  20779491.863      -88948.953         217.026          50.000  
  20391683.250     -644709.275        2039.257          49.000  
 16  9 24 21 29  1.8000000  0 11G18G20G21G 2G 4G 5G24G29G30G13G15
  22967658.672     -902541.8363       2950.535          27.000  
  20006377.347     -250696.251         791.200          49.000  
  22047896.050     -868934.530        2834.746          47.000  
  24397687.857      153926.531       -2473.535          34.000  
  21856938.387      368506.434       -1252.090          48.000  
  22552746.973      610844.339       -1981.193          49.000  
  25462654.228      -12001.7353       3911.911          22.000  
  21312370.210      519850.5292      -1738.413          32.000  
  24874383.202      -24104.853         196.865          36.000  
  20779483.593      -88992.397         217.401          50.000  
  20391605.702     -645117.133        2039.202          49.000  
 16  9 24 21 29  2.0000000  0 11G18G20G21G 2G 4G 5G24G29G30G13G15
  22967546.048     -903132.1313       2951.711          27.000  
  20006347.159     -250854.498         791.227          49.000  
  22047788.033     -869501.535        2835.069          47.000  
  24397782.437      154421.245       -2475.052          34.000  
  21856986.061      368756.873       -1252.118          48.000  
  22552822.393      611240.558       -1981.276          48.000  
  25462506.739      -12784.2913       3923.736          21.000  
  21312435.160      520198.3502      -1738.099          32.000  
  24874375.664      -24144.219         199.000          36.000  
  20779475.426      -89035.846         217.374          50.000  
  20391527.944     -645524.995        2039.550          49.000  
 16  9 24 21 29  2.4000000  0 11G18G20G21G 2G 4G 5G24G29G30G13G15
  22967321.743     -904312.6743       2952.296          27.000  
  20006286.990     -251170.931         790.890          49.000  
  22047572.139     -870635.482        2834.839          47.000  
  24397970.969      155410.777       -2473.960          34.000  
  21857081.479      369257.842       -1252.394          48.000  
  22552973.024      612033.038       -1981.291          48.000  
  25462204.013      -14353.2373       3913.835          20.000  
  21312568.724      520893.9682      -1739.289          32.000  
  24874360.622      -24222.922         197.297          36.000  
  20779458.953      -89122.630         216.840          50.000  
  20391372.776     -646340.610        2039.076          49.000  
 16  9 24 21 29  2.6000000  0 11G18G20G21G 2G 4G 5G24G29G30G13G15
  22967209.503     -904902.9673       2951.253          27.000  
  20006256.906     -251329.101         791.009          49.000  
  22047464.297     -871202.438        2834.781          47.000  
  24398065.375      155905.547       -2473.393          34.000  
  21857129.293      369508.365       -1252.794          48.000  
  22553048.339      612429.300       -1981.017          48.000  
  25462051.044      -15135.9963       3913.835          20.000  
  21312635.000      521241.8372      -1738.258          32.000  
  24874352.944      -24262.216         198.242          36.000  
  20779450.472      -89165.965         216.779          50.000  
  20391295.297     -646748.362        2038.708          49.000  
 16  9 24 21 29  2.8000000  0 11G18G20G21G 2G 4G 5G24G29G30G13G15
  22967097.159     -905493.2563       2952.021          27.000  
  20006226.753     -251487.315         790.959          49.000  
  22047356.351     -871769.426        2834.746          47.000  
  24398159.746      156400.278       -2473.204          34.000  
  21857176.967      369758.870       -1252.677          48.000  
  22553123.585      612825.517       -1981.218          48.000  
  25461899.577      -15918.7623       3913.835          19.000  
  21312703.964      521589.7092      -1738.793          32.000  
  24874345.476      -24301.543         197.845          36.000  
  20779442.167      -89209.328         216.516          50.000  
  20391217.680     -647156.144        2038.760          49.000  
 16  9 24 21 29  3.0000000  0 11G18G20G21G 2G 4G 5G24G29G30G13G15
  22966984.920     -906083.5033       2951.915          27.000  
  20006196.739     -251645.487         790.843          49.000  
  22047248.473     -872336.375        2834.935          47.000  
  24398253.873      156895.029       -2474.723          34.000  
  21857224.746      370009.420       -1252.883          48.000  
  22553198.935      613221.774       -1981.037          48.000  
  25461749.017      -16701.9333       3916.143          19.000  
  21312769.472      521937.6032      -1738.876          32.000  
  24874338.007      -24340.780         196.116          36.000  
  20779434.070      -89252.629         216.352          50.000  
  20391140.131     -647563.872        2038.495          49.000  
 16  9 24 21 29  3.4000000  0 11G18G20G21G 2G 4G 5G24G29G30G13G15
  22966760.998     -907263.9803       2950.931          28.000  
  20006136.535     -251961.718         790.492          49.000  
  22047032.684     -873470.212        2834.673          47.000  
  24398442.684      157884.658       -2474.814          34.000  
  21857320.094      370510.623       -1253.124          48.000  
  22553349.181      614014.332       -1981.542          48.000  
  25461444.196      -18268.3833       3916.143          17.000  
  21312901.570      522633.5232      -1740.268          32.000  
  24874323.384      -24419.221         196.505          35.000  
  20779417.841      -89339.103         216.063          50.000  
  20390984.789     -648379.186        2038.182          49.000  
 16  9 24 21 29  3.6000000  0 11G18G20G21G 2G 4G 5G24G29G30G13G15
  22966649.108     -907854.1973       2951.235          28.000  
  20006106.346     -252119.858         790.634          49.000  
  22046924.737     -874037.155        2834.561          47.000  
  24398536.985      158379.430       -2475.078          34.000  
  21857367.559      370761.220       -1252.933          48.000  
  22553424.217      614410.579       -1981.463          48.000  
  25461293.741      -19051.1353       3907.512          17.000  
  21312967.846      522981.4612      -1739.772          32.000  
  24874315.985      -24458.421         195.233          35.000  
  20779409.500      -89382.342         216.034          50.000  
  20390907.136     -648786.853        2038.107          49.000  
 16  9 24 21 29  3.8000000  0 11G18G20G21G 2G 4G 5G24G29G30G13G15
  22966536.764     -908444.4463       2951.383          27.000  
  20006076.368     -252277.978         790.797          49.000  
  22046816.826     -874604.097        2834.855          47.000  
  24398631.217      158874.250       -2473.887          34.000  
  21857415.303      371011.843       -1252.868          48.000  
  22553499.498      614806.834       -1981.170          48.000  
  25461144.926      -19832.6323       3907.512          16.000  
  21313035.693      523329.3902      -1741.460          32.000  
  24874308.378      -24497.633         195.197          35.000  
  20779401.369      -89425.548         216.188          50.000  
  20390829.692     -649194.487        2038.520          49.000  
 16  9 24 21 29  4.0000000  0 11G18G20G21G 2G 4G 5G24G29G30G13G15
  22966424.629     -909034.6853       2951.794          27.000  
  20006046.214     -252436.084         790.469          49.000  
  22046708.844     -875171.022        2834.614          47.000  
  24398725.518      159369.027       -2473.888          34.000  
  21857463.012      371262.486       -1253.283          48.000  
  22553574.779      615203.096       -1981.180          48.000  
  25460995.029      -20614.1403       3907.512          15.000  
  21313102.283      523677.4202      -1739.858          32.000  
  24874300.944      -24536.782         193.993          34.000  
  20779393.097      -89468.730         215.608          50.000  
  20390752.248     -649602.100        2037.847          49.000  
 16  9 24 21 29  4.2000000  0 11G18G20G21G 2G 4G 5G24G29G30G13G15
  22966313.053     -909624.9243       2952.280          27.000  
  20006016.096     -252594.225         790.807          49.000  
  22046600.863     -875737.994        2834.712          47.000  
  24398819.890      159863.793       -2474.197          34.000  
  21857510.652      371513.103       -1253.048          48.000  
  22553649.885      615599.313       -1980.748          48.000  
  25460845.586      -21395.6373       3907.512          15.000  
  21313166.920      524025.3612      -1740.072          32.000  
  24874293.546      -24575.938         196.296          34.000  
  20779384.897      -89511.931         216.073          50.000  
  20390674.735     -650009.734        2038.049          49.000  
 16  9 24 21 29  4.4000000  0 12G18G20G26G21G 2G 4G 5G24G29G30G13G15
  22966200.709     -910215.2853       2951.390          27.000  
  20005986.151     -252752.341         790.272          49.000  
  25688783.855      -78659.4373      -1018.335          29.000  
  22046492.951     -876304.945        2834.782          47.000  
  24398914.295      160358.551       -2474.461          34.000  
  21857558.256      371763.743       -1253.319          48.000  
  22553725.130      615995.543       -1981.349          48.000  
  25460692.896      -22177.1353       3907.512          14.000  
  21313232.672      524373.3182      -1741.323          32.000  
  24874286.217      -24615.123         196.521          34.000  
  20779376.486      -89555.098         215.664          50.000  
  20390597.256     -650417.334        2037.820          49.000  
 16  9 24 21 29  4.6000000  0 12G18G20G26G21G 2G 4G 5G24G29G30G13G15
  22966089.097     -910805.5423       2951.111          27.000  
  20005955.997     -252910.437         790.952          49.000  
  25688821.792      -78455.8753      -1017.345          29.000  
  22046384.934     -876871.888        2835.392          47.000  
  24399008.596      160853.331       -2473.711          34.000  
  21857605.756      372014.399       -1252.984          48.000  
  22553800.446      616391.779       -1980.743          48.000  
  25460543.383      -22958.6323       3907.512          14.000  
  21313300.344      524721.3472      -1739.811          32.000  
  24874278.853      -24654.227         198.778          34.000  
  20779368.389      -89598.242         216.214          50.000  
  20390519.673     -650824.915        2038.141          49.000  
 16  9 24 21 29  4.8000000  0 12G18G20G26G21G 2G 4G 5G24G29G30G13G15
  22965977.067     -911395.7913       2951.507          28.000  
  20005925.914     -253068.559         790.438          49.000  
  25688860.671      -78252.3233      -1017.665          29.000  
  22046277.162     -877438.853        2834.739          47.000  
  24399102.898      161348.051       -2473.392          34.000  
  21857653.570      372265.052       -1253.058          48.000  
  22553875.762      616787.990       -1980.944          48.000  
  25460394.847      -23740.1393       3907.512          13.000  
  21313367.458      525069.3422      -1739.668          32.000  
  24874271.594      -24693.398         193.864          33.000  
  20779360.258      -89641.386         215.751          50.000  
  20390442.020     -651232.491        2037.967          49.000  
 16  9 24 21 29  5.0000000  0 12G18G20G26G21G 2G 4G 5G24G30G13G29G15
  22965864.513     -911986.1143       2951.701          28.000  
  20005895.934     -253226.665         790.874          49.000  
  25688899.376      -78048.8183      -1017.856          29.000  
  22046169.215     -878005.823        2835.112          47.000  
  24399197.025      161842.831       -2472.602          34.000  
  21857701.244      372515.713       -1253.209          48.000  
  22553951.042      617184.204       -1980.962          48.000  
  25460245.823      -24521.8373       3920.699          13.000  
  24874264.021      -24732.539         195.666          33.000  
  20779352.300      -89684.511         215.640          50.000  
  21313433.246      525417.3292      -1739.727          32.000  
  20390364.506     -651640.053        2037.998          49.000  
 16  9 24 21 29  5.4000000  0 12G18G20G26G21G 2G 4G 5G24G30G13G29G15
  22965640.139     -913166.7033       2951.872          28.000  
  20005835.905     -253542.870         790.205          49.000  
  25688977.797      -77641.7223      -1017.712          29.000  
  22045953.426     -879139.747        2834.248          47.000  
  24399385.731      162832.303       -2473.407          34.000  
  21857796.802      373017.077       -1253.898          48.000  
  22554101.602      617976.622       -1981.231          48.000  
  25459943.515      -26090.1063       3920.699          11.000  
  24874249.432      -24810.7653        194.824          32.000  
  20779335.653      -89770.703         214.793          50.000  
  21313565.902      526113.3902      -1742.185          32.000  
  20390209.653     -652455.124        2037.344          49.000  
 16  9 24 21 29  5.6000000  0 12G18G20G26G21G 2G 4G 5G24G30G13G29G15
  22965528.038     -913756.9323       2951.286          28.000  
  20005805.856     -253700.895         789.860          49.000  
  25689015.280      -77438.1123      -1017.714          29.000  
  22045845.618     -879706.653        2834.660          47.000  
  24399480.067      163327.123       -2473.746          34.000  
  21857844.511      373267.846       -1254.007          48.000  
  22554176.917      618372.881       -1981.536          48.000  
  25459793.722      -26874.2463       3920.699          10.000  
  24874241.999      -24849.7653        196.214          32.000  
  20779327.521      -89813.709         214.998          50.000  
  21313631.899      526461.5182      -1740.127          32.000  
  20390132.139     -652862.575        2037.069          49.000  
 16  9 24 21 29  5.8000000  0 12G18G20G26G21G 2G 4G 5G24G30G13G29G15
  22965416.183     -914347.1613       2951.310          28.000  
  20005775.598     -253858.918         790.204          49.000  
  25689053.672      -77234.4513      -1017.787          29.000  
  22045737.777     -880273.561        2834.536          47.000  
  24399574.369      163821.923       -2472.898          34.000  
  21857892.290      373518.620       -1253.952          48.000  
  22554252.268      618769.142       -1981.185          48.000  
  25459644.070      -27658.3853       3920.699          10.000  
  24874234.531      -24888.7742        195.794          31.000  
  20779319.285      -89856.705         214.909          50.000  
  21313698.071      526809.6202      -1740.125          33.000  
  20390054.626     -653270.014        2037.037          49.000  
 16  9 24 21 29  6.0000000  0 12G18G20G26G21G 2G 4G 5G24G30G13G29G15
  22965304.153     -914937.4103       2951.192          28.000  
  20005745.375     -254016.943         790.123          49.000  
  25689094.156      -77030.8313      -1017.989          29.000  
  22045629.830     -880840.477        2834.582          47.000  
  24399668.600      164316.728       -2473.527          34.000  
  21857939.999      373769.398       -1253.736          48.000  
  22554327.409      619165.392       -1980.968          48.000  
  25459494.173      -28442.5243       3920.699           9.000  
  24874227.097      -24927.7603        203.207          31.000  
  20779311.189      -89899.691         214.757          50.000  
  21313764.207      527157.7472      -1740.172          33.000  
  20389977.147     -653677.446        2036.838          49.000  
 16  9 24 21 29  6.4000000  0 11G18G20G26G21G 2G 4G 5G24G13G29G15
  22965079.115     -916117.8933       2950.448          28.000  
  20005685.555     -254332.935         789.594          49.000  
  25689170.100      -76623.5263      -1018.728          29.000  
  22045414.145     -881974.263        2834.352          47.000  
  24399857.411      165306.336       -2474.908          33.000  
  21858035.312      374271.035       -1254.253          48.000  
  22554478.179      619957.910       -1981.792          48.000  
  25459192.738      -30010.7933       3920.699           9.000  
  20779294.925      -89985.545         214.346          50.000  
  21313896.655      527854.079       -1741.091          33.000  
  20389822.049     -654492.203        2036.400          49.000  
 16  9 24 21 29  6.6000000  0 11G18G20G26G21G 2G 4G 5G24G13G29G15
  22964966.317     -916708.0963       2951.298          28.000  
  20005655.401     -254490.918         790.108          50.000  
  25689209.363      -76419.8663      -1019.106          29.000  
  22045306.128     -882541.163        2834.840          47.000  
  24399951.782      165801.158       -2473.438          33.000  
  21858083.056      374521.863       -1254.214          48.000  
  22554553.494      620354.163       -1980.780          48.000  
  25459041.514      -30794.9323       3920.699          10.000  
  20779286.828      -90028.460         214.788          50.000  
  21313962.896      528202.207       -1742.196          33.000  
  20389744.605     -654899.550        2036.927          49.000  
 16  9 24 21 29  6.8000000  0 11G18G20G26G21G 2G 4G 5G24G13G29G15
  22964854.287     -917298.3603       2950.491          28.000  
  20005625.457     -254648.897         789.754          50.000  
  25689247.928      -76216.2043      -1018.912          29.000  
  22045198.007     -883108.057        2834.087          47.000  
  24400046.049      166295.974       -2473.402          33.000  
  21858130.905      374772.711       -1254.594          48.000  
  22554628.950      620750.415       -1981.456          47.000  
  25458891.513      -31579.0713       3920.699          10.000  
  20779278.767      -90071.346         214.189          50.000  
  21314029.277      528550.419       -1739.860          33.000  
  20389667.057     -655306.883        2036.573          49.000  
 16  9 24 21 29  7.0000000  0 11G18G20G26G21G 2G 4G 5G24G13G29G15
  22964741.908     -917888.5353       2951.119          28.000  
  20005595.478     -254806.845         790.020          50.000  
  25689285.516      -76012.4583      -1017.962          30.000  
  22045090.165     -883674.930        2834.432          47.000  
  24400140.385      166790.829       -2474.001          33.000  
  21858178.579      375023.600       -1254.344          48.000  
  22554704.439      621146.700       -1981.093          47.000  
  25458741.441      -32363.2113       3914.257          11.000  
  20779270.565      -90114.185         214.302          50.000  
  21314095.623      528898.644       -1741.041          32.000  
  20389589.369     -655714.183        2036.567          49.000  
 16  9 24 21 29  7.2000000  0 11G18G20G26G21G 2G 4G 5G24G13G29G15
  22964629.808     -918478.7803       2951.105          28.000  
  20005565.325     -254964.806         789.925          50.000  
  25689324.850      -75808.7693      -1017.371          30.000  
  22044982.254     -884241.825        2834.872          47.000  
  24400234.757      167285.575       -2473.816          33.000  
  21858226.359      375274.478       -1254.215          48.000  
  22554779.720      621542.945       -1981.452          47.000  
  25458592.312      -33146.0863       3914.257          12.000  
  20779262.225      -90157.038         214.064          50.000  
  21314162.004      529246.840       -1740.938          32.000  
  20389511.751     -656121.492        2036.728          49.000  
 16  9 24 21 29  7.4000000  0 11G18G20G26G21G 2G 4G 5G24G13G29G15
  22964517.813     -919069.0103       2951.932          27.000  
  20005535.345     -255122.757         789.405          50.000  
  25689361.600      -75605.0693      -1018.115          30.000  
  22044874.307     -884808.698        2834.426          47.000  
  24400329.267      167780.425       -2474.775          33.000  
  21858274.103      375525.376       -1254.348          48.000  
  22554855.070      621939.202       -1981.274          47.000  
  25458443.113      -33928.9383       3914.257          12.000  
  20779254.268      -90199.853         214.027          50.000  
  21314228.350      529595.074       -1742.518          32.000  
  20389434.133     -656528.763        2036.523          49.000  
 16  9 24 21 29  7.6000000  0 11G18G20G26G21G 2G 4G 5G24G13G29G15
  22964404.456     -919659.2953       2950.524          27.000  
  20005505.122     -255280.700         789.780          50.000  
  25689400.200      -75401.3683      -1017.611          30.000  
  22044766.325     -885375.593        2834.804          47.000  
  24400423.498      168275.212       -2473.766          33.000  
  21858321.881      375776.274       -1254.512          48.000  
  22554930.281      622335.452       -1980.943          47.000  
  25458293.460      -34711.7883       3926.883          12.000  
  20779246.241      -90242.663         214.145          50.000  
  21314294.626      529943.352       -1739.786          32.000  
  20389356.549     -656936.034        2036.258          49.000  
 16  9 24 21 29  7.8000000  0 11G18G20G26G21G 2G 4G 5G24G13G29G15
  22964292.043     -920249.4773       2951.698          27.000  
  20005475.213     -255438.665         789.867          50.000  
  25689439.045      -75197.6973      -1018.643          30.000  
  22044658.344     -885942.509        2834.209          47.000  
  24400517.905      168770.004       -2474.160          33.000  
  21858369.731      376027.170       -1254.763          48.000  
  22555005.597      622731.669       -1980.865          47.000  
  25458143.877      -35497.0953       3926.883          12.000  
  20779238.214      -90285.473         213.711          50.000  
  21314360.903      530291.534       -1742.227          32.000  
  20389279.071     -657343.309        2035.967          49.000  
 16  9 24 21 29  8.0000000  0 11G18G20G26G21G 2G 4G 5G24G13G29G15
  22964179.489     -920839.7713       2950.394          27.000  
  20005445.303     -255596.595         789.687          50.000  
  25689478.168      -74993.9803      -1017.438          30.000  
  22044550.327     -886509.398        2833.963          47.000  
  24400612.345      169264.848       -2474.764          33.000  
  21858417.405      376278.106       -1254.770          48.000  
  22555080.877      623127.908       -1981.164          47.000  
  25457994.678      -36281.8473       3908.990          13.000  
  20779230.082      -90328.231         213.753          50.000  
  21314427.179      530639.811       -1740.455          32.000  
  20389201.627     -657750.537        2035.833          49.000  
 16  9 24 21 29  8.2000000  0 11G18G20G26G21G 2G 4G 5G24G13G29G15
  22964067.040     -921429.9933       2949.558          27.000  
  20005415.289     -255754.474         789.477          50.000  
  25689517.222      -74790.2393      -1018.895          30.000  
  22044442.380     -887076.243        2834.133          47.000  
  24400706.960      169759.720       -2475.113          33.000  
  21858465.079      376529.084       -1254.972          48.000  
  22555156.192      623524.186       -1981.327          47.000  
  25457845.897      -37064.8203       3930.404          14.000  
  20779221.951      -90370.936         213.557          50.000  
  21314493.594      530988.166       -1738.468          32.000  
  20389123.973     -658157.689        2036.092          49.000  
 16  9 24 21 29  8.4000000  0 11G18G20G26G21G 2G 4G 5G24G13G29G15
  22963955.010     -922020.2083       2949.789          27.000  
  20005385.275     -255912.372         789.047          50.000  
  25689556.311      -74586.4583      -1018.803          30.000  
  22044334.538     -887643.106        2833.847          47.000  
  24400801.402      170254.553       -2473.407          32.000  
  21858512.753      376780.073       -1254.746          48.000  
  22555231.473      623920.438       -1981.435          47.000  
  25457695.966      -37850.8983       3930.404          14.000  
  20779214.204      -90413.641         213.625          50.000  
  21314559.941      531336.436       -1741.469          32.000  
  20389046.530     -658564.860        2035.713          49.000  
 16  9 24 21 29  8.6000000  0 11G18G20G26G21G 2G 4G 5G24G13G29G15
  22963842.456     -922610.4083       2950.540          27.000  
  20005355.121     -256070.266         789.398          50.000  
  25689595.155      -74382.7293      -1019.906          30.000  
  22044226.521     -888209.982        2834.276          47.000  
  24400895.633      170749.375       -2473.948          32.000  
  21858560.427      377031.052       -1254.995          48.000  
  22555306.753      624316.688       -1981.108          47.000  
  25457546.732      -38635.3193       3919.730          15.000  
  20779206.037      -90456.336         213.319          50.000  
  21314626.286      531684.775       -1742.197          32.000  
  20388968.947     -658972.021        2036.121          49.000  
 16  9 24 21 29  8.8000000  0 11G18G20G26G21G 2G 4G 5G24G13G29G15
  22963730.287     -923200.6383       2951.413          27.000  
  20005325.073     -256228.139         789.495          50.000  
  25689633.651      -74178.9523      -1018.531          30.000  
  22044118.540     -888776.841        2834.088          47.000  
  24400990.074      171244.154       -2475.110          32.000  
  21858608.207      377282.064       -1255.229          48.000  
  22555382.209      624712.950       -1981.120          47.000  
  25457397.673      -39419.6683       3927.422          16.000  
  20779197.941      -90498.994         213.246          50.000  
  21314692.528      532033.120       -1741.793          32.000  
  20388891.538     -659379.153        2035.473          49.000  
 16  9 24 21 29  9.0000000  0 11G18G20G26G21G 2G 4G 5G24G13G29G15
  22963617.663     -923790.8683       2951.391          27.000  
  20005295.058     -256386.043         788.967          50.000  
  25689673.577      -73975.1383      -1017.908          30.000  
  22044010.698     -889343.731        2834.432          47.000  
  24401084.480      171738.998       -2474.693          32.000  
  21858655.986      377533.058       -1254.850          48.000  
  22555457.629      625109.173       -1981.249          47.000  
  25457247.775      -40205.0803       3924.457          16.000  
  20779189.495      -90541.666         213.075          50.000  
  21314758.734      532381.422       -1742.021          32.000  
  20388814.059     -659786.291        2035.655          49.000  
 16  9 24 21 29  9.2000000  0 11G18G20G26G21G 2G 4G 5G24G13G29G15
  22963505.109     -924381.1273       2949.625          27.000  
  20005265.044     -256543.903         788.950          50.000  
  25689712.631      -73771.3923      -1020.121          30.000  
  22043902.995     -889910.589        2833.590          47.000  
  24401178.851      172233.794       -2472.580          32.000  
  21858703.799      377784.097       -1255.413          48.000  
  22555532.944      625505.413       -1981.868          47.000  
  25457097.215      -40989.8733       3921.624          17.000  
  20779181.607      -90584.299         212.644          50.000  
  21314825.220      532729.791       -1742.701          32.000  
  20388736.545     -660193.385        2035.271          49.000  
 16  9 24 21 29  9.4000000  0 11G18G20G26G21G 2G 4G 5G24G13G29G15
  22963392.905     -924971.3013       2950.889          27.000  
  20005235.065     -256701.732         789.245          50.000  
  25689752.314      -73567.6073      -1019.367          30.000  
  22043795.014     -890477.426        2834.354          47.000  
  24401273.327      172728.671       -2475.232          32.000  
  21858751.614      378035.162       -1255.296          48.000  
  22555608.295      625901.687       -1980.882          47.000  
  25456948.400      -41773.9573       3917.294          18.000  
  20779173.581      -90626.876         212.711          50.000  
  21314891.462      533078.186       -1741.631          32.000  
  20388659.102     -660600.437        2035.341          49.000  
 16  9 24 21 29  9.6000000  0 11G18G20G26G21G 2G 4G 5G24G13G29G15
  22963281.259     -925561.5123       2951.524          27.000  
  20005205.156     -256859.559         788.923          50.000  
  25689791.612      -73363.7583      -1018.338          30.000  
  22043686.962     -891044.260        2834.117          47.000  
  24401367.803      173223.581       -2474.951          31.000  
  21858799.427      378286.244       -1255.562          48.000  
  22555683.610      626297.948       -1981.385          47.000  
  25456799.410      -42557.4603       3920.668          18.000  
  20779165.519      -90669.443         212.589          50.000  
  21314957.598      533426.602       -1743.329          32.000  
  20388581.658     -661007.479        2035.103          49.000  
 16  9 24 21 29  9.8000000  0 11G18G20G26G21G 2G 4G 5G24G13G29G15
  22963168.496     -926151.6573       2951.159          27.000  
  20005175.003     -257017.392         788.800          50.000  
  25689831.399      -73159.9583      -1018.383          31.000  
  22043579.086     -891611.109        2833.887          47.000  
  24401462.349      173718.426       -2473.321          31.000  
  21858847.207      378537.329       -1255.664          48.000  
  22555759.100      626694.212       -1981.493          47.000  
  25456650.596      -43341.5923       3920.668          18.000  
  20779157.284      -90711.995         212.715          50.000  
  21315023.805      533775.018       -1743.380          32.000  
  20388504.180     -661414.516        2034.725          49.000  
 16  9 24 21 29 10.0000000  0 11G18G20G26G21G 2G 4G 5G24G13G29G15
  22963056.361     -926741.9163       2951.136          27.000  
  20005144.849     -257175.186         789.003          50.000  
  25689869.440      -72956.1283      -1019.272          31.000  
  22043471.034     -892177.925        2834.452          47.000  
  24401556.894      174213.254       -2474.601          31.000  
  21858894.916      378788.454       -1255.715          48.000  
  22555834.485      627090.483       -1981.646          47.000  
  25456501.431      -44125.3503       3918.509          18.000  
  20779149.256      -90754.505         212.236          51.000  
  21315090.081      534123.418       -1743.667          32.000  
  20388426.666     -661821.497        2035.143          49.000  
 16  9 24 21 29 10.2000000  0 11G18G20G26G21G 2G 4G 5G24G13G29G15
  22962943.807     -927332.1213       2950.362          27.000  
  20005114.834     -257332.985         788.914          50.000  
  25689907.901      -72752.2713      -1018.395          31.000  
  22043363.052     -892744.760        2833.965          47.000  
  24401651.265      174708.086       -2472.178          31.000  
  21858942.590      379039.583       -1255.369          48.000  
  22555909.626      627486.743       -1981.067          47.000  
  25456352.023      -44909.2243       3919.863          19.000  
  20779141.299      -90797.010         212.419          51.000  
  21315156.287      534471.916       -1740.546          32.000  
  20388349.152     -662228.481        2034.502          49.000  
 16  9 24 21 29 10.4000000  0 11G18G20G26G21G 2G 4G 5G24G13G29G15
  22962830.591     -927922.2563       2951.027          27.000  
  20005084.856     -257490.693         788.959          50.000  
  25689947.060      -72548.3623      -1020.095          31.000  
  22043255.176     -893311.509        2834.058          47.000  
  24401745.811      175203.044       -2472.111          30.000  
  21858990.299      379290.802       -1255.822          48.000  
  22555985.117      627883.080       -1981.816          47.000  
  25456203.138      -45693.6543       3924.702          19.000  
  20779133.447      -90839.410         212.165          51.000  
  21315222.634      534820.449       -1743.012          32.000  
  20388271.849     -662635.365        2034.558          49.000  
 16  9 24 21 29 10.6000000  0 11G18G20G26G21G 2G 4G 5G24G13G29G15
  22962718.526     -928512.3923       2950.548          27.000  
  20005054.737     -257648.406         788.781          50.000  
  25689986.393      -72344.4183      -1019.148          31.000  
  22043147.229     -893878.253        2833.800          47.000  
  24401840.356      175698.027       -2470.573          30.000  
  21859038.043      379542.040       -1255.919          48.000  
  22556060.571      628279.425       -1981.581          47.000  
  25456053.625      -46478.1323       3916.265          20.000  
  20779125.490      -90881.795         211.703          51.000  
  21315288.875      535168.973       -1742.320          32.000  
  20388194.335     -663042.231        2034.379          49.000  
 16  9 24 21 29 10.8000000  0 12G18G20G26G21G 2G 4G 5G24G30G13G29G15
  22962605.240     -929102.4273       2950.861          27.000  
  20005024.932     -257806.082         788.418          50.000  
  25690025.412      -72140.4563      -1019.157          31.000  
  22043039.282     -894444.981        2833.854          47.000  
  24401934.728      176192.934       -2474.701          30.000  
  21859085.788      379793.298       -1256.278          48.000  
  22556135.992      628675.775       -1981.787          47.000  
  25455905.194      -47260.8743       3909.471          20.000  
  24874021.332        -559.6253        199.892          33.000  
  20779117.394      -90924.138         211.735          51.000  
  21315354.977      535517.595       -1743.878          32.000  
  20388116.892     -663449.058        2033.994          49.000  
 16  9 24 21 29 11.0000000  0 12G18G20G26G21G 2G 4G 5G24G30G13G29G15
  22962492.965     -929692.5423       2950.137          27.000  
  20004994.848     -257963.757         788.280          50.000  
  25690064.989      -71936.4743      -1019.370          31.000  
  22042931.510     -895011.714        2833.664          47.000  
  24402029.238      176687.875       -2476.079          30.000  
  21859133.706      380044.581       -1256.480          48.000  
  22556211.482      629072.130       -1981.857          47.000  
  25455756.134      -48043.8503       3920.896          20.000  
  24874004.859        -598.0513        189.659          33.000  
  20779109.192      -90966.462         211.619          51.000  
  21315421.218      535866.201       -1742.959          32.000  
  20388039.413     -663855.866        2034.131          49.000  
 16  9 24 21 29 11.4000000  0 12G18G20G26G21G 2G 4G 5G24G30G13G29G15
  22962268.695     -930872.7623       2950.431          27.000  
  20004934.959     -258279.054         787.897          50.000  
  25690142.643      -71528.4983      -1020.122          31.000  
  22042715.651     -896145.144        2833.226          47.000  
  24402218.433      177677.839       -2476.123          29.000  
  21859229.159      380547.205       -1256.924          48.000  
  22556362.286      629864.841       -1982.257          47.000  
  25455458.887      -49611.5133       3918.185          19.000  
  24873983.360        -674.1553        190.183          34.000  
  20779093.417      -91051.028         211.162          51.000  
  21315553.840      536563.440       -1744.817          32.000  
  20387884.664     -664669.406        2033.276          49.000  
 16  9 24 21 29 11.6000000  0 12G18G20G26G21G 2G 4G 5G24G30G13G29G15
  22962156.176     -931462.8463       2951.172          27.000  
  20004904.875     -258436.658         787.772          50.000  
  25690182.848      -71324.3113      -1020.190          31.000  
  22042607.739     -896711.825        2833.463          47.000  
  24402312.909      178172.826       -2474.569          29.000  
  21859276.833      380798.562       -1256.952          48.000  
  22556437.741      630261.245       -1981.810          47.000  
  25455310.002      -50394.9473       3916.082          19.000  
  24873971.389        -712.3383        192.077          34.000  
  20779085.425      -91093.252         210.868          51.000  
  21315620.011      536912.158       -1745.081          32.000  
  20387807.325     -665076.120        2033.193          49.000  
 16  9 24 21 29 11.8000000  0 12G18G20G26G21G 2G 4G 5G24G30G13G29G15
  22962044.146     -932052.8743       2950.332          27.000  
  20004874.966     -258594.281         788.034          50.000  
  25690223.089      -71120.3032      -1019.234          31.000  
  22042499.757     -897278.533        2833.598          47.000  
  24402407.350      178667.761       -2478.327          29.000  
  21859324.822      381049.921       -1256.891          48.000  
  22556513.301      630657.595       -1982.280          47.000  
  25455161.467      -51178.1613       3916.408          19.000  
  24873965.771        -750.5723        191.947          34.000  
  20779077.364      -91135.485         210.773          51.000  
  21315686.427      537260.827       -1745.113          32.000  
  20387729.916     -665482.833        2033.512          49.000  
 16  9 24 21 29 12.0000000  0 12G18G20G26G21G 2G 4G 5G24G30G13G29G15
  22961931.837     -932642.9863       2949.840          26.000  
  20004844.847     -258751.862         787.972          50.000  
  25690260.781      -70916.2282      -1017.997          31.000  
  22042391.810     -897845.214        2833.776          47.000  
  24402501.930      179162.764       -2475.613          28.000  
  21859372.461      381301.303       -1256.610          48.000  
  22556588.756      631053.997       -1981.591          47.000  
  25455012.477      -51961.6333       3929.485          19.000  
  24873960.710        -788.8453        191.833          35.000  
  20779069.232      -91177.661         211.171          51.000  
  21315752.773      537609.550       -1742.110          32.000  
  20387652.542     -665889.503        2033.727          49.000  
 16  9 24 21 29 12.4000000  0 12G18G20G26G21G 2G 4G 5G24G30G13G29G15
  22961706.206     -933823.0953       2950.756          27.000  
  20004784.958     -259067.014         787.370          50.000  
  25690338.260      -70508.0752      -1018.238          31.000  
  22042176.126     -898978.566        2832.904          46.000  
  24402690.951      180152.823       -2474.128          28.000  
  21859468.088      381804.135       -1257.174          48.000  
  22556739.456      631846.759       -1982.394          47.000  
  25454714.985      -53529.8993       3923.517          19.000  
  24873948.495        -865.4813        191.283          37.000  
  20779053.597      -91261.960         210.356          51.000  
  21315885.429      538306.991       -1744.881          32.000  
  20387497.724     -666702.790        2032.819          49.000  
 16  9 24 21 29 12.6000000  0 12G18G20G26G21G 2G 4G 5G24G30G13G29G15
  22961593.512     -934413.1773       2950.203          26.000  
  20004755.013     -259224.551         787.463          50.000  
  25690378.152      -70303.9902      -1019.673          31.000  
  22042068.144     -899545.213        2833.456          46.000  
  24402785.357      180647.784       -2474.540          28.000  
  21859515.937      382055.594       -1257.613          48.000  
  22556814.771      632243.159       -1981.947          47.000  
  25454566.065      -54314.5563       3923.517          19.000  
  24873940.817        -903.7502        191.799          37.000  
  20779045.709      -91304.055         210.519          51.000  
  21315951.566      538655.803       -1744.434          32.000  
  20387420.280     -667109.380        2033.060          49.000  
 16  9 24 21 29 12.8000000  0 12G18G20G26G21G 2G 4G 5G24G30G13G29G15
  22961481.202     -935003.2153       2949.885          26.000  
  20004725.069     -259382.065         787.341          50.000  
  25690418.741      -70099.8732      -1020.732          31.000  
  22041960.232     -900111.843        2833.234          46.000  
  24402879.937      181142.837       -2474.572          28.000  
  21859563.820      382307.075       -1257.284          48.000  
  22556890.191      632639.570       -1981.996          47.000  
  25454416.691      -55099.6043       3927.213          19.000  
  24873934.675        -941.9662        192.403          37.000  
  20779037.578      -91346.130         210.328          51.000  
  21316017.737      539004.600       -1743.218          32.000  
  20387342.870     -667515.945        2032.692          49.000  
 16  9 24 21 29 13.0000000  0 12G18G20G26G21G 2G 4G 5G24G30G13G29G15
  22961368.894     -935593.2073       2951.254          27.000  
  20004695.020     -259539.622         787.938          50.000  
  25690458.389      -69895.7862      -1020.311          31.000  
  22041852.530     -900678.523        2833.190          46.000  
  24402974.658      181637.849       -2476.594          27.000  
  21859611.565      382558.536       -1257.176          48.000  
  22556965.647      633035.947       -1981.732          47.000  
  25454267.737      -55884.3583       3914.674          19.000  
  24873927.695        -980.1732        191.941          37.000  
  20779029.830      -91388.211         210.466          51.000  
  21316083.944      539353.338       -1744.763          32.000  
  20387265.637     -667922.534        2033.105          49.000  
 16  9 24 21 29 13.4000000  0 12G18G20G26G21G 2G 4G 5G24G30G13G29G15
  22961144.379     -936773.3813       2949.156          26.000  
  20004635.340     -259854.641         786.935          50.000  
  25690535.484      -69487.5182      -1022.104          31.000  
  22041636.531     -901811.815        2832.925          46.000  
  24403163.783      182627.8673      -2476.343          27.000  
  21859707.192      383061.544       -1258.049          47.000  
  22557116.766      633828.724       -1982.736          47.000  
  25453969.617      -57450.8603       3918.925          19.000  
  24873915.027       -1056.5022        190.260          37.000  
  20779014.160      -91472.262         209.640          51.000  
  21316216.461      540050.989       -1744.491          32.000  
  20387111.132     -668735.587        2032.226          49.000  
 16  9 24 21 29 13.6000000  0 12G18G20G26G21G 2G 4G 5G24G30G13G29G15
  22961031.930     -937363.3673       2950.042          26.000  
  20004605.291     -260012.113         787.445          52.000  
  25690575.933      -69283.3882      -1019.970          32.000  
  22041528.514     -902378.432        2833.282          48.000  
  24403258.573      183123.0743      -2474.839          27.000  
  21859754.901      383313.106       -1257.435          50.000  
  22557192.255      634225.161       -1981.972          49.000  
  25453820.837      -58233.3573       3918.696          20.000  
  24873910.804       -1094.6912        190.131          40.000  
  20779005.889      -91514.238         209.986          53.000  
  21316282.667      540399.859       -1743.643          33.000  
  20387033.723     -669142.058        2032.659          50.000  
 16  9 24 21 29 13.8000000  0 12G18G20G26G21G 2G 4G 5G24G30G13G29G15
  22960919.306     -937953.3943       2951.269          26.000  
  20004575.242     -260169.574         787.278          52.000  
  25690614.847      -69079.1932      -1023.958          32.000  
  22041420.567     -902945.052        2832.808          48.000  
  24403353.188      183618.0343      -2475.431          27.000  
  21859802.749      383564.672       -1257.891          49.000  
  22557267.850      634621.577       -1982.472          49.000  
  25453704.653      -59017.0843       3921.522          20.000  
  24873905.254       -1132.8262        189.115          41.000  
  20778997.792      -91556.175         209.638          53.000  
  21316349.083      540748.684       -1744.501          33.000  
  20386956.174     -669548.509        2031.977          51.000  
 16  9 24 21 29 14.0000000  0 12G18G20G26G21G 2G 4G 5G24G30G13G29G15
  22960806.963     -938543.3683       2950.259          26.000  
  20004545.263     -260327.004         786.773          51.000  
  25690654.879      -68874.9972      -1020.569          31.000  
  22041312.691     -903511.630        2833.111          48.000  
  24403448.502      184113.2363      -2475.060          26.000  
  21859850.459      383816.285       -1258.097          49.000  
  22557343.340      635018.025       -1982.450          49.000  
  25453558.317      -59800.6773       3901.472          19.000  
  24873899.636       -1170.8592        190.095          40.000  
  20778990.010      -91598.084         209.215          52.000  
  21316415.290      541097.660       -1745.308          33.000  
  20386878.871     -669954.916        2031.740          50.000  
 16  9 24 21 29 14.2000000  0 12G18G20G26G21G 2G 4G 5G24G30G13G29G15
  22960694.862     -939133.3573       2949.305          26.000  
  20004515.284     -260484.389         786.855          51.000  
  25690692.397      -68670.7132      -1016.664          31.000  
  22041204.953     -904078.190        2832.795          48.000  
  24403545.560      184608.2923      -2475.441          26.000  
  21859898.273      384067.939       -1258.369          49.000  
  22557418.725      635414.496       -1982.279          49.000  
  25453413.236      -60583.2573       3921.300          20.000  
  24873892.307       -1208.9042        189.950          40.000  
  20778982.088      -91639.931         209.011          52.000  
  21316481.531      541446.591       -1746.809          33.000  
  20386801.427     -670361.281        2031.554          50.000  
 16  9 24 21 29 14.4000000  0 12G18G20G26G21G 2G 4G 5G24G30G13G29G15
  22960583.042     -939723.3363       2949.239          27.000  
  20004485.340     -260641.780         787.154          51.000  
  25690731.032      -68466.4742      -1020.405          31.000  
  22041097.007     -904644.749        2832.743          48.000  
  24403642.130      185103.3933      -2475.536          26.000  
  21859946.192      384319.600       -1258.215          49.000  
  22557494.285      635810.958       -1982.037          49.000  
  25453259.954      -61368.5573       3917.686          20.000  
  24873887.352       -1246.9362        190.927          40.000  
  20778974.236      -91681.768         208.802          52.000  
  21316547.633      541795.569       -1747.179          33.000  
  20386724.053     -670767.627        2031.453          50.000  
 16  9 24 21 29 14.6000000  0 12G18G20G26G21G 2G 4G 5G24G30G13G29G15
  22960470.628     -940313.3093       2949.355          27.000  
  20004455.465     -260799.172         786.722          51.000  
  25690770.784      -68262.2532      -1021.120          31.000  
  22040989.164     -905211.321        2832.732          48.000  
  24403737.932      185598.4553      -2475.442          26.000  
  21859994.075      384571.258       -1258.290          49.000  
  22557569.600      636207.408       -1982.388          49.000  
  25453107.229      -62152.1313       3918.876          20.000  
  24873882.326       -1284.9512        189.697          40.000  
  20778966.174      -91723.601         209.000          52.000  
  21316614.013      542144.557       -1741.911          33.000  
  20386646.644     -671173.968        2031.516          50.000  
 16  9 24 21 29 14.8000000  0 12G18G20G26G21G 2G 4G 5G24G30G13G29G15
  22960357.725     -940903.2913       2949.200          26.000  
  20004425.416     -260956.547         786.982          51.000  
  25690809.105      -68057.9842      -1019.902          31.000  
  22040881.357     -905777.875        2832.746          47.000  
  24403833.908      186093.5633      -2475.848          25.000  
  21860042.028      384822.936       -1258.291          48.000  
  22557645.090      636603.874       -1982.165          48.000  
  25452964.068      -62935.7823       3916.564          20.000  
  24873876.149       -1322.9152        189.679          41.000  
  20778958.251      -91765.400         209.101          52.000  
  21316680.150      542493.5133      -1746.568          32.000  
  20386569.305     -671580.285        2031.494          50.000  
 16  9 24 21 29 15.0000000  0 12G18G20G26G21G 2G 4G 5G24G30G13G29G15
  22960245.800     -941493.2513       2950.265          26.000  
  20004395.368     -261113.917         786.693          51.000  
  25690847.007      -67853.7432      -1023.025          30.000  
  22040773.376     -906344.441        2832.802          47.000  
  24403930.444      186588.6663      -2475.698          25.000  
  21860090.017      385074.639       -1258.553          48.000  
  22557720.546      637000.315       -1982.409          48.000  
  25452817.696      -63719.3133       3920.304          20.000  
  24873869.728       -1360.8982        189.506          41.000  
  20778950.504      -91807.180         209.026          52.000  
  21316746.427      542842.5552      -1746.981          32.000  
  20386492.106     -671986.569        2031.573          50.000  
 16  9 24 21 29 15.4000000  0 12G18G20G26G21G 2G 4G 5G24G30G13G29G15
  22960021.530     -942673.1063       2949.083          26.000  
  20004335.583     -261428.526         786.247          51.000  
  25690923.090      -67445.0872      -1025.254          30.000  
  22040557.482     -907477.455        2832.289          47.000  
  24404122.012      187578.9903      -2475.594          25.000  
  21860185.644      385578.177       -1259.289          48.000  
  22557871.665      637793.331       -1982.818          48.000  
  25452515.075      -65286.9223       3918.774          21.000  
  24873856.675       -1436.7172        188.564          41.000  
  20778934.660      -91890.578         208.434          52.000  
  21316878.664      543540.7002      -1744.844          32.000  
  20386337.671     -672799.007        2030.816          50.000  
 16  9 24 21 29 15.6000000  0 12G18G20G26G21G 2G 4G 5G24G30G13G29G15
  22959910.512     -943263.0183       2949.581          27.000  
  20004305.359     -261585.801         786.284          51.000  
  25690963.400      -67240.7522      -1023.275          30.000  
  22040449.674     -908043.939        2832.163          47.000  
  24404218.267      188074.1173      -2475.928          25.000  
  21860233.667      385829.989       -1259.388          48.000  
  22557947.189      638189.848       -1982.877          48.000  
  25452361.373      -66070.6153       3918.275          21.000  
  24873851.057       -1474.5332        189.978          42.000  
  20778926.493      -91932.234         207.914          52.000  
  21316945.010      543889.8082      -1747.104          32.000  
  20386260.437     -673205.181        2030.201          50.000  
 16  9 24 21 29 15.8000000  0 12G18G20G26G21G 2G 4G 5G24G30G13G29G15
  22959798.691     -943852.9343       2949.139          26.000  
  20004275.380     -261743.068         786.318          51.000  
  25691002.349      -67036.4042      -1022.989          30.000  
  22040341.797     -908610.434        2832.408          47.000  
  24404313.441      188569.3113      -2476.407          25.000  
  21860281.307      386081.807       -1259.124          48.000  
  22558022.539      638586.355       -1982.514          48.000  
  25452211.476      -66854.3823       3920.704          22.000  
  24873843.972       -1512.3782        189.886          42.000  
  20778918.640      -91973.871         208.068          52.000  
  21317011.286      544238.9442      -1745.312          32.000  
  20386182.958     -673611.332        2030.477          50.000  
 16  9 24 21 29 16.0000000  0 12G18G20G26G21G 2G 4G 5G24G30G13G29G15
  22959685.789     -944442.8413       2949.404          27.000  
  20004245.576     -261900.342         786.373          51.000  
  25691040.531      -66832.0042      -1021.013          30.000  
  22040233.956     -909176.937        2832.255          47.000  
  24404408.999      189064.4523      -2475.337          25.000  
  21860329.435      386333.631       -1258.779          48.000  
  22558097.820      638982.860       -1982.402          48.000  
  25452061.230      -67638.0043       3924.583          22.000  
  24873837.586       -1550.2112        189.482          42.000  
  20778910.928      -92015.499         208.013          52.000  
  21317077.632      544588.0862      -1744.771          32.000  
  20386105.619     -674017.488        2030.457          50.000  
 16  9 24 21 29 16.2000000  0 12G18G20G26G21G 2G 4G 5G24G30G13G29G15
  22959573.374     -945032.7733       2949.290          27.000  
  20004215.561     -262057.606         786.286          51.000  
  25691080.178      -66627.6442      -1020.747          30.000  
  22040126.078     -909743.433        2831.962          47.000  
  24404504.347      189559.6273      -2476.619          25.000  
  21860377.353      386585.467       -1259.297          48.000  
  22558173.519      639379.352       -1983.297          48.000  
  25451908.227      -68422.6993       3923.849          23.000  
  24873831.723       -1588.0242        189.559          42.000  
  20778903.285      -92057.098         207.928          52.000  
  21317143.839      544937.1742      -1746.313          32.000  
  20386028.420     -674423.609        2030.822          50.000  
 16  9 24 21 29 16.4000000  0 12G18G20G26G21G 2G 4G 5G24G30G13G29G15
  22959460.891     -945622.6483       2950.027          26.000  
  20004185.653     -262214.854         786.088          50.000  
  25691117.453      -66423.2372      -1019.549          29.000  
  22040018.202     -910309.917        2832.199          46.000  
  24404599.626      190054.7843      -2475.928          25.000  
  21860425.133      386837.312       -1259.843          47.000  
  22558249.080      639775.851       -1982.577          48.000  
  25451758.749      -69207.1723       3915.009          22.000  
  24873825.511       -1625.8342        189.641          42.000  
  20778895.433      -92098.678         207.711          52.000  
  21317210.080      545286.3252      -1746.908          31.000  
  20385951.151     -674829.725        2030.245          49.000  
 16  9 24 21 29 16.6000000  0 12G18G20G26G21G 2G 4G 5G24G30G13G29G15
  22959348.861     -946212.5883       2949.144          26.000  
  20004155.952     -262372.069         785.716          50.000  
  25691157.169      -66218.7842      -1020.055          29.000  
  22039910.499     -910876.372        2832.080          46.000  
  24404694.102      190549.9723      -2477.799          25.000  
  21860472.946      387089.226       -1260.016          47.000  
  22558324.499      640172.386       -1982.937          48.000  
  25451608.119      -69990.8063       3920.504          22.000  
  24873818.566       -1663.5772        189.802          42.000  
  20778887.441      -92140.205         207.180          52.000  
  21317276.426      545635.5332      -1747.789          31.000  
  20385873.881     -675235.766        2029.854          49.000  
 16  9 24 21 29 16.8000000  0 12G18G20G26G21G 2G 4G 5G24G30G13G29G15
  22959237.249     -946802.4163       2949.353          26.000  
  20004126.182     -262529.210         785.935          50.000  
  25691196.223      -66014.3163      -1022.874          29.000  
  22039802.762     -911442.770        2831.928          46.000  
  24404789.136      191045.3143      -2478.069          25.000  
  21860520.900      387341.195       -1259.917          47.000  
  22558400.094      640568.984       -1982.441          48.000  
  25451464.643      -70775.2363       3915.909          23.000  
  24873811.551       -1701.2522        188.281          42.000  
  20778879.588      -92181.656         207.388          52.000  
  21317342.981      545984.8242      -1744.797          31.000  
  20385796.716     -675641.754        2029.956          49.000  
 16  9 24 21 29 17.0000000  0 11G18G20G26G21G 2G 4G 5G24G30G13G15
  22959124.766     -947392.2443       2947.459          26.000  
  20004096.273     -262686.327         785.592          50.000  
  25691234.509      -65809.8103      -1022.454          29.000  
  22039695.060     -912009.138        2831.957          46.000  
  24404884.659      191540.5823      -2475.000          25.000  
  21860568.749      387593.212       -1259.738          47.000  
  22558475.794      640965.585       -1983.120          48.000  
  25451311.361      -71558.9723       3921.788          23.000  
  24873804.223       -1738.8862        189.014          42.000  
  20778871.981      -92223.055         207.143          52.000  
  20385719.552     -676047.681        2029.771          49.000  
 16  9 24 21 29 17.2000000  0 11G18G20G26G21G 2G 4G 5G24G30G13G15
  22959012.247     -947982.0453       2948.583          26.000  
  20004066.503     -262843.440         785.167          50.000  
  25691275.064      -65605.3573      -1023.051          29.000  
  22039587.182     -912575.514        2831.741          46.000  
  24404979.414      192035.8633      -2476.833          25.000  
  21860616.667      387845.233       -1260.048          47.000  
  22558551.283      641362.188       -1983.235          48.000  
  25451162.895      -72343.2073       3918.054          23.000  
  24873797.452       -1776.5072        187.752          42.000  
  20778864.093      -92264.448         206.715          52.000  
  20385642.248     -676453.601        2029.265          49.000  
 16  9 24 21 29 17.4000000  0 11G18G20G26G21G 2G 4G 5G24G30G13G15
  22958901.299     -948571.7963       2949.281          26.000  
  20004036.560     -263000.523         785.236          50.000  
  25691314.153      -65400.7093      -1024.110          29.000  
  22039479.480     -913141.880        2831.666          46.000  
  24405075.251      192531.2013      -2475.664          25.000  
  21860664.377      388097.280       -1260.286          47.000  
  22558626.913      641758.812       -1983.019          48.000  
  25451008.461      -73127.4043       3916.059          23.000  
  24873790.857       -1814.1252        187.969          42.000  
  20778855.962      -92305.795         206.758          52.000  
  20385565.084     -676859.494        2029.396          49.000  
 16  9 24 21 29 17.6000000  0 11G18G20G26G21G 2G 4G 5G24G30G13G15
  22958789.688     -949161.5973       2949.483          26.000  
  20004006.755     -263157.580         785.306          50.000  
  25691352.718      -65196.2673      -1022.505          28.000  
  22039371.603     -913708.224        2831.206          46.000  
  24405170.878      193026.4633      -2476.008          25.000  
  21860712.191      388349.359       -1260.324          47.000  
  22558702.508      642155.444       -1982.919          48.000  
  25450863.554      -73910.9423       3919.493          23.000  
  24873783.842       -1851.6752        187.976          42.000  
  20778848.145      -92347.117         206.607          52.000  
  20385488.059     -677265.339        2029.040          49.000  
 16  9 24 21 29 17.8000000  0 11G18G20G26G21G 2G 4G 5G24G30G13G15
  22958677.308     -949751.3553       2948.202          27.000  
  20003976.845     -263314.602         785.586          50.000  
  25691391.807      -64991.5263      -1019.472          28.000  
  22039263.900     -914274.515        2831.700          46.000  
  24405265.319      193521.7943      -2474.943          25.000  
  21860760.179      388601.485       -1260.292          47.000  
  22558778.067      642552.108       -1983.038          48.000  
  25450717.287      -74695.4983       3916.729          23.000  
  24873776.687       -1889.1772        187.616          43.000  
  20778840.432      -92388.373         206.866          52.000  
  20385410.824     -677671.141        2029.306          49.000  
 16  9 24 21 29 18.0000000  0 11G18G20G26G21G 2G 4G 5G24G30G13G15
  22958565.732     -950341.1263       2949.217          27.000  
  20003946.657     -263471.646         785.501          50.000  
  25691431.105      -64787.0503      -1024.533          28.000  
  22039156.199     -914840.859        2831.885          46.000  
  24405360.179      194017.1043      -2476.394          26.000  
  21860808.447      388853.596       -1260.447          47.000  
  22558853.837      642948.735       -1982.825          48.000  
  25450566.553      -75479.4143       3921.343          23.000  
  24873769.847       -1926.6912        188.937          43.000  
  20778832.789      -92429.652         206.548          52.000  
  20385333.520     -678076.953        2029.315          49.000  
 16  9 24 21 29 18.4000000  0 11G18G20G26G21G 2G 4G 5G24G30G13G15
  22958341.950     -951520.6203       2947.948          27.000  
  20003886.802     -263785.657         784.974          50.000  
  25691509.037      -64377.8052      -1026.885          28.000  
  22038940.548     -915973.473        2831.117          46.000  
  24405549.827      195007.7423      -2476.109          26.000  
  21860904.283      389357.909       -1261.062          47.000  
  22559005.094      643742.039       -1983.377          48.000  
  25450261.173      -77047.3923       3921.924          24.000  
  24873755.817       -2001.6452        186.889          43.000  
  20778817.014      -92512.082         205.928          52.000  
  20385179.225     -678888.466        2028.469          49.000  
 16  9 24 21 29 18.6000000  0 11G18G20G26G21G 2G 4G 5G24G30G13G15
  22958230.234     -952110.3343       2948.970          27.000  
  20003856.858     -263942.616         784.922          50.000  
  25691547.952      -64173.0762      -1019.595          27.000  
  22038832.602     -916539.753        2831.529          46.000  
  24405643.920      195503.1193      -2476.802          26.000  
  21860952.167      389610.117       -1261.091          47.000  
  22559080.655      644138.721       -1983.156          48.000  
  25450114.068      -77831.9203       3920.712          24.000  
  24873748.942       -2039.0622        187.233          43.000  
  20778809.162      -92553.237         205.766          52.000  
  20385101.921     -679294.159        2028.689          49.000  
 16  9 24 21 29 18.8000000  0 11G18G20G26G21G 2G 4G 5G24G30G13G15
  22958118.204     -952700.0763       2949.299          27.000  
  20003826.983     -264099.568         784.850          50.000  
  25691586.831      -63968.4043      -1023.047          27.000  
  22038724.759     -917106.027        2831.572          46.000  
  24405738.430      195998.4863      -2476.646          27.000  
  21861000.120      389862.344       -1261.110          47.000  
  22559156.389      644535.406       -1983.285          48.000  
  25449964.590      -78616.0493       3920.549          24.000  
  24873742.032       -2076.4652        187.499          43.000  
  20778801.588      -92594.383         205.580          52.000  
  20385024.686     -679699.846        2028.199          49.000  
 16  9 24 21 29 19.0000000  0 11G18G20G26G21G 2G 4G 5G24G30G13G15
  22958006.105     -953289.8443       2947.609          27.000  
  20003797.109     -264256.537         785.013          50.000  
  25691625.781      -63763.6653      -1022.046          27.000  
  22038616.953     -917672.318        2831.574          46.000  
  24405832.453      196493.8283      -2476.639          27.000  
  21861047.865      390114.558       -1261.193          47.000  
  22559231.774      644932.050       -1983.272          48.000  
  25449813.751      -79399.5423       3920.288          25.000  
  24873735.018       -2113.8802        186.808          43.000  
  20778793.946      -92635.520         205.664          52.000  
  20384947.487     -680105.530        2028.595          49.000  
 16  9 24 21 29 19.2000000  0 11G18G20G26G21G 2G 4G 5G24G30G13G15
  22957893.970     -953879.5893       2948.651          27.000  
  20003767.374     -264413.507         784.542          50.000  
  25691664.695      -63559.0382      -1024.428          27.000  
  22038509.110     -918238.636        2831.549          46.000  
  24405928.045      196989.1563      -2476.629          27.000  
  21861095.783      390366.781       -1261.080          47.000  
  22559307.090      645328.695       -1983.519          48.000  
  25449661.341      -80183.4963       3917.387          25.000  
  24873727.968       -2151.2722        186.785          43.000  
  20778785.849      -92676.647         205.524          52.000  
  20384870.392     -680511.212        2028.118          49.000  
 16  9 24 21 29 19.4000000  0 11G18G20G26G21G 2G 4G 5G24G30G13G15
  22957781.520     -954469.3043       2949.001          27.000  
  20003737.465     -264570.445         784.232          50.000  
  25691703.469      -63354.4053      -1023.431          27.000  
  22038401.477     -918804.904        2831.356          46.000  
  24406022.555      197484.5143      -2476.825          28.000  
  21861143.666      390619.039       -1261.108          47.000  
  22559382.475      645725.365       -1983.357          48.000  
  25449513.503      -80968.1503       3921.344          25.000  
  24873720.848       -2188.6322        187.667          43.000  
  20778777.927      -92717.735         205.323          52.000  
  20384793.228     -680916.843        2027.971          49.000  
 16  9 24 21 29 19.6000000  0 11G18G20G26G21G 2G 4G 5G24G30G13G15
  22957669.875     -955059.0563       2948.835          27.000  
  20003707.695     -264727.349         784.677          50.000  
  25691742.419      -63149.6293      -1021.315          27.000  
  22038293.496     -919371.154        2831.767          46.000  
  24406116.822      197979.8903      -2476.381          28.000  
  21861191.446      390871.323       -1261.344          47.000  
  22559457.965      646122.048       -1982.772          48.000  
  25449367.654      -81751.9173       3918.709          25.000  
  24873713.624       -2225.9502        186.995          43.000  
  20778770.215      -92758.776         205.213          52.000  
  20384715.994     -681322.440        2028.073          49.000  
 16  9 24 21 29 19.8000000  0 11G18G20G26G21G 2G 4G 5G24G30G13G15
  22957557.635     -955648.7653       2948.608          27.000  
  20003677.821     -264884.257         784.631          50.000  
  25691781.333      -62945.0343      -1023.295          27.000  
  22038185.724     -919937.427        2831.178          46.000  
  24406211.647      198475.2763      -2476.603          28.000  
  21861239.399      391123.621       -1261.799          47.000  
  22559533.490      646518.724       -1983.159          48.000  
  25449214.267      -82535.5443       3920.719          25.000  
  24873706.609       -2263.2672        186.312          43.000  
  20778762.432      -92799.808         205.151          52.000  
  20384638.794     -681728.017        2028.049          49.000  
 16  9 24 21 29 20.0000000  0 11G18G20G26G21G 2G 4G 5G24G30G13G15
  22957444.907     -956238.4903       2948.495          27.000  
  20003648.086     -265041.173         784.141          50.000  
  25691820.387      -62740.2443      -1022.275          27.000  
  22038077.813     -920503.697        2831.398          46.000  
  24406305.948      198970.6443      -2476.006          28.000  
  21861287.318      391375.931       -1261.792          47.000  
  22559609.155      646915.382       -1983.493          48.000  
  25449062.276      -83321.2543       3930.747          25.000  
  24873699.456       -2300.5772        186.449          43.000  
  20778754.859      -92840.830         204.681          52.000  
  20384561.630     -682133.596        2027.742          49.000  
 16  9 24 21 29 20.2000000  0 11G18G20G26G21G 2G 4G 5G24G30G13G15
  22957331.865     -956828.2233       2948.083          27.000  
  20003618.281     -265198.047         784.428          50.000  
  25691859.441      -62535.5042      -1026.049          27.000  
  22037970.075     -921069.938        2831.328          46.000  
  24406399.831      199466.0213      -2476.336          28.000  
  21861335.202      391628.264       -1261.779          47.000  
  22559684.749      647312.068       -1982.963          48.000  
  25448914.229      -84105.4153       3916.121          25.000  
  24873692.371       -2337.8542        186.813          43.000  
  20778746.937      -92881.809         204.773          52.000  
  20384484.325     -682539.126        2027.769          49.000  
 16  9 24 21 29 20.4000000  0 11G18G20G26G21G 2G 4G 5G24G30G13G15
  22957220.323     -957417.8703       2948.103          27.000  
  20003588.337     -265354.913         784.325          50.000  
  25691898.460      -62330.7973      -1030.299          27.000  
  22037862.337     -921636.187        2831.144          46.000  
  24406493.817      199961.3973      -2477.315          29.000  
  21861383.155      391880.624       -1261.467          47.000  
  22559760.448      647708.752       -1983.333          48.000  
  25448764.715      -84889.4803       3919.691          25.000  
  24873685.600       -2375.1112        185.726          43.000  
  20778739.084      -92922.759         204.841          52.000  
  20384407.230     -682944.640        2027.324          49.000  
 16  9 24 21 29 20.6000000  0 11G18G20G26G21G 2G 4G 5G24G30G13G15
  22957108.328     -958007.6223       2948.476          27.000  
  20003558.393     -265511.762         784.256          50.000  
  25691937.444      -62125.9672      -1023.795          27.000  
  22037754.635     -922202.413        2830.760          46.000  
  24406588.224      200456.7943      -2476.961          29.000  
  21861431.214      392132.997       -1262.204          47.000  
  22559835.973      648105.447       -1983.248          48.000  
  25448614.889      -85673.6013       3920.124          25.000  
  24873678.935       -2412.3292        186.616          43.000  
  20778731.512      -92963.685         204.486          52.000  
  20384330.031     -683350.123        2027.161          49.000  
 16  9 24 21 29 20.8000000  0 11G18G20G26G21G 2G 4G 5G24G30G13G15
  22956995.879     -958597.2893       2948.165          27.000  
  20003528.483     -265668.584         783.956          50.000  
  25691976.498      -61921.1662      -1024.650          27.000  
  22037646.898     -922768.623        2831.096          46.000  
  24406682.909      200952.2093      -2476.911          29.000  
  21861479.202      392385.406       -1262.035          47.000  
  22559911.533      648502.164       -1983.528          48.000  
  25448465.759      -86457.7283       3920.526          25.000  
  24873672.060       -2449.5162        185.547          43.000  
  20778723.799      -93004.569         204.283          52.000  
  20384252.902     -683755.563        2027.114          49.000  
 16  9 24 21 29 21.0000000  0 11G18G20G26G21G 2G 4G 5G24G30G13G15
  22956883.919     -959186.9733       2948.406          27.000  
  20003498.609     -265825.395         783.631          50.000  
  25692015.866      -61716.3223      -1024.511          26.000  
  22037539.161     -923334.820        2830.980          46.000  
  24406776.862      201447.6513      -2476.924          29.000  
  21861527.016      392637.838       -1262.245          47.000  
  22559986.988      648898.871       -1983.724          48.000  
  25448316.212      -87241.8393       3920.783          25.000  
  24873665.290       -2486.6732        185.562          43.000  
  20778716.226      -93045.429         204.040          52.000  
  20384175.633     -684160.989        2026.755          49.000  
 16  9 24 21 29 21.2000000  0 11G18G20G26G21G 2G 4G 5G24G30G13G15
  22956771.854     -959776.6133       2948.111          27.000  
  20003468.944     -265982.166         784.015          50.000  
  25692054.815      -61511.4733      -1025.560          26.000  
  22037431.528     -923901.003        2830.896          46.000  
  24406871.058      201943.0953      -2476.910          29.000  
  21861574.969      392890.309       -1262.074          47.000  
  22560062.652      649295.612       -1983.264          48.000  
  25448166.593      -88025.9873       3920.969          25.000  
  24873658.449       -2523.8222        185.070          44.000  
  20778708.234      -93086.246         204.125          52.000  
  20384098.538     -684566.367        2026.837          49.000  
 16  9 24 21 29 21.4000000  0 11G18G20G26G21G 2G 4G 5G24G30G13G15
  22956659.719     -960366.2413       2947.936          27.000  
  20003439.209     -266138.911         783.885          50.000  
  25692093.450      -61306.6083      -1024.426          26.000  
  22037323.930     -924467.154        2831.108          46.000  
  24406965.917      202438.5493      -2477.570          30.000  
  21861623.062      393142.825       -1262.240          47.000  
  22560138.247      649692.365       -1983.450          48.000  
  25448016.836      -88810.0573       3921.426          26.000  
  24873651.644       -2560.8942        186.022          43.000  
  20778700.172      -93127.010         204.133          52.000  
  20384021.408     -684971.697        2026.786          49.000  
 16  9 24 21 29 21.6000000  0 11G18G20G26G21G 2G 4G 5G24G30G13G15
  22956547.724     -960955.8583       2948.763          27.000  
  20003409.440     -266295.660         783.788          50.000  
  25692132.574      -61101.8173      -1025.030          26.000  
  22037216.193     -925033.320        2830.803          46.000  
  24407060.673      202934.0043      -2477.370          30.000  
  21861671.191      393395.323       -1262.562          47.000  
  22560213.807      650089.103       -1983.766          48.000  
  25447868.928      -89594.1613       3920.740          26.000  
  24873645.014       -2597.9712        185.548          44.000  
  20778692.704      -93167.779         203.741          52.000  
  20383944.314     -685377.031        2026.516          49.000  
 16  9 24 21 29 21.8000000  0 11G18G20G26G21G 2G 4G 5G24G30G13G15
  22956435.799     -961545.5043       2948.861          27.000  
  20003379.600     -266452.390         783.429          50.000  
  25692172.151      -60896.9273      -1024.771          26.000  
  22037108.525     -925599.458        2830.663          46.000  
  24407155.846      203429.4743      -2477.588          30.000  
  21861719.249      393647.857       -1262.665          47.000  
  22560289.332      650485.863       -1983.738          48.000  
  25447721.649      -90378.2573       3919.558          26.000  
  24873637.999       -2635.0192        185.251          44.000  
  20778684.851      -93208.510         203.405          52.000  
  20383867.393     -685782.322        2026.434          49.000  
 16  9 24 21 29 22.0000000  0 11G18G20G26G21G 2G 4G 5G24G30G13G15
  22956323.595     -962135.1213       2948.184          27.000  
  20003349.726     -266609.093         783.571          50.000  
  25692210.892      -60692.0013      -1024.270          26.000  
  22037000.893     -926165.589        2830.656          46.000  
  24407250.567      203924.9453      -2478.065          30.000  
  21861767.377      393900.436       -1262.481          47.000  
  22560364.892      650882.642       -1983.401          48.000  
  25447570.600      -91162.3893       3920.001          26.000  
  24873631.089       -2672.0422        185.009          44.000  
  20778677.384      -93249.199         203.637          52.000  
  20383790.264     -686187.582        2026.387          49.000  
 16  9 24 21 29 22.2000000  0 11G18G20G26G21G 2G 4G 5G24G30G13G15
  22956211.739     -962724.6913       2948.124          27.000  
  20003319.746     -266765.782         783.419          50.000  
  25692250.469      -60487.0603      -1025.717          26.000  
  22036893.225     -926731.724        2830.408          46.000  
  24407341.762      204420.4892      -2479.325          31.000  
  21861815.400      394153.021       -1263.071          47.000  
  22560440.207      651279.406       -1983.938          48.000  
  25447419.377      -91946.4643       3920.891          26.000  
  24873624.179       -2709.0462        185.544          44.000  
  20778669.566      -93289.868         203.379          52.000  
  20383713.343     -686592.826        2026.409          49.000  
 16  9 24 21 29 22.4000000  0 11G18G20G26G21G 2G 4G 5G24G30G13G15
  22956100.092     -963314.3213       2948.403          27.000  
  20003289.837     -266922.475         783.665          50.000  
  25692289.034      -60282.0923      -1024.549          26.000  
  22036785.488     -927297.863        2830.834          46.000  
  24407437.319      204915.9502      -2476.582          31.000  
  21861863.493      394405.603       -1262.879          46.000  
  22560515.732      651676.167       -1983.790          48.000  
  25447271.329      -92730.5803       3920.370          26.000  
  24873617.269       -2746.0452        184.574          44.000  
  20778661.609      -93330.537         203.297          52.000  
  20383636.318     -686998.061        2025.892          49.000  
 16  9 24 21 29 22.6000000  0 11G18G20G26G21G 2G 4G 5G24G30G13G15
  22955988.726     -963903.9673       2948.154          27.000  
  20003260.102     -267079.148         783.311          50.000  
  25692328.961      -60077.1533      -1024.008          26.000  
  22036677.856     -927863.985        2830.368          46.000  
  24407531.167      205411.4762      -2476.604          31.000  
  21861911.621      394658.207       -1263.714          46.000  
  22560591.222      652072.934       -1983.801          48.000  
  25447124.992      -93514.7023       3919.448          26.000  
  24873610.254       -2783.0082        184.471          44.000  
  20778654.245      -93371.168         202.915          52.000  
  20383559.259     -687403.267        2025.736          49.000  
 16  9 24 21 29 22.8000000  0 11G18G20G26G21G 2G 4G 5G24G30G13G15
  22955877.254     -964493.5453       2947.841          28.000  
  20003230.227     -267235.812         783.042          50.000  
  25692367.491      -59872.1893      -1025.105          26.000  
  22036570.223     -928430.087        2830.300          46.000  
  24407627.458      205906.9302      -2478.096          31.000  
  21861959.749      394910.854       -1263.563          46.000  
  22560666.886      652469.708       -1984.170          48.000  
  25446978.131      -94298.8633       3920.381          26.000  
  24873603.554       -2819.9292        184.529          44.000  
  20778646.567      -93411.760         202.646          52.000  
  20383482.129     -687808.434        2025.476          49.000  
 16  9 24 21 29 23.0000000  0 11G18G20G26G21G 2G 4G 5G24G30G13G15
  22955764.770     -965083.1273       2947.546          28.000  
  20003200.318     -267392.439         783.190          50.000  
  25692406.440      -59667.1903      -1024.227          26.000  
  22036462.450     -928996.189        2830.992          46.000  
  24407723.678      206402.4792      -2476.336          31.000  
  21862007.842      395163.513       -1263.240          46.000  
  22560742.481      652866.508       -1983.624          48.000  
  25446829.490      -95082.9743       3920.259          26.000  
  24873596.748       -2856.8542        184.953          44.000  
  20778638.889      -93452.329         202.867          52.000  
  20383404.929     -688213.571        2026.039          49.000  
 16  9 24 21 29 23.2000000  0 11G18G20G26G21G 2G 4G 5G24G30G13G15
  22955652.635     -965672.7263       2948.045          28.000  
  20003170.374     -267549.079         783.126          50.000  
  25692446.541      -59462.2333      -1024.823          26.000  
  22036354.504     -929562.296        2830.432          46.000  
  24407821.016      206897.9932      -2477.539          31.000  
  21862055.761      395416.183       -1263.428          46.000  
  22560818.215      653263.270       -1984.018          48.000  
  25446678.058      -95867.1223       3920.270          26.000  
  24873589.804       -2893.7562        184.972          44.000  
  20778631.142      -93492.884         202.723          52.000  
  20383327.800     -688618.714        2025.586          49.000  
 16  9 24 21 29 23.4000000  0 11G18G20G26G21G 2G 4G 5G24G30G13G15
  22955539.663     -966262.3163       2948.448          28.000  
  20003140.604     -267705.717         783.389          50.000  
  25692485.664      -59257.2403      -1024.468          26.000  
  22036246.592     -930128.409        2830.812          46.000  
  24407915.841      207393.5092      -2476.938          32.000  
  21862103.749      395668.855       -1263.296          46.000  
  22560893.670      653660.042       -1983.875          48.000  
  25446527.149      -96651.2763       3920.337          26.000  
  24873582.893       -2930.6582        184.379          44.000  
  20778623.359      -93533.429         202.613          52.000  
  20383250.635     -689023.834        2025.607          49.000  
 16  9 24 21 29 23.6000000  0 10G18G20G26G21G 4G 5G24G30G13G15
  22955426.481     -966851.9523       2947.799          28.000  
  20003110.974     -267862.351         783.010          50.000  
  25692525.242      -59052.2313      -1025.175          26.000  
  22036138.820     -930694.521        2830.632          46.000  
  21862151.878      395921.544       -1263.554          46.000  
  22560969.335      654056.801       -1984.191          48.000  
  25446378.439      -97435.4753       3920.382          27.000  
  24873576.019       -2967.5602        183.806          44.000  
  20778615.717      -93573.955         202.498          52.000  
  20383173.750     -689428.940        2025.390          49.000  
 16  9 24 21 29 23.8000000  0 10G18G20G26G21G 4G 5G24G30G13G15
  22955314.486     -967441.5733       2947.088          28.000  
  20003081.169     -268018.977         783.023          50.000  
  25692563.458      -58847.2613      -1024.155          26.000  
  22036031.047     -931260.641        2830.069          46.000  
  21862199.796      396174.232       -1263.830          46.000  
  22561044.929      654453.548       -1984.189          48.000  
  25446229.274      -98219.6473       3920.671          27.000  
  24873569.039       -3004.4102        184.622          44.000  
  20778608.144      -93614.462         202.261          52.000  
  20383096.690     -689834.035        2024.951          49.000  
 16  9 24 21 29 24.0000000  0 10G18G20G26G21G 4G 5G24G30G13G15
  22955202.770     -968031.1603       2948.033          28.000  
  20003051.329     -268175.580         782.950          50.000  
  25692601.953      -58642.2593      -1024.672          26.000  
  22035923.170     -931826.723        2830.821          46.000  
  21862247.749      396426.959       -1263.791          46.000  
  22561120.349      654850.329       -1983.897          48.000  
  25446080.773      -99003.8513       3921.260          27.000  
  24873561.989       -3041.2432        184.228          44.000  
  20778600.431      -93654.931         202.224          52.000  
  20383019.525     -690239.085        2025.155          49.000  
 16  9 24 21 29 24.4000000  0 11G18G20G26G21G 2G 4G 5G24G30G13G15
  22954977.801     -969210.3603       2947.135          28.000  
  20002991.964     -268488.745         782.717          50.000  
  25692681.143      -58232.2033      -1025.074          27.000  
  22035707.835     -932958.905        2830.557          46.000  
  24408351.399        1640.1793      -2477.501          33.000  
  21862343.900      396932.466       -1263.890          46.000  
  22561271.643      655643.884       -1983.968          48.000  
  25445782.270     -100572.3583       3919.752          27.000  
  24873548.343       -3114.8652        184.245          44.000  
  20778584.691      -93735.792         201.968          52.000  
  20382865.230     -691049.125        2024.999          49.000  
 16  9 24 21 29 24.6000000  0 11G18G20G26G21G 2G 4G 5G24G30G13G15
  22954865.981     -969799.8943       2947.954          28.000  
  20002962.230     -268645.300         783.082          50.000  
  25692719.988      -58027.1443      -1025.078          27.000  
  22035600.098     -933524.980        2830.818          46.000  
  24408455.892        2135.7053      -2478.309          33.000  
  21862392.098      397185.255       -1263.713          46.000  
  22561347.133      656040.668       -1983.681          48.000  
  25445635.200     -101356.5213       3920.307          27.000  
  24873541.538       -3151.6342        183.192          44.000  
  20778577.118      -93776.194         202.004          52.000  
  20382788.171     -691454.094        2025.334          49.000  
 16  9 24 21 29 24.8000000  0 10G18G20G26G21G 4G 5G24G30G13G15
  22954753.427     -970389.5013       2948.348          28.000  
  20002932.320     -268801.874         782.621          50.000  
  25692759.425      -57822.0943      -1025.354          27.000  
  22035492.325     -934091.073        2830.526          46.000  
  21862439.982      397438.036       -1263.883          46.000  
  22561422.518      656437.432       -1984.100          48.000  
  25445484.395     -102140.7513       3921.641          28.000  
  24873534.872       -3188.4032        184.491          44.000  
  20778569.719      -93816.582         201.795          52.000  
  20382711.146     -691859.080        2024.766          49.000  
 16  9 24 21 29 25.0000000  0 10G18G20G26G21G 4G 5G24G30G13G15
  22954641.292     -970979.0813       2947.589          28.000  
  20002902.794     -268958.389         782.431          50.000  
  25692799.142      -57617.0153      -1026.037          27.000  
  22035384.622     -934657.121        2830.360          46.000  
  21862488.040      397690.880       -1263.886          46.000  
  22561498.217      656834.245       -1983.653          48.000  
  25445334.114     -102924.9953       3921.154          28.000  
  24873527.822       -3225.1222        183.151          44.000  
  20778562.076      -93856.908         201.525          52.000  
  20382633.946     -692264.008        2024.193          49.000  
 16  9 24 21 29 25.2000000  0 10G18G20G26G21G 4G 5G24G30G13G15
  22954529.367     -971568.6333       2948.190          29.000  
  20002873.095     -269114.907         782.581          50.000  
  25692837.952      -57411.9043      -1025.663          27.000  
  22035276.886     -935223.174        2830.277          46.000  
  21862536.063      397943.726       -1264.427          46.000  
  22561573.847      657231.043       -1983.902          48.000  
  25445185.928     -103709.2253       3921.649          28.000  
  24873521.157       -3261.8112        183.133          44.000  
  20778554.224      -93897.219         201.808          52.000  
  20382556.817     -692668.911        2024.452          49.000  
 16  9 24 21 29 25.4000000  0 11G18G20G26G21G 2G 4G 5G24G30G13G15
  22954417.093     -972158.2283       2947.569          29.000  
  20002843.325     -269271.426         781.913          50.000  
  25692877.040      -57206.8303      -1025.383          27.000  
  22035169.078     -935789.234        2830.049          46.000  
  24408820.637        1149.5703      -2477.718          34.000  
  21862584.156      398196.581       -1264.771          46.000  
  22561649.197      657627.824       -1984.250          48.000  
  25445036.903     -104493.5053       3921.993          28.000  
  24873514.142       -3298.5062        183.063          44.000  
  20778546.581      -93937.535         200.946          52.000  
  20382479.896     -693073.815        2023.853          49.000  
 16  9 24 21 29 25.6000000  0 11G18G20G26G21G 2G 4G 5G24G30G13G15
  22954305.412     -972747.7923       2947.978          29.000  
  20002813.311     -269427.941         782.523          50.000  
  25692916.688      -57001.6973      -1025.972          28.000  
  22035061.237     -936355.295        2830.543          46.000  
  24408915.916        1645.1023      -2476.574          34.000  
  21862632.180      398449.435       -1264.460          46.000  
  22561724.688      658024.605       -1983.941          48.000  
  25444886.762     -105277.7713       3921.272          28.000  
  24873507.442       -3335.1912        183.118          44.000  
  20778538.939      -93977.818         201.463          52.000  
  20382403.011     -693478.689        2024.664          49.000  
 16  9 24 21 29 25.8000000  0 11G18G20G26G21G 2G 4G 5G24G30G13G15
  22954193.242     -973337.3693       2947.080          29.000  
  20002783.506     -269584.432         782.178          50.000  
  25692955.742      -56796.5903      -1025.690          28.000  
  22034953.604     -936921.346        2830.411          46.000  
  24409011.753        2140.6163      -2477.686          34.000  
  21862680.203      398702.322       -1264.699          46.000  
  22561800.038      658421.403       -1984.143          48.000  
  25444737.667     -106062.0843       3921.052          28.000  
  24873500.636       -3371.8272        183.386          44.000  
  20778531.295      -94018.067         201.020          52.000  
  20382325.986     -693883.544        2023.746          49.000  
 16  9 24 21 29 26.0000000  0 11G18G20G26G21G 2G 4G 5G24G30G13G15
  22954081.212     -973926.9043       2947.794          29.000  
  20002753.701     -269740.877         782.276          50.000  
  25692995.040      -56591.4193      -1025.561          28.000  
  22034845.866     -937487.350        2829.856          46.000  
  24409104.867        2636.2023      -2477.855          34.000  
  21862728.470      398955.271       -1264.760          46.000  
  22561875.527      658818.225       -1984.281          48.000  
  25444589.899     -106846.3263       3922.376          28.000  
  24873493.831       -3408.4282        183.164          44.000  
  20778523.513      -94058.260         201.039          52.000  
  20382248.752     -694288.327        2024.127          49.000  
 16  9 24 21 29 26.2000000  0 11G18G20G26G21G 2G 4G 5G24G30G13G15
  22953967.961     -974516.4183       2947.331          29.000  
  20002724.071     -269897.311         782.045          50.000  
  25693033.745      -56386.2263      -1026.061          28.000  
  22034738.059     -938053.354        2829.888          46.000  
  24409201.821        3131.7793      -2478.453          34.000  
  21862776.773      399208.227       -1264.908          46.000  
  22561951.053      659215.067       -1983.866          48.000  
  25444440.700     -107630.5633       3920.967          28.000  
  24873487.061       -3445.0182        182.495          44.000  
  20778515.556      -94098.428         200.818          52.000  
  20382171.762     -694693.108        2023.462          49.000  
 16  9 24 21 29 26.4000000  0 11G18G20G26G21G 2G 4G 5G24G30G13G15
  22953856.209     -975105.9413       2947.717          29.000  
  20002694.197     -270053.756         782.145          50.000  
  25693072.624      -56181.0843      -1025.288          28.000  
  22034630.322     -938619.383        2829.853          46.000  
  24409299.298        3627.3713      -2477.795          34.000  
  21862824.901      399461.180       -1265.017          46.000  
  22562026.787      659611.860       -1984.411          48.000  
  25444291.675     -108414.8553       3921.320          28.000  
  24873479.941       -3481.5802        183.716          44.000  
  20778507.913      -94138.606         200.690          52.000  
  20382094.702     -695097.872        2023.992          49.000  
 16  9 24 21 29 26.6000000  0 11G18G20G26G21G 2G 4G 5G24G30G13G15
  22953744.529     -975695.4733       2947.860          29.000  
  20002664.497     -270210.184         781.766          50.000  
  25693111.364      -55975.8973      -1026.197          28.000  
  22034522.550     -939185.390        2829.607          46.000  
  24409392.867        4123.1313      -2477.825          34.000  
  21862873.169      399714.157       -1264.898          46.000  
  22562102.277      660008.685       -1984.206          48.000  
  25444142.582     -109199.1873       3921.134          28.000  
  24873472.927       -3518.1502        182.321          44.000  
  20778500.410      -94178.736         200.748          52.000  
  20382017.573     -695502.620        2023.497          49.000  
 16  9 24 21 29 26.8000000  0 11G18G20G26G21G 2G 4G 5G24G30G13G15
  22953632.394     -976285.0123       2947.833          29.000  
  20002634.622     -270366.580         782.401          50.000  
  25693150.313      -55770.6953      -1026.481          28.000  
  22034414.708     -939751.376        2829.866          46.000  
  24409490.065        4618.7232      -2476.659          34.000  
  21862921.262      399967.164       -1264.790          46.000  
  22562177.872      660405.519       -1983.710          48.000  
  25443993.941     -109983.4813       3921.806          29.000  
  24873465.807       -3554.6612        183.451          44.000  
  20778493.011      -94218.843         200.695          52.000  
  20381940.513     -695907.321        2023.626          49.000  
 16  9 24 21 29 27.0000000  0 11G18G20G26G21G 2G 4G 5G24G30G13G15
  22953520.433     -976874.5383       2947.383          29.000  
  20002604.852     -270522.992         781.805          50.000  
  25693189.472      -55565.4763      -1026.152          28.000  
  22034306.900     -940317.380        2830.201          46.000  
  24409585.483        5114.3142      -2476.952          34.000  
  21862969.355      400220.176       -1264.966          46.000  
  22562253.361      660802.337       -1984.257          48.000  
  25443844.671     -110767.8163       3921.731          29.000  
  24873458.792       -3591.1812        182.044          44.000  
  20778485.333      -94258.939         200.145          52.000  
  20381863.487     -696312.026        2023.269          49.000  
 16  9 24 21 29 27.2000000  0 11G18G20G26G21G 2G 4G 5G24G30G13G15
  22953408.543     -977464.0703       2947.647          29.000  
  20002575.083     -270679.381         782.180          50.000  
  25693229.224      -55360.2733      -1026.468          28.000  
  22034199.024     -940883.368        2829.762          46.000  
  24409680.727        5609.9082      -2478.393          34.000  
  21863017.518      400473.202       -1265.333          46.000  
  22562329.166      661199.162       -1983.691          48.000  
  25443695.822     -111552.1723       3921.057          29.000  
  24873451.988       -3627.6722        182.195          43.000  
  20778477.481      -94298.998         200.403          52.000  
  20381786.533     -696716.702        2023.188          49.000  
 16  9 24 21 29 27.4000000  0 11G18G20G26G21G 2G 4G 5G24G30G13G15
  22953295.780     -978053.5843       2947.359          29.000  
  20002545.313     -270835.778         781.972          50.000  
  25693268.662      -55155.0043      -1026.256          28.000  
  22034091.356     -941449.367        2830.315          46.000  
  24409776.528        6105.4702      -2478.528          34.000  
  21863065.506      400726.235       -1264.871          46.000  
  22562404.621      661595.967       -1984.204          48.000  
  25443546.413     -112336.5193       3921.666          29.000  
  24873444.624       -3664.1672        182.770          43.000  
  20778470.013      -94339.062         200.157          52.000  
  20381709.438     -697121.371        2023.649          49.000  
 16  9 24 21 29 27.6000000  0 11G18G20G26G21G 2G 4G 5G24G30G13G15
  22953184.168     -978643.1433       2946.768          29.000  
  20002515.648     -270992.146         782.010          50.000  
  25693308.134      -54949.7833      -1026.406          28.000  
  22033983.514     -942015.372        2829.358          46.000  
  24409870.620        6601.0522      -2478.615          34.000  
  21863113.669      400979.293       -1265.899          46.000  
  22562480.075      661992.791       -1984.241          48.000  
  25443398.121     -113120.8803       3920.981          29.000  
  24873437.364       -3700.6272        181.712          43.000  
  20778462.579      -94379.087         199.731          52.000  
  20381632.517     -697526.012        2022.531          49.000  
 16  9 24 21 29 27.8000000  0 11G18G20G26G21G 2G 4G 5G24G30G13G15
  22953071.580     -979232.6113       2947.843          29.000  
  20002486.053     -271148.475         781.569          50.000  
  25693347.537      -54744.5133      -1025.854          28.000  
  22033875.986     -942581.312        2830.321          46.000  
  24409964.538        7096.7152      -2477.089          34.000  
  21863161.763      401232.411       -1265.442          46.000  
  22562555.496      662389.653       -1984.252          48.000  
  25443248.888     -113905.2243       3921.354          29.000  
  24873430.176       -3737.0052        182.156          43.000  
  20778455.076      -94419.050         199.880          52.000  
  20381555.632     -697930.585        2022.933          49.000  
 16  9 24 21 29 28.0000000  0 11G18G20G26G21G 2G 4G 5G24G30G13G15
  22952959.515     -979822.1243       2947.222          29.000  
  20002456.074     -271304.826         781.724          50.000  
  25693386.451      -54539.2353      -1026.142          28.000  
  22033768.318     -943147.292        2829.965          46.000  
  24410057.443        7592.3362      -2477.279          34.000  
  21863209.925      401485.507       -1265.342          46.000  
  22562630.916      662786.480       -1983.912          48.000  
  25443100.072     -114689.5593       3922.360          29.000  
  24873423.196       -3773.4462        181.970          43.000  
  20778447.189      -94459.028         200.001          52.000  
  20381478.607     -698335.180        2022.851          49.000  
 16  9 24 21 29 28.2000000  0 11G18G20G26G21G 2G 4G 5G24G30G13G15
  22952847.730     -980411.6563       2947.056          29.000  
  20002426.304     -271461.173         782.009          50.000  
  25693426.239      -54333.9563      -1026.526          28.000  
  22033660.617     -943713.280        2829.739          46.000  
  24410155.793        8087.9142      -2477.694          34.000  
  21863258.228      401738.614       -1265.093          46.000  
  22562706.581      663183.290       -1983.747          48.000  
  25442951.711     -115473.9753       3922.064          29.000  
  24873416.216       -3809.8342        181.977          43.000  
  20778439.546      -94498.987         199.727          52.000  
  20381401.478     -698739.753        2023.185          49.000  
 16  9 24 21 29 28.4000000  0 11G18G20G26G21G 2G 4G 5G24G30G13G15
  22952736.293     -981001.1113       2947.021          29.000  
  20002396.639     -271617.438         781.511          50.000  
  25693465.641      -54128.6543      -1027.203          28.000  
  22033552.949     -944279.182        2829.818          46.000  
  24410249.501        8583.5812      -2479.057          34.000  
  21863306.565      401991.802       -1265.748          46.000  
  22562782.210      663580.176       -1984.393          48.000  
  25442802.861     -116258.3333       3921.406          29.000  
  24873409.027       -3846.1462        181.806          43.000  
  20778432.008      -94538.864         199.503          52.000  
  20381324.697     -699144.248        2022.552          49.000  
 16  9 24 21 29 28.6000000  0 11G18G20G26G21G 2G 4G 5G24G30G13G15
  22952625.135     -981590.5773       2947.338          29.000  
  20002366.799     -271773.706         781.311          50.000  
  25693505.428      -53923.3023      -1026.051          28.000  
  22033445.106     -944845.097        2829.618          46.000  
  24410344.535        9079.2652      -2477.791          34.000  
  21863354.728      402244.999       -1266.061          46.000  
  22562857.420      663977.067       -1984.548          48.000  
  25442653.452     -117042.7113       3921.250          29.000  
  24873402.047       -3882.4462        181.747          43.000  
  20778424.609      -94578.722         199.312          52.000  
  20381247.462     -699548.729        2022.263          49.000  
 16  9 24 21 29 28.8000000  0 11G18G20G26G21G 2G 4G 5G24G30G13G15
  22952513.140     -982180.0353       2948.037          29.000  
  20002336.925     -271929.985         781.444          50.000  
  25693544.238      -53717.9703      -1026.974          28.000  
  22033337.404     -945411.039        2829.582          46.000  
  24410441.419        9574.9042      -2478.865          34.000  
  21863402.787      402498.180       -1266.428          46.000  
  22562933.190      664373.913       -1984.219          48.000  
  25442504.463     -117827.0583       3922.608          29.000  
  24873394.963       -3918.7662        181.765          43.000  
  20778417.001      -94618.581         199.352          52.000  
  20381170.647     -699953.206        2022.530          49.000  
 16  9 24 21 29 29.0000000  0 11G18G20G26G21G 2G 4G 5G24G30G13G15
  22952400.935     -982769.5183       2947.445          29.000  
  20002307.190     -272086.278         781.554          50.000  
  25693583.571      -53512.6403      -1026.238          28.000  
  22033229.702     -945976.982        2830.157          46.000  
  24410536.872       10070.5382      -2477.461          34.000  
  21863451.054      402751.368       -1265.765          46.000  
  22563008.645      664770.747       -1984.099          47.000  
  25442355.822     -118611.4953       3921.607          29.000  
  24873387.808       -3955.0882        181.665          42.000  
  20778409.219      -94658.435         199.180          52.000  
  20381093.587     -700357.683        2022.261          49.000  
 16  9 24 21 29 29.2000000  0 11G18G20G26G21G 2G 4G 5G24G30G13G15
  22952288.452     -983359.0123       2947.085          29.000  
  20002277.595     -272242.532         781.375          50.000  
  25693622.974      -53307.3173      -1027.307          28.000  
  22033121.930     -946542.913        2829.639          46.000  
  24410631.488       10566.1672      -2478.692          33.000  
  21863499.078      403004.586       -1266.170          46.000  
  22563084.100      665167.609       -1984.300          48.000  
  25442207.496     -119395.9183       3921.806          29.000  
  24873380.445       -3991.3652        181.531          42.000  
  20778401.507      -94698.255         198.619          52.000  
  20381016.598     -700762.121        2022.021          49.000  
 16  9 24 21 29 29.4000000  0 11G18G20G26G21G 2G 4G 5G24G30G13G15
  22952176.945     -983948.4893       2946.961          29.000  
  20002247.651     -272398.758         781.323          50.000  
  25693662.551      -53101.9333      -1027.142          28.000  
  22033014.157     -947108.818        2829.372          46.000  
  24410725.789       11061.8612      -2478.056          33.000  
  21863547.240      403257.845       -1266.124          46.000  
  22563159.695      665564.486       -1984.375          48.000  
  25442058.646     -120180.3363       3922.324          29.000  
  24873373.046       -4027.5932        180.909          41.000  
  20778394.003      -94738.018         198.885          52.000  
  20380939.537     -701166.516        2021.868          49.000  
 16  9 24 21 29 29.6000000  0 12G18G20G26G21G 2G 4G 5G24G30G13G29G15
  22952064.740     -984537.9163       2947.390          29.000  
  20002217.846     -272554.960         781.076          50.000  
  25693701.989      -52896.5333      -1026.945          28.000  
  22032906.350     -947674.701        2829.245          46.000  
  24410818.973       11557.5422      -2476.808          34.000  
  21863595.368      403511.135       -1266.369          46.000  
  22563235.254      665961.372       -1984.650          48.000  
  25441909.935     -120964.7313       3921.789          29.000  
  24873365.577       -4063.7882        181.521          41.000  
  20778386.639      -94777.752         198.444          52.000  
  21321580.960       12003.3613      -1753.412          32.000  
  20380862.338     -701570.872        2021.900          49.000  
 16  9 24 21 29 29.8000000  0 12G18G20G26G21G 2G 4G 5G24G30G13G29G15
  22951952.571     -985127.3323       2947.170          29.000  
  20002188.111     -272711.146         781.033          50.000  
  25693741.881      -52691.1183      -1027.603          28.000  
  22032798.683     -948240.573        2829.210          46.000  
  24410914.077       12053.2302      -2477.625          33.000  
  21863643.252      403764.441       -1266.771          46.000  
  22563310.954      666358.279       -1984.928          48.000  
  25441760.876     -121749.1583       3921.608          29.000  
  24873358.075       -4099.9752        180.628          41.000  
  20778379.066      -94817.453         198.393          52.000  
  21321650.413       12354.0053      -1752.788          32.000  
  20380785.348     -701975.203        2021.754          49.000  
 16  9 24 21 29 30.0000000  0 12G18G20G26G21G 2G 4G 5G24G30G13G29G15
  22951838.865     -985716.7613       2947.573          29.000  
  20002158.341     -272867.316         781.353          50.000  
  25693781.597      -52485.6393      -1026.869          27.000  
  22032690.980     -948806.443        2829.658          46.000  
  24411008.553       12548.9262      -2477.806          33.000  
  21863691.415      404017.777       -1266.318          46.000  
  22563386.269      666755.195       -1983.804          48.000  
  25441611.188     -122533.5723       3922.144          29.000  
  24873350.641       -4136.1262        182.103          41.000  
  20778371.318      -94857.131         198.928          52.000  
  21321715.537       12704.6223      -1752.756          32.000  
  20380708.428     -702379.513        2021.968          49.000  
 16  9 24 21 29 30.4000000  0 12G18G20G26G21G 2G 4G 5G24G30G13G29G15
  22951613.583     -986895.6253       2947.022          29.000  
  20002099.150     -273179.655         780.541          50.000  
  25693859.984      -52074.7703      -1026.702          28.000  
  22032475.365     -949938.184        2829.565          46.000  
  24411198.760       13540.3292      -2478.183          33.000  
  21863787.810      404524.459       -1266.979          46.000  
  22563537.249      667548.965       -1984.377          48.000  
  25441312.685     -124102.4633       3921.780          29.000  
  24873335.564       -4208.916         180.290          41.000  
  20778355.997      -94936.452         198.045          52.000  
  21321851.824       13405.7853      -1752.914          32.000  
  20380554.447     -703188.078        2021.258          49.000  
 16  9 24 21 29 30.6000000  0 12G18G20G26G21G 2G 4G 5G24G30G13G29G15
  22951502.321     -987485.0153       2947.186          29.000  
  20002069.450     -273335.765         780.711          50.000  
  25693898.828      -51869.2913      -1027.151          28.000  
  22032367.558     -950504.014        2829.257          46.000  
  24411294.318       14036.0562      -2478.467          33.000  
  21863836.112      404777.863       -1267.067          46.000  
  22563612.913      667945.882       -1985.226          48.000  
  25441163.590     -124886.8933       3922.149          29.000  
  24873327.956       -4244.975         179.591          40.000  
  20778348.494      -94976.034         197.883          52.000  
  21321917.611       13756.4533      -1753.617          32.000  
  20380477.422     -703592.298        2021.117          49.000  
 16  9 24 21 29 30.8000000  0 12G18G20G26G21G 2G 4G 5G24G30G13G29G15
  22951389.733     -988074.4063       2947.430          29.000  
  20002039.646     -273491.878         780.817          50.000  
  25693938.511      -51663.7923      -1027.092          28.000  
  22032259.821     -951069.842        2829.537          46.000  
  24411388.899       14531.7862      -2477.533          33.000  
  21863884.380      405031.274       -1267.043          46.000  
  22563688.403      668342.801       -1985.103          48.000  
  25441014.810     -125671.3613       3922.018          29.000  
  24873320.418       -4281.053         180.686          39.000  
  20778341.130      -95015.606         197.743          52.000  
  21321987.343       14107.1403      -1752.963          32.000  
  20380400.572     -703996.498        2021.355          49.000  
 16  9 24 21 29 31.0000000  0 12G18G20G26G21G 2G 4G 5G24G30G13G29G15
  22951277.632     -988663.8143       2947.088          30.000  
  20002009.980     -273648.024         780.646          50.000  
  25693978.262      -51458.3203      -1027.157          28.000  
  22032152.328     -951635.721        2829.593          46.000  
  24411483.130       15027.5182      -2478.005          33.000  
  21863932.473      405284.666       -1266.987          46.000  
  22563763.858      668739.706       -1984.703          48.000  
  25440865.890     -126455.8323       3922.654          29.000  
  24873312.810       -4317.146         179.021          39.000  
  20778333.522      -95055.202         197.653          52.000  
  21322056.515       14457.7733      -1753.416          32.000  
  20380323.581     -704400.737        2021.097          49.000  
 16  9 24 21 29 31.2000000  0 12G18G20G26G21G 2G 4G 5G24G30G13G29G15
  22951165.638     -989253.2773       2947.088          30.000  
  20001980.455     -273804.118         779.749          50.000  
  25694017.282      -51252.8443      -1027.726          28.000  
  22032044.765     -952201.552        2829.056          46.000  
  24411577.292       15523.1982      -2478.968          33.000  
  21863980.532      405538.100       -1267.631          46.000  
  22563839.279      669136.636       -1984.628          48.000  
  25440717.250     -127240.3073       3921.700          29.000  
  24873305.342       -4353.155         180.755          39.000  
  20778325.880      -95094.732         197.101          52.000  
  21322123.490       14808.4733      -1753.662          32.000  
  20380246.871     -704804.916        2020.326          49.000  
 16  9 24 21 29 31.4000000  0 12G18G20G26G21G 2G 4G 5G24G30G13G29G15
  22951053.712     -989842.6283       2946.880          30.000  
  20001950.755     -273960.159         780.065          50.000  
  25694056.265      -51047.2793      -1027.867          28.000  
  22031937.028     -952767.338        2828.780          46.000  
  24411671.663       16018.9582      -2479.413          33.000  
  21864028.625      405791.605       -1267.591          46.000  
  22563914.664      669533.591       -1984.992          48.000  
  25440568.400     -128024.7503       3922.600          29.000  
  24873297.629       -4389.115         178.927          39.000  
  20778318.516      -95134.194         197.021          52.000  
  21322191.756       15159.2013      -1753.572          32.000  
  20380170.160     -705209.020        2020.079          49.000  
 16  9 24 21 29 31.6000000  0 12G18G20G26G21G 2G 4G 5G24G30G13G29G15
  22950941.821     -990431.9793       2946.231          30.000  
  20001920.845     -274116.185         780.029          50.000  
  25694095.179      -50841.6883      -1027.834          28.000  
  22031829.360     -953333.105        2828.715          46.000  
  24411765.964       16514.7742      -2478.796          33.000  
  21864076.752      406045.127       -1267.934          46.000  
  22563990.467      669930.565       -1985.002          48.000  
  25440419.445     -128809.1923       3923.299          29.000  
  24873289.776       -4425.035         180.767          37.000  
  20778311.012      -95173.633         196.977          52.000  
  21322258.625       15509.9803      -1754.396          32.000  
  20380093.169     -705613.096        2020.021          49.000  
 16  9 24 21 29 31.8000000  0 12G18G20G26G21G 2G 4G 5G24G30G13G29G15
  22950830.525     -991021.3103       2947.029          30.000  
  20001891.251     -274272.195         780.435          50.000  
  25694133.396      -50636.0763      -1027.513          28.000  
  22031721.623     -953898.872        2829.077          46.000  
  24411860.580       17010.5552      -2479.331          33.000  
  21864125.125      406298.679       -1267.820          46.000  
  22564066.097      670327.528       -1984.529          48.000  
  25440270.211     -129593.6413       3922.490          29.000  
  24873282.134       -4460.995         179.562          38.000  
  20778303.754      -95213.039         197.033          52.000  
  21322325.600       15860.7953      -1754.215          32.000  
  20380016.354     -706017.140        2020.486          49.000  
 16  9 24 21 29 32.0000000  0 12G18G20G26G21G 2G 4G 5G24G30G13G29G15
  22950719.227     -991610.6443       2947.247          30.000  
  20001861.446     -274428.239         780.277          50.000  
  25694172.589      -50430.5303      -1028.778          28.000  
  22031613.920     -954464.672        2829.202          46.000  
  24411954.776       17506.3352      -2478.201          33.000  
  21864173.392      406552.180       -1267.557          46.000  
  22564141.727      670724.452       -1984.781          48.000  
  25440121.326     -130378.1303       3922.005          29.000  
  24873274.316       -4496.926         180.483          38.000  
  20778295.971      -95252.477         196.983          52.000  
  21322393.481       16211.5513      -1753.813          32.000  
  20379939.469     -706421.221        2020.285          49.000  
 16  9 24 21 29 32.2000000  0 12G18G20G26G21G 2G 4G 5G24G30G13G29G15
  22950607.651     -992200.0543       2947.202          30.000  
  20001831.851     -274584.303         779.993          50.000  
  25694211.749      -50224.9723      -1027.422          28.000  
  22031506.498     -955030.496        2829.059          46.000  
  24412049.113       18002.0292      -2479.136          33.000  
  21864221.591      406805.701       -1267.229          46.000  
  22564217.531      671121.365       -1984.514          48.000  
  25439971.464     -131162.6773       3922.371          29.000  
  24873266.430       -4532.884         179.024          38.000  
  20778288.503      -95291.902         197.081          52.000  
  21322458.292       16562.3183      -1753.996          32.000  
  20379862.549     -706825.296        2020.117          49.000  
 16  9 24 21 29 32.4000000  0 11G18G20G26G21G 2G 4G 5G24G13G29G15
  22950496.528     -992789.4613       2946.793          30.000  
  20001802.255     -274740.328         780.340          50.000  
  25694250.069      -50019.4143      -1027.789          28.000  
  22031398.760     -955596.294        2829.416          46.000  
  24412143.309       18497.7992      -2476.587          33.000  
  21864269.753      407059.239       -1267.763          46.000  
  22564293.091      671518.296       -1984.607          48.000  
  25439821.672     -131947.2173       3922.519          29.000  
  20778281.104      -95331.298         196.923          52.000  
  21322524.463       16913.1183      -1753.538          33.000  
  20379785.489     -707229.329        2020.123          49.000  
 16  9 24 21 29 32.6000000  0 11G18G20G26G21G 2G 4G 5G24G13G29G15
  22950384.777     -993378.8523       2946.885          30.000  
  20001772.311     -274896.359         780.286          50.000  
  25694289.577      -49813.8523      -1027.917          29.000  
  22031291.057     -956162.118        2828.749          46.000  
  24412237.435       18993.5322      -2477.982          33.000  
  21864317.916      407312.788       -1267.533          46.000  
  22564368.685      671915.202       -1984.592          48.000  
  25439672.786     -132731.7833       3922.107          29.000  
  20778273.670      -95370.679         196.771          52.000  
  21322590.809       17263.9133      -1754.069          33.000  
  20379708.498     -707633.364        2020.171          49.000  
 16  9 24 21 29 32.8000000  0 12G18G20G26G21G 2G 4G 5G24G30G13G29G15
  22950272.468     -993968.2793       2946.763          30.000  
  20001742.681     -275052.403         780.105          50.000  
  25694328.142      -49608.2963      -1027.613          29.000  
  22031183.216     -956727.945        2829.157          46.000  
  24412315.683       19489.2762      -2479.336          33.000  
  21864366.254      407566.329       -1267.799          46.000  
  22564444.245      672312.088       -1984.938          48.000  
  25439524.077     -133516.3423       3923.170          29.000  
  24873229.331       -4640.3863        179.338          37.000  
  20778266.237      -95410.061         196.858          52.000  
  21322658.412       17614.6903      -1753.917          33.000  
  20379631.544     -708037.391        2019.975          49.000  
 16  9 24 21 29 33.0000000  0 12G18G20G26G21G 2G 4G 5G24G30G13G29G15
  22950160.543     -994557.6783       2946.929          30.000  
  20001712.946     -275208.419         779.910          50.000  
  25694368.034      -49402.6893      -1028.313          29.000  
  22031075.618     -957293.738        2829.708          46.000  
  24412365.905       19984.9692      -2478.158          33.000  
  21864414.626      407819.892       -1267.708          46.000  
  22564519.874      672708.998       -1984.918          48.000  
  25439374.493     -134300.9583       3923.154          29.000  
  24873218.547       -4676.1993        178.731          37.000  
  20778258.594      -95449.404         196.485          52.000  
  21322725.839       17965.5133      -1754.168          33.000  
  20379554.554     -708441.376        2020.098          49.000  
 16  9 24 21 29 33.2000000  0 12G18G20G26G21G 2G 4G 5G24G30G13G29G15
  22950048.826     -995147.0873       2947.042          30.000  
  20001683.176     -275364.465         780.293          50.000  
  25694407.611      -49197.1473      -1027.872          29.000  
  22030967.915     -957859.603        2829.364          46.000  
  24412449.561       20480.7042      -2478.685          33.000  
  21864462.684      408073.446       -1267.599          46.000  
  22564595.608      673105.866       -1984.312          48.000  
  25439224.456     -135085.5553       3923.987          29.000  
  24873211.497       -4712.0353        179.231          37.000  
  20778250.811      -95488.762         196.977          52.000  
  21322792.639       18316.3553      -1754.679          33.000  
  20379477.807     -708845.391        2020.174          49.000  
 16  9 24 21 29 33.4000000  0 12G18G20G26G21G 2G 4G 5G24G30G13G29G15
  22949935.087     -995736.3153       2949.461          30.000  
  20001653.756     -275520.485         779.889          50.000  
  25694446.700      -48991.5733      -1027.704          29.000  
  22030860.353     -958425.429        2828.505          46.000  
  24412542.013       20976.4242      -2479.370          33.000  
  21864510.987      408327.039       -1268.026          46.000  
  22564671.169      673502.761       -1984.792          48.000  
  25439074.944     -135870.2403       3922.320          28.000  
  24873204.483       -4747.8933        178.823          36.000  
  20778243.344      -95528.082         196.133          52.000  
  21322861.743       18667.2202      -1754.670          33.000  
  20379400.992     -709249.357        2019.913          49.000  
 16  9 24 21 29 33.6000000  0 12G18G20G26G21G 2G 4G 5G24G30G13G29G15
  22949824.836     -996325.6652       2948.241          30.000  
  20001624.021     -275676.445         780.084          50.000  
  25694486.103      -48785.9643      -1029.829          30.000  
  22030752.720     -958991.198        2829.058          46.000  
  24412630.730       21472.1632      -2478.035          34.000  
  21864559.254      408580.671       -1268.150          46.000  
  22564746.658      673899.691       -1984.334          48.000  
  25438926.303     -136654.8093       3923.424          28.000  
  24873197.957       -4783.6793        179.473          36.000  
  20778235.910      -95567.339         196.436          52.000  
  21322927.949       19018.0592      -1755.186          34.000  
  20379323.967     -709653.281        2019.801          49.000  
 16  9 24 21 29 33.8000000  0 12G18G20G26G21G 2G 4G 5G24G30G13G29G15
  22949713.295     -996915.0762       2948.944          30.000  
  20001594.321     -275832.432         779.983          50.000  
  25694524.529      -48580.3042      -1026.594          30.000  
  22030645.192     -959557.001        2829.090          46.000  
  24412721.751       21967.8972      -2480.584          34.000  
  21864607.418      408834.301       -1268.039          46.000  
  22564822.254      674296.594       -1984.257          48.000  
  25438776.825     -137439.4323       3924.131          28.000  
  24873186.685       -4819.4893        178.831          36.000  
  20778228.477      -95606.602         196.276          52.000  
  21322994.051       19368.9552      -1753.644          34.000  
  20379247.222     -710057.204        2019.471          49.000  
 16  9 24 21 29 34.0000000  0 12G18G20G26G21G 2G 4G 5G24G30G13G29G15
  22949602.207     -997504.5232       2948.009          30.000  
  20001564.621     -275988.432         779.733          50.000  
  25694563.164      -48374.7692      -1028.234          30.000  
  22030537.490     -960122.823        2829.517          46.000  
  24412821.776       22463.6432      -2479.231          34.000  
  21864655.720      409087.930       -1267.853          46.000  
  22564897.848      674693.468       -1984.359          48.000  
  25438627.381     -138224.1223       3923.410          28.000  
  24873183.439       -4855.1093        178.757          36.000  
  20778220.729      -95645.869         196.214          52.000  
  21323058.268       19719.8162      -1753.214          34.000  
  20379170.371     -710461.122        2019.434          49.000  
 16  9 24 21 29 34.4000000  0 12G18G20G26G21G 2G 4G 5G24G30G13G29G15
  22949377.902     -998683.3823       2945.751          30.000  
  20001505.465     -276300.377         779.774          50.000  
  25694638.479      -47963.5022      -1029.287          30.000  
  22030322.189     -961254.456        2828.466          46.000  
  24413007.481       23455.0712      -2480.096          34.000  
  21864752.289      409595.223       -1268.833          46.000  
  22565048.897      675487.235       -1984.677          48.000  
  25438329.436     -139793.4733       3922.332          28.000  
  24873168.152       -4926.6562        178.127          35.000  
  20778205.896      -95724.313         195.678          52.000  
  21323190.261       20421.5932      -1753.935          34.000  
  20379016.530     -711268.883        2019.006          49.000  
 16  9 24 21 29 34.6000000  0 12G18G20G26G21G 2G 4G 5G24G30G13G29G15
  22949266.570     -999272.7182       2946.985          30.000  
  20001475.625     -276456.328         779.651          50.000  
  25694677.567      -47757.8243      -1028.884          31.000  
  22030214.347     -961820.242        2829.499          46.000  
  24413102.550       23950.8332      -2478.782          34.000  
  21864800.417      409848.907       -1267.882          46.000  
  22565124.631      675884.139       -1984.383          48.000  
  25438179.539     -140578.1563       3923.537          28.000  
  24873162.882       -4962.4352        178.837          36.000  
  20778198.567      -95763.489         196.203          52.000  
  21323258.910       20772.5352      -1753.017          34.000  
  20378939.540     -711672.726        2019.623          49.000  
 16  9 24 21 29 34.8000000  0 12G18G20G26G21G 2G 4G 5G24G30G13G29G15
  22949154.191     -999862.1322       2942.582          30.000  
  20001446.274     -276612.252         779.509          50.000  
  25694715.365      -47552.0803      -1022.468          31.000  
  22030106.854     -962386.037        2828.417          46.000  
  24413196.398       24446.5932      -2479.237          33.000  
  21864848.825      410102.622       -1268.722          46.000  
  22565200.156      676281.041       -1985.082          48.000  
  25438030.061     -141362.8563       3923.127          27.000  
  24873159.812       -4998.0812        177.067          36.000  
  20778191.099      -95802.632         195.523          52.000  
  21323328.398       21123.4622      -1755.880          34.000  
  20378862.620     -712076.543        2018.920          49.000  
 16  9 24 21 29 35.0000000  0 12G18G20G26G21G 2G 4G 5G24G30G13G29G15
  22949040.416    -1000451.4702       2946.068          30.000  
  20001416.714     -276768.148         779.383          50.000  
  25694757.246      -47346.4653      -1028.910          31.000  
  22029998.872     -962951.783        2828.819          46.000  
  24413294.817       24942.3662      -2478.784          33.000  
  21864897.162      410356.369       -1268.892          46.000  
  22565275.890      676677.973       -1984.605          49.000  
  25437880.862     -142147.5843       3923.059          27.000  
  24873154.193       -5033.7712        180.214          36.000  
  20778183.700      -95841.733         195.383          52.000  
  21323396.105       21474.4832      -1755.033          34.000  
  20378785.734     -712480.305        2018.482          49.000  
 16  9 24 21 29 35.4000000  0 12G18G20G26G21G 2G 4G 5G24G30G13G29G15
  22948817.611    -1001630.2272       2947.899          30.000  
  20001357.139     -277079.924         779.312          50.000  
  25694833.399      -46935.0812      -1026.375          31.000  
  22029783.606     -964083.296        2828.885          46.000  
  24413485.827       25933.8932      -2478.817          33.000  
  21864993.731      410863.904       -1268.814          46.000  
  22565427.114      677471.819       -1984.755          49.000  
  25437581.486     -143716.9193       3925.248          27.000  
  24873139.954       -5105.0072        177.764          36.000  
  20778168.658      -95919.876         195.233          52.000  
  21323528.657       22176.4872      -1756.202          35.000  
  20378631.963     -713287.794        2018.377          49.000  
 16  9 24 21 29 35.6000000  0 12G18G20G26G21G 2G 4G 5G24G30G13G29G15
  22948705.511    -1002219.5562       2945.813          30.000  
  20001327.613     -277235.753         779.405          50.000  
  25694873.534      -46729.3232      -1029.107          32.000  
  22029676.078     -964649.015        2828.433          46.000  
  24413574.579       26429.7612      -2477.841          33.000  
  21865042.068      411117.736       -1269.287          46.000  
  22565502.499      677868.780       -1984.824          49.000  
  25437432.391     -144501.6353       3923.584          27.000  
  24873132.660       -5140.6412        177.978          36.000  
  20778161.399      -95958.876         195.118          52.000  
  21323597.480       22527.5752      -1753.691          35.000  
  20378555.112     -713691.460        2018.155          49.000  
 16  9 24 21 29 35.8000000  0 12G18G20G26G21G 2G 4G 5G24G30G13G29G15
  22948591.318    -1002808.8242       2948.542          30.000  
  20001297.913     -277391.572         779.351          50.000  
  25694911.751      -46523.5242      -1028.477          32.000  
  22029568.411     -965214.701        2829.130          46.000  
  24413667.625       26925.5742      -2478.636          34.000  
  21865090.302      411371.608       -1269.002          46.000  
  22565578.129      678265.759       -1984.462          48.000  
  25437283.193     -145286.3343       3924.124          26.000  
  24873125.750       -5176.2132        177.454          36.000  
  20778153.931      -95997.848         195.327          52.000  
  21323664.490       22878.6332      -1755.003          35.000  
  20378478.297     -714095.102        2018.738          49.000  
 16  9 24 21 29 36.0000000  0 12G18G20G26G21G 2G 4G 5G24G30G13G29G15
  22948480.788    -1003398.1892       2947.692          30.000  
  20001268.213     -277547.392         778.932          50.000  
  25694952.305      -46317.7772      -1029.986          32.000  
  22029460.848     -965780.422        2828.572          46.000  
  24413758.750       27421.4002      -2479.426          33.000  
  21865138.604      411625.445       -1269.274          46.000  
  22565653.933      678662.707       -1984.759          48.000  
  25437132.423     -146071.0673       3922.538          26.000  
  24873121.946       -5211.7542        177.225          36.000  
  20778146.253      -96036.814         194.682          52.000  
  21323732.197       23229.7462      -1755.176          35.000  
  20378401.446     -714498.744        2018.159          49.000  
 16  9 24 21 29 36.4000000  0 12G18G20G26G21G 2G 4G 5G24G30G13G29G15
  22948259.938    -1004576.7812       2946.017          31.000  
  20001209.162     -277858.938         778.682          50.000  
  25695030.133      -45906.1502      -1029.621          32.000  
  22029245.652     -966911.762        2828.367          46.000  
  24413949.620       28413.0912      -2478.590          33.000  
  21865235.348      412133.284       -1269.647          46.000  
  22565805.121      679456.684       -1984.850          48.000  
  25436833.012     -147640.4243       3923.408          26.000  
  24873109.870       -5282.7302        177.554          37.000  
  20778131.420      -96114.605         194.293          52.000  
  21323867.192       23932.0102      -1757.124          35.000  
  20378247.954     -715305.894        2017.765          49.000  
 16  9 24 21 29 36.6000000  0 12G18G20G21G 2G 4G 5G24G26G30G13G29G15
  22948147.943    -1005166.0292       2947.530          31.000  
  20001179.322     -278014.666         778.699          50.000  
  22029137.984     -967477.408        2828.003          46.000  
  24414044.549       28908.9462      -2479.962          33.000  
  21865283.685      412387.246       -1270.031          46.000  
  22565880.611      679853.687       -1985.563          49.000  
  25436683.394     -148425.1183       3923.160          26.000  
  25695068.105      -45700.2582      -1031.412          32.000  
  24873101.808       -5318.1672        177.930          37.000  
  20778124.126      -96153.448         193.885          52.000  
  21323933.642       24283.2342      -1755.505          35.000  
  20378171.173     -715709.402        2017.587          49.000  
 16  9 24 21 29 36.8000000  0 12G18G20G21G 2G 4G 5G24G26G30G13G29G15
  22948035.215    -1005755.3172       2944.948          31.000  
  20001149.553     -278170.388         778.683          50.000  
  22029030.282     -968043.046        2828.654          46.000  
  24414139.828       29404.8632      -2479.692          33.000  
  21865332.163      412641.232       -1269.830          46.000  
  22565956.590      680250.721       -1984.872          48.000  
  25436534.405     -149209.8463       3922.998          25.000  
  25695107.264      -45494.3752      -1029.421          32.000  
  24873096.888       -5353.5622        176.436          38.000  
  20778116.798      -96192.262         194.571          52.000  
  21323998.628       24634.4362      -1756.189          35.000  
  20378094.498     -716112.902        2017.433          49.000  
 16  9 24 21 29 37.0000000  0 12G18G20G21G 2G 4G 5G24G26G30G13G29G15
  22947924.022    -1006344.6032       2945.123          31.000  
  20001120.131     -278326.121         778.747          50.000  
  22028922.649     -968608.725        2828.183          46.000  
  24414232.978       29900.7262      -2478.546          33.000  
  21865380.465      412895.190       -1269.779          46.000  
  22566032.324      680647.701       -1985.250          49.000  
  25436384.961     -149994.5563       3925.100          25.000  
  25695144.991      -45288.5702      -1029.928          32.000  
  24873090.536       -5388.9912        177.458          39.000  
  20778109.190      -96231.090         193.491          52.000  
  21324065.008       24985.6272      -1756.698          35.000  
  20378017.612     -716516.397        2017.463          49.000  
 16  9 24 21 29 37.4000000  0 12G18G20G21G 2G 4G 5G24G26G30G13G29G15
  22947696.681    -1007523.1512       2947.552          31.000  
  20001061.150     -278637.533         778.511          50.000  
  22028707.627     -969740.008        2828.265          46.000  
  24414423.743       30892.4622      -2481.179          33.000  
  21865477.069      413403.213       -1270.229          46.000  
  22566183.408      681441.716       -1984.970          49.000  
  25436085.969     -151564.0213       3921.514          25.000  
  25695221.074      -44876.7912      -1029.365          32.000  
  24873080.694       -5459.7672        176.732          39.000  
  20778094.392      -96308.628         194.104          52.000  
  21324199.654       25688.0912      -1757.595          35.000  
  20377864.155     -717323.308        2017.348          49.000  
 16  9 24 21 29 37.6000000  0 12G18G20G21G 2G 4G 5G24G26G30G13G29G15
  22947583.324    -1008112.4332       2946.606          30.000  
  20001031.554     -278793.246         778.831          50.000  
  22028599.855     -970305.664        2828.556          46.000  
  24414517.800       31388.3202      -2480.082          33.000  
  21865525.511      413657.224       -1270.010          46.000  
  22566258.967      681838.703       -1984.832          49.000  
  25435936.107     -152348.8073       3924.036          25.000  
  25695260.267      -44670.9072      -1026.811          32.000  
  24873073.784       -5495.1372        176.923          39.000  
  20778087.098      -96347.390         193.941          52.000  
  21324265.372       26039.3602      -1756.371          35.000  
  20377787.479     -717726.760        2017.346          49.000  
 16  9 24 21 29 37.8000000  0 12G18G20G21G 2G 4G 5G24G26G30G13G29G15
  22947470.597    -1008701.7102       2946.720          30.000  
  20001002.064     -278948.915         778.096          50.000  
  22028492.223     -970871.294        2827.980          46.000  
  24414608.542       31884.2352      -2480.389          33.000  
  21865573.884      413911.277       -1270.368          46.000  
  22566334.597      682235.715       -1985.109          49.000  
  25435786.524     -153133.5213       3924.701          25.000  
  25695299.566      -44464.9972      -1029.707          32.000  
  24873068.131       -5530.4682        176.345          40.000  
  20778079.769      -96386.099         193.348          52.000  
  21324332.242       26390.6382      -1755.920          36.000  
  20377710.629     -718130.158        2016.702          49.000  
 16  9 24 21 29 38.0000000  0 12G18G20G21G 2G 4G 5G24G26G30G13G29G15
  22947357.729    -1009291.0092       2948.264          30.000  
  20000972.224     -279104.612         778.220          50.000  
  22028384.520     -971436.934        2828.490          46.000  
  24414701.866       32380.1072      -2478.596          33.000  
  21865622.151      414165.322       -1270.242          46.000  
  22566410.192      682632.699       -1985.184          49.000  
  25435636.278     -153918.2963       3924.446          25.000  
  25695338.655      -44259.0542      -1028.086          32.000  
  24873063.803       -5565.8142        176.120          40.000  
  20778072.161      -96424.813         193.367          52.000  
  21324400.298       26741.8992      -1757.190          36.000  
  20377633.743     -718533.562        2016.653          49.000  
 16  9 24 21 29 38.4000000  0 12G18G20G21G 2G 4G 5G24G26G30G13G29G15
  22947134.331    -1010469.4892       2949.453          30.000  
  20000913.243     -279415.928         777.944          50.000  
  22028169.359     -972568.187        2828.012          46.000  
  24414893.050       33371.8602      -2479.704          33.000  
  21865718.721      414673.496       -1270.901          46.000  
  22566561.206      683426.706       -1985.524          49.000  
  25435337.739     -155487.9653       3923.414          24.000  
  25695417.285      -43847.2712      -1030.082          32.000  
  24873053.159       -5636.4092        176.173          41.000  
  20778057.398      -96502.141         192.929          52.000  
  21324535.537       27444.5592      -1755.180          36.000  
  20377480.146     -719340.268        2016.308          49.000  
 16  9 24 21 29 38.6000000  0 12G18G20G21G 2G 4G 5G24G26G30G13G29G15
  22947021.707    -1011058.7813       2941.595          30.000  
  20000883.647     -279571.501         778.093          50.000  
  22028061.726     -973133.753        2827.554          46.000  
  24414988.922       33867.8172      -2480.085          33.000  
  21865767.197      414927.665       -1270.712          46.000  
  22566637.010      683823.770       -1985.285          49.000  
  25435188.051     -156272.6603       3925.668          24.000  
  25695455.711      -43641.2482      -1029.605          32.000  
  24873047.854       -5671.6342        175.123          41.000  
  20778049.895      -96540.712         192.850          52.000  
  21324602.999       27795.9382      -1755.989          36.000  
  20377403.261     -719743.524        2016.342          49.000  
 16  9 24 21 29 38.8000000  0 12G18G20G21G 2G 4G 5G24G26G30G13G29G15
  22946911.283    -1011647.9242       2943.535          30.000  
  20000853.808     -279727.094         777.613          50.000  
  22027954.059     -973699.315        2827.552          46.000  
  24415084.375       34363.7722      -2479.121          33.000  
  21865815.605      415181.834       -1271.137          46.000  
  22566712.640      684220.825       -1985.490          49.000  
  25435038.225     -157057.4353       3924.202          24.000  
  25695495.707      -43435.2492      -1032.262          32.000  
  24873041.328       -5706.8422        176.057          41.000  
  20778042.881      -96579.269         192.472          52.000  
  21324669.067       28147.3332      -1756.974          36.000  
  20377326.446     -720146.780        2016.084          49.000  
 16  9 24 21 29 39.0000000  0 12G18G20G21G 2G 4G 5G24G26G30G13G29G15
  22946798.973    -1012237.1202       2946.020          30.000  
  20000824.212     -279882.627         777.725          50.000  
  22027846.391     -974264.853        2827.707          46.000  
  24415176.198       34859.7342      -2479.106          33.000  
  21865864.082      415436.057       -1271.023          46.000  
  22566788.129      684617.910       -1985.513          49.000  
  25434888.886     -157842.2493       3923.312          24.000  
  25695535.285      -43229.1972      -1031.500          32.000  
  24873034.697       -5741.9862        175.640          41.000  
  20778035.342      -96617.773         192.351          52.000  
  21324735.831       28498.7802      -1756.837          36.000  
  20377249.630     -720549.969        2016.093          49.000  
 16  9 24 21 29 39.4000000  0 12G18G20G21G 2G 4G 5G24G26G30G13G29G15
  22946574.284    -1013415.3962       2946.848          30.000  
  20000765.161     -280193.623         777.373          50.000  
  22027631.579     -975395.841        2827.699          46.000  
  24415364.416       35851.7442      -2480.668          32.000  
  21865960.965      415944.615       -1271.615          46.000  
  22566939.458      685412.142       -1985.542          49.000  
  25434589.405     -159411.7253       3923.385          24.000  
  25695614.055      -42817.0222      -1030.040          32.000  
  24873022.378       -5812.1862        175.107          42.000  
  20778020.614      -96694.657         191.916          52.000  
  21324871.175       29201.7832      -1756.864          36.000  
  20377096.208     -721356.252        2015.755          49.000  
 16  9 24 21 29 39.6000000  0 12G18G20G21G 2G 4G 5G24G26G30G13G29G15
  22946461.905    -1014004.5452       2944.814          30.000  
  20000735.495     -280349.105         777.566          50.000  
  22027524.086     -975961.331        2827.736          46.000  
  24415458.334       36347.7522      -2480.394          32.000  
  21866009.337      416198.914       -1271.360          46.000  
  22567015.052      685809.248       -1985.574          49.000  
  25434440.101     -160196.4893       3923.554          24.000  
  25695653.388      -42610.8822      -1029.752          32.000  
  24873015.886       -5847.2512        175.604          42.000  
  20778013.390      -96733.071         191.996          52.000  
  21324937.974       29553.3082      -1756.875          36.000  
  20377019.357     -721759.365        2015.598          49.000  
 16  9 24 21 29 39.8000000  0 12G18G20G21G 2G 4G 5G24G26G30G13G29G15
  22946349.910    -1014593.7002       2948.480          30.000  
  20000706.039     -280504.587         777.542          50.000  
  22027416.383     -976526.826        2828.115          46.000  
  24415552.809       36843.7582      -2479.625          32.000  
  21866057.744      416453.219       -1271.411          46.000  
  22567090.472      686206.361       -1985.163          49.000  
  25434291.251     -160981.2653       3923.299          24.000  
  25695691.883      -42404.8472      -1030.158          32.000  
  24873009.569       -5882.3052        175.563          42.000  
  20778006.130      -96771.465         192.148          52.000  
  21325005.018       29904.8232      -1757.074          36.000  
  20376942.471     -722162.459        2015.889          49.000  
 16  9 24 21 29 40.0000000  0 12G18G20G21G 2G 4G 5G24G26G30G13G29G15
  22946238.124    -1015182.8572       2946.423          30.000  
  20000676.619     -280660.067         777.129          50.000  
  22027308.751     -977092.340        2827.531          46.000  
  24415648.507       37339.7442      -2480.966          32.000  
  21866106.361      416707.538       -1271.508          46.000  
  22567166.207      686603.466       -1985.753          49.000  
  25434142.436     -161766.0453       3923.098          24.000  
  25695731.391      -42198.7512      -1031.037          32.000  
  24873003.393       -5917.3652        175.524          43.000  
  20777998.872      -96809.846         191.686          52.000  
  21325071.679       30256.3482      -1756.568          36.000  
  20376865.517     -722565.548        2015.372          49.000  
 16  9 24 21 29 40.4000000  0 12G18G20G21G 2G 4G 5G24G26G30G13G29G15
  22946013.645    -1016361.1772       2945.595          30.000  
  20000617.533     -280971.002         777.032          50.000  
  22027093.694     -978223.350        2827.107          46.000  
  24415837.528       38331.7592      -2481.151          32.000  
  21866202.756      417216.204       -1272.151          46.000  
  22567317.430      687397.644       -1985.795          49.000  
  25433843.235     -163335.6803       3925.896          24.000  
  25695810.824      -41786.5282      -1033.374          32.000  
  24872990.584       -5987.4162        175.202          43.000  
  20777983.830      -96886.549         191.382          52.000  
  21325205.452       30959.4582      -1757.863          36.000  
  20376712.094     -723371.658        2014.933          49.000  
 16  9 24 21 29 40.6000000  0 12G18G20G21G 2G 4G 5G24G26G30G13G29G15
  22945901.544    -1016950.3272       2946.880          30.000  
  20000588.077     -281126.432         777.070          50.000  
  22026986.131     -978788.826        2827.358          46.000  
  24415932.038       38827.7622      -2479.807          32.000  
  21866251.094      417470.582       -1271.955          46.000  
  22567393.060      687794.759       -1985.648          49.000  
  25433693.302     -164120.5063       3923.662          24.000  
  25695850.087      -41580.3652      -1030.004          32.000  
  24872984.162       -6022.4112        174.745          43.000  
  20777976.675      -96924.853         191.356          52.000  
  21325272.496       31311.0602      -1759.182          36.000  
  20376635.418     -723774.666        2014.945          49.000  
 16  9 24 21 29 40.8000000  0 12G18G20G21G 2G 4G 5G24G26G30G13G29G15
  22945789.654    -1017539.4582       2946.227          30.000  
  20000558.656     -281281.847         776.963          50.000  
  22026878.847     -979354.283        2827.214          46.000  
  24416026.583       39323.8132      -2480.157          32.000  
  21866299.431      417724.983       -1272.154          46.000  
  22567468.654      688191.894       -1985.841          49.000  
  25433543.475     -164905.3153       3925.485          25.000  
  25695889.420      -41374.1862      -1030.380          32.000  
  24872977.880       -6057.3522        174.340          43.000  
  20777969.416      -96963.119         191.067          52.000  
  21325339.505       31662.7042      -1758.059          37.000  
  20376558.672     -724177.645        2015.114          49.000  
 16  9 24 21 29 41.0000000  0 12G18G20G21G 2G 4G 5G24G26G30G13G29G15
  22945677.659    -1018128.6432       2946.031          30.000  
  20000528.887     -281437.276         776.910          50.000  
  22026771.355     -979919.778        2827.716          46.000  
  24416120.885       39819.8272      -2479.826          32.000  
  21866348.013      417979.369       -1271.810          46.000  
  22567544.249      688588.980       -1985.559          49.000  
  25433393.369     -165690.1983       3923.963          24.000  
  25695928.893      -41168.0722      -1032.384          32.000  
  24872971.494       -6092.3012        175.442          44.000  
  20777962.262      -97001.389         191.379          52.000  
  21325406.410       32014.2682      -1758.794          37.000  
  20376481.997     -724580.634        2014.529          49.000  
 16  9 24 21 29 41.4000000  0 12G18G20G21G 2G 4G 5G24G26G30G13G29G15
  22945453.494    -1019306.8112       2945.970          31.000  
  20000469.905     -281748.035         776.583          50.000  
  22026556.019     -981050.674        2826.911          46.000  
  24416309.766       40811.9072      -2481.025          32.000  
  21866444.827      418488.271       -1272.545          46.000  
  22567695.647      689383.250       -1985.760          49.000  
  25433095.145     -167259.8883       3923.908          24.000  
  25696007.873      -40755.6713      -1030.597          32.000  
  24872959.105       -6162.1062        174.507          45.000  
  20777947.360      -97077.806         190.680          52.000  
  21325540.218       32717.6342      -1757.413          37.000  
  20376328.853     -725386.455        2014.534          49.000  
 16  9 24 21 29 41.6000000  0 12G18G20G21G 2G 4G 5G24G26G30G13G29G15
  22945341.463    -1019895.9422       2946.283          30.000  
  20000440.554     -281903.372         776.697          50.000  
  22026448.421     -981616.084        2827.156          46.000  
  24416404.137       41307.9902      -2481.618          32.000  
  21866493.303      418742.773       -1272.622          46.000  
  22567771.172      689780.416       -1985.570          49.000  
  25432946.015     -168044.7953       3923.973          24.000  
  25696047.241      -40549.4252      -1032.085          33.000  
  24872952.962       -6196.9552        174.038          45.000  
  20777940.345      -97115.948         190.401          52.000  
  21325607.332       33069.3672      -1757.972          37.000  
  20376252.212     -725789.313        2014.172          48.000  
 16  9 24 21 29 41.8000000  0 12G18G20G21G 2G 4G 5G24G26G30G13G29G15
  22945229.398    -1020485.0162       2946.265          30.000  
  20000410.749     -282058.698         776.543          50.000  
  22026340.823     -982181.494        2827.048          46.000  
  24416498.543       41804.0672      -2478.568          31.000  
  21866541.850      418997.296       -1272.694          46.000  
  22567846.766      690177.576       -1985.879          49.000  
  25432796.327     -168829.5763       3925.713          25.000  
  25696086.539      -40343.1802      -1030.985          33.000  
  24872946.750       -6231.7872        173.963          45.000  
  20777933.155      -97154.066         190.606          52.000  
  21325674.236       33421.0652      -1759.809          37.000  
  20376175.466     -726192.146        2014.120          48.000  
 16  9 24 21 29 42.0000000  0 12G18G20G21G 2G 4G 5G24G26G30G13G29G15
  22945117.368    -1021074.1482       2945.007          30.000  
  20000381.049     -282214.007         776.604          50.000  
  22026233.330     -982746.897        2827.222          46.000  
  24416592.984       42300.1212      -2482.730          31.000  
  21866590.362      419251.840       -1273.107          46.000  
  22567922.396      690574.748       -1985.932          49.000  
  25432646.849     -169614.4903       3924.069          25.000  
  25696125.977      -40136.9342      -1030.156          33.000  
  24872940.538       -6266.5722        173.833          45.000  
  20777926.106      -97192.151         190.424          52.000  
  21325741.315       33772.8322      -1759.729          37.000  
  20376098.860     -726594.952        2014.198          48.000  
 16  9 24 21 29 42.4000000  0 12G18G20G21G 2G 4G 5G24G26G30G13G29G15
  22944893.238    -1022252.2642       2943.205          30.000  
  20000322.102     -282524.612         776.132          50.000  
  22026018.309     -983877.692        2826.527          46.000  
  24416781.865       43292.3102      -2481.841          31.000  
  21866687.106      419760.954       -1272.972          46.000  
  22568073.550      691369.069       -1986.005          49.000  
  25432348.800     -171184.1633       3924.830          24.000  
  25696204.468      -39724.3722      -1030.223          32.000  
  24872928.009       -6336.1112        173.509          45.000  
  20777911.239      -97268.287         190.024          52.000  
  21325875.472       34476.3722      -1759.928          37.000  
  20375945.473     -727400.520        2013.404          48.000  
 16  9 24 21 29 42.6000000  0 12G18G20G21G 2G 4G 5G24G26G30G13G29G15
  22944781.033    -1022841.3032       2943.837          30.000  
  20000292.646     -282679.870         776.018          50.000  
  22025910.501     -984443.059        2826.347          46.000  
  24416876.376       43788.4412      -2481.813          31.000  
  21866735.618      420015.566       -1273.487          46.000  
  22568149.109      691766.258       -1986.200          49.000  
  25432199.321     -171969.0923       3924.133          25.000  
  25696243.731      -39518.0512      -1033.559          32.000  
  24872921.797       -6370.8442        173.109          45.000  
  20777904.119      -97306.285         189.769          52.000  
  21325942.446       34828.1892      -1759.509          37.000  
  20375868.867     -727803.242        2013.500          48.000  
 16  9 24 21 29 42.8000000  0 12G18G20G21G 2G 4G 5G24G26G30G13G29G15
  22944668.863    -1023430.3022       2945.696          31.000  
  20000263.225     -282835.080         775.950          50.000  
  22025802.973     -985008.392        2826.943          46.000  
  24416971.061       44284.6022      -2479.382          31.000  
  21866784.060      420270.231       -1273.532          46.000  
  22568224.843      692163.486       -1986.028          49.000  
  25432049.284     -172753.9133       3924.134          24.000  
  25696283.099      -39311.6862      -1033.259          32.000  
  24872915.550       -6405.5142        173.390          45.000  
  20777897.139      -97344.241         189.559          52.000  
  21326009.525       35180.0672      -1759.758          37.000  
  20375792.051     -728205.915        2013.155          48.000  
 16  9 24 21 29 43.0000000  0 12G18G20G21G 2G 4G 5G24G26G30G13G29G15
  22944556.938    -1024019.3642       2944.946          31.000  
  20000233.561     -282990.309         776.356          50.000  
  22025695.376     -985573.746        2827.015          46.000  
  24417065.607       44780.7152      -2481.948          31.000  
  21866832.677      420524.880       -1273.249          46.000  
  22568300.438      692560.682       -1985.919          49.000  
  25431900.714     -173538.7863       3923.953          24.000  
  25696322.432      -39105.3372      -1032.550          32.000  
  24872909.373       -6440.1862        173.838          45.000  
  20777889.880      -97382.192         189.696          52.000  
  21326076.500       35531.9562      -1759.877          37.000  
  20375715.271     -728608.600        2013.171          48.000  
 16  9 24 21 29 43.4000000  0 12G18G20G21G 2G 4G 5G24G26G30G13G29G15
  22944332.772    -1025197.3992       2944.700          31.000  
  20000174.649     -283300.704         776.149          50.000  
  22025480.285     -986704.400        2826.943          46.000  
  24417254.418       45773.0092      -2479.569          31.000  
  21866929.944      421034.263       -1273.795          46.000  
  22568451.627      693355.127       -1986.029          49.000  
  25431602.490     -175108.5933       3923.878          24.000  
  25696401.307      -38692.5562      -1032.338          32.000  
  24872896.739       -6509.4542        172.845          45.000  
  20777875.013      -97457.994         189.311          51.000  
  21326210.587       36235.7632      -1758.436          37.000  
  20375561.883     -729413.848        2012.922          48.000  
 16  9 24 21 29 43.6000000  0 12G18G20G21G 2G 4G 5G24G26G30G13G29G15
  22944220.707    -1025786.3882       2944.325          31.000  
  20000145.193     -283455.847         775.531          50.000  
  22025372.721     -987269.702        2826.594          46.000  
  24417349.173       46269.1233      -2480.800          31.000  
  21866978.491      421289.008       -1273.848          46.000  
  22568527.326      693752.368       -1986.311          49.000  
  25431452.976     -175893.4073       3924.583          24.000  
  25696440.535      -38486.1282      -1030.888          33.000  
  24872890.283       -6544.0242        173.395          45.000  
  20777867.753      -97495.831         189.064          52.000  
  21326277.631       36587.6812      -1759.828          37.000  
  20375485.346     -729816.402        2013.075          48.000  
 16  9 24 21 29 43.8000000  0 12G18G20G21G 2G 4G 5G24G26G30G13G29G15
  22944108.747    -1026375.3362       2945.125          31.000  
  20000115.632     -283610.986         775.620          50.000  
  22025265.193     -987834.979        2826.211          46.000  
  24417443.613       46765.4472      -2478.804          31.000  
  21867027.037      421543.787       -1273.781          46.000  
  22568602.955      694149.626       -1986.398          49.000  
  25431303.707     -176678.2933       3924.256          24.000  
  25696479.938      -38279.7082      -1032.061          32.000  
  24872883.896       -6578.5782        172.421          45.000  
  20777860.669      -97533.629         189.013          52.000  
  21326344.710       36939.6912      -1759.300          37.000  
  20375408.810     -730218.948        2012.794          48.000  
 16  9 24 21 29 44.0000000  0 12G18G20G21G 2G 4G 5G24G26G30G13G29G15
  22943996.752    -1026964.3752       2943.666          31.000  
  20000085.898     -283766.131         775.833          50.000  
  22025157.387     -988400.279        2826.304          46.000  
  24417538.159       47261.5802      -2479.698          31.000  
  21867075.655      421798.546       -1273.849          46.000  
  22568678.620      694546.855       -1986.027          49.000  
  25431155.241     -177463.2073       3924.916          24.000  
  25696519.551      -38073.3002      -1032.199          33.000  
  24872877.231       -6613.1232        172.777          45.000  
  20777853.480      -97571.447         188.859          52.000  
  21326411.719       37291.6462      -1759.026          37.000  
  20375332.344     -730621.491        2012.614          48.000  
 16  9 24 21 29 44.4000000  0 12G18G20G21G 2G 4G 5G24G26G30G13G29G15
  22943772.761    -1028142.2952       2946.540          31.000  
  20000027.021     -284076.351         775.501          50.000  
  22024942.156     -989530.811        2826.422          46.000  
  24417727.250       48253.9582      -2481.654          31.000  
  21867172.678      422308.174       -1274.694          46.000  
  22568829.879      695341.372       -1986.230          49.000  
  25430856.668     -179033.0263       3923.819          24.000  
  25696598.461      -37660.3692      -1032.047          32.000  
  24872864.632       -6682.1322        172.463          45.000  
  20777838.822      -97646.939         188.705          52.000  
  21326545.842       37995.6722      -1759.596          37.000  
  20375179.270     -731426.454        2012.247          48.000  
 16  9 24 21 29 44.6000000  0 12G18G20G21G 2G 4G 5G24G26G30G13G29G15
  22943660.626    -1028731.2472       2945.507          31.000  
  19999997.321     -284231.429         775.386          50.000  
  22024834.523     -990096.082        2826.342          46.000  
  24417821.830       48750.1582      -2480.948          31.000  
  21867221.294      422563.007       -1274.484          46.000  
  22568905.578      695738.639       -1986.417          49.000  
  25430707.329     -179817.9133       3924.737          24.000  
  25696637.689      -37453.8852      -1033.906          32.000  
  24872858.315       -6716.6022        172.234          45.000  
  20777831.702      -97684.657         188.252          52.000  
  21326612.781       38347.7402      -1759.052          37.000  
  20375102.490     -731828.905        2012.238          48.000  
 16  9 24 21 29 44.8000000  0 12G18G20G21G 2G 4G 5G24G26G30G13G29G15
  22943548.456    -1029320.1922       2944.190          31.000  
  19999967.795     -284386.487         775.103          50.000  
  22024726.959     -990661.337        2826.055          46.000  
  24417916.201       49246.4202      -2481.854          31.000  
  21867269.876      422817.884       -1274.360          46.000  
  22568981.103      696135.909       -1986.439          49.000  
  25430559.212     -180602.8593       3924.611          24.000  
  25696677.022      -37247.3642      -1033.146          32.000  
  24872852.068       -6751.0342        171.833          45.000  
  20777824.617      -97722.326         187.978          51.000  
  21326679.824       38699.7982      -1759.772          37.000  
  20375025.778     -732231.307        2012.239          48.000  
 16  9 24 21 29 45.0000000  0 12G18G20G21G 2G 4G 5G24G26G30G13G29G15
  22943436.496    -1029909.1842       2944.327          31.000  
  19999938.375     -284541.549         774.961          48.000  
  22024619.641     -991226.572        2826.323          44.000  
  24418010.677       49742.6272      -2481.233          30.000  
  21867318.388      423072.766       -1274.596          45.000  
  22569056.628      696533.189       -1986.214          47.000  
  25430409.280     -181387.7923       3924.034          24.000  
  25696716.634      -37040.8302      -1030.856          32.000  
  24872845.682       -6785.4472        171.993          44.000  
  20777817.603      -97759.987         188.132          50.000  
  21326747.009       39051.8862      -1760.252          37.000  
  20374949.347     -732633.708        2011.738          46.000  
 16  9 24 21 29 45.4000000  0 12G18G20G21G 2G 4G 5G24G26G30G13G29G15
  22943212.645    -1031087.0512       2944.573          31.000  
  19999879.183     -284851.632         775.618          49.000  
  22024404.410     -992357.066        2826.280          45.000  
  24418199.698       50735.1042      -2480.813          30.000  
  21867415.376      423582.571       -1274.319          45.000  
  22569208.061      697327.722       -1986.782          48.000  
  25430110.777     -182957.6393       3924.732          24.000  
  25696795.405      -36627.7862      -1032.439          32.000  
  24872832.838       -6854.2492        172.188          44.000  
  20777802.945      -97835.240         188.208          50.000  
  21326881.166       39756.1032      -1760.612          37.000  
  20374796.204     -733438.442        2011.787          47.000  
 16  9 24 21 29 45.6000000  0 12G18G20G21G 2G 4G 5G24G26G30G13G29G15
  22943100.510    -1031676.0192       2944.121          31.000  
  19999849.867     -285006.649         774.994          49.000  
  22024296.778     -992922.278        2826.464          45.000  
  24418294.278       51231.3362      -2481.076          30.000  
  21867463.923      423837.505       -1274.493          45.000  
  22569283.585      697725.007       -1986.366          48.000  
  25429961.159     -183742.6943       3926.070          24.000  
  25696834.772      -36421.2142      -1034.375          32.000  
  24872826.521       -6888.5972        172.069          44.000  
  20777795.860      -97872.819         187.886          50.000  
  21326948.175       40108.2432      -1760.466          36.000  
  20374719.667     -733840.764        2011.959          47.000  
 16  9 24 21 29 45.8000000  0 12G18G20G21G 2G 4G 5G24G26G30G13G29G15
  22942988.409    -1032264.9592       2945.645          31.000  
  19999820.446     -285161.665         774.869          49.000  
  22024189.249     -993487.516        2825.908          45.000  
  24418388.684       51727.5362      -2481.701          30.000  
  21867512.399      424092.454       -1274.912          45.000  
  22569359.215      698122.284       -1986.389          48.000  
  25429811.924     -184527.6893       3924.550          24.000  
  25696874.280      -36214.6523      -1033.354          31.000  
  24872819.925       -6922.9492        172.208          44.000  
  20777788.845      -97910.389         187.478          50.000  
  21327015.253       40460.3792      -1760.701          36.000  
  20374642.921     -734243.082        2010.885          47.000  
 16  9 24 21 29 46.0000000  0 12G18G20G21G 2G 4G 5G24G26G30G13G29G15
  22942876.450    -1032853.8402       2944.448          31.000  
  19999791.130     -285316.608         775.013          49.000  
  22024081.722     -994052.677        2826.364          46.000  
  24418483.125       52223.8262      -2482.670          30.000  
  21867561.017      424347.481       -1274.747          46.000  
  22569434.915      698519.616       -1986.121          48.000  
  25429662.970     -185312.6583       3923.927          24.000  
  25696913.543      -36008.0482      -1033.579          32.000  
  24872813.609       -6957.2222        172.080          45.000  
  20777781.866      -97947.873         187.503          51.000  
  21327082.403       40812.6042      -1761.190          37.000  
  20374566.455     -734645.310        2011.551          48.000  
 16  9 24 21 29 46.4000000  0 12G18G20G21G 2G 4G 5G24G26G30G13G29G15
  22942652.459    -1034031.7302       2945.035          31.000  
  19999732.253     -285626.578         774.345          49.000  
  22023866.770     -995183.118        2825.706          45.000  
  24418672.146       53216.3282      -2482.655          30.000  
  21867658.110      424857.461       -1275.585          46.000  
  22569586.103      699314.175       -1986.699          48.000  
  25429365.025     -186882.5553       3924.676          25.000  
  25696992.244      -35594.8973      -1036.091          32.000  
  24872800.731       -7025.8132        171.016          45.000  
  20777767.347      -98022.888         187.182          51.000  
  21327216.490       41516.9732      -1761.014          37.000  
  20374413.242     -735449.818        2010.945          48.000  
 16  9 24 21 29 46.6000000  0 12G18G20G21G 2G 4G 5G24G26G30G13G29G15
  22942540.463    -1034620.6112       2945.771          31.000  
  19999702.658     -285781.520         774.456          49.000  
  22023759.067     -995748.290        2826.421          45.000  
  24418766.517       53712.6002      -2481.988          30.000  
  21867706.517      425112.510       -1275.188          46.000  
  22569661.732      699711.493       -1986.450          48.000  
  25429216.349     -187667.5193       3925.027          25.000  
  25697031.647      -35388.3112      -1033.513          32.000  
  24872794.309       -7060.0382        171.609          45.000  
  20777760.018      -98060.334         187.282          51.000  
  21327283.464       41869.2402      -1761.063          37.000  
  20374336.706     -735852.012        2010.982          48.000  
 16  9 24 21 29 46.8000000  0 12G18G20G21G 2G 4G 5G24G26G30G13G29G15
  22942428.468    -1035209.5402       2944.015          31.000  
  19999673.272     -285936.450         774.299          49.000  
  22023651.434     -996313.477        2825.616          46.000  
  24418860.888       54208.8892      -2481.882          30.000  
  21867755.063      425367.563       -1275.724          46.000  
  22569737.327      700108.791       -1986.758          48.000  
  25429067.324     -188452.4693       3924.661          25.000  
  25697070.979      -35181.6303      -1032.830          31.000  
  24872787.783       -7094.2762        170.485          45.000  
  20777753.108      -98097.765         186.570          51.000  
  21327350.717       42221.4702      -1761.971          37.000  
  20374260.344     -736254.194        2010.347          48.000  
 16  9 24 21 29 47.0000000  0 12G18G20G21G 2G 4G 5G24G26G30G13G29G15
  22942316.543    -1035798.3952       2945.200          31.000  
  19999643.921     -286091.347         774.471          49.000  
  22023543.837     -996878.635        2825.560          46.000  
  24418955.469       54705.1532      -2477.669          30.000  
  21867803.750      425622.663       -1275.364          46.000  
  22569813.062      700506.119       -1986.444          48.000  
  25428918.649     -189237.4383       3924.991          25.000  
  25697110.627      -34974.9552      -1034.017          32.000  
  24872781.187       -7128.4562        171.134          45.000  
  20777746.129      -98135.144         186.668          51.000  
  21327417.797       42573.7472      -1762.538          37.000  
  20374183.843     -736656.315        2010.540          48.000  
 16  9 24 21 29 47.4000000  0 12G18G20G21G 2G 4G 5G24G26G30G13G29G15
  22942092.552    -1036976.1172       2943.684          31.000  
  19999584.974     -286401.064         774.199          49.000  
  22023328.816     -998008.872        2825.621          45.000  
  24419144.280       55697.8242      -2481.839          30.000  
  21867901.122      426132.960       -1275.916          46.000  
  22569964.180      701300.840       -1986.716          48.000  
  25428621.123     -190807.3903       3924.978          25.000  
  25697189.537      -34561.4813      -1032.579          31.000  
  24872768.344       -7196.7012        170.643          45.000  
  20777731.680      -98209.787         186.457          51.000  
  21327551.919       43278.4442      -1762.224          37.000  
  20374030.839     -737460.466        2009.986          48.000  
 16  9 24 21 29 47.6000000  0 12G18G20G21G 2G 4G 5G24G26G30G13G29G15
  22941980.556    -1037564.9662       2944.883          31.000  
  19999555.344     -286555.921         774.431          49.000  
  22023221.252     -998574.012        2825.290          45.000  
  24419238.860       56194.1752      -2482.570          29.000  
  21867949.634      426388.106       -1276.029          46.000  
  22570039.880      701698.169       -1986.943          48.000  
  25428471.819     -191592.3673       3926.184          25.000  
  25697228.835      -34354.8252      -1033.598          31.000  
  24872761.818       -7230.8332        170.565          45.000  
  20777724.491      -98247.095         186.308          51.000  
  21327619.242       43630.7912      -1762.659          37.000  
  20373954.338     -737862.525        2010.611          48.000  
 16  9 24 21 29 47.8000000  0 12G18G20G21G 2G 4G 5G24G26G30G13G29G15
  22941868.456    -1038153.8322       2944.100          31.000  
  19999525.888     -286710.749         774.191          49.000  
  22023113.689     -999139.131        2824.980          45.000  
  24419333.336       56690.5002      -2480.586          30.000  
  21867998.180      426643.295       -1275.690          46.000  
  22570115.509      702095.532       -1986.927          48.000  
  25428323.143     -192377.3403       3925.508          25.000  
  25697268.203      -34148.0592      -1034.030          31.000  
  24872755.221       -7264.9172        170.316          45.000  
  20777717.441      -98284.354         186.468          51.000  
  21327686.460       43983.1892      -1761.114          37.000  
  20373877.836     -738264.552        2010.142          48.000  
 16  9 24 21 29 48.0000000  0 12G18G20G21G 2G 4G 5G24G26G30G13G29G15
  22941756.496    -1038742.6282       2944.397          31.000  
  19999496.468     -286865.558         774.062          49.000  
  22023006.162     -999704.216        2825.345          45.000  
  24419427.917       57186.8332      -2481.819          30.000  
  21868046.867      426898.513       -1276.380          46.000  
  22570190.964      702492.908       -1986.864          48.000  
  25428173.840     -193162.3383       3924.286          25.000  
  25697307.676      -33941.3223      -1031.985          31.000  
  24872748.870       -7298.9592        169.686          45.000  
  20777710.357      -98321.585         185.942          51.000  
  21327753.714       44335.5952      -1761.912          37.000  
  20373801.335     -738666.537        2009.698          48.000  
 16  9 24 21 29 48.4000000  0 12G18G20G21G 2G 4G 5G24G26G30G13G29G15
  22941532.644    -1039920.231        2944.341          32.000  
  19999437.520     -287175.081         774.013          49.000  
  22022790.965    -1000834.359        2825.185          45.000  
  24419616.867       58179.5972      -2483.013          29.000  
  21868143.890      427409.038       -1276.567          46.000  
  22570342.013      703287.688       -1987.303          48.000  
  25427876.627     -194732.3473       3924.721          25.000  
  25697386.515      -33527.7792      -1034.325          31.000  
  24872735.538       -7366.9572        169.828          45.000  
  20777695.872      -98395.928         185.800          51.000  
  21327887.906       45040.519       -1761.514          37.000  
  20373648.330     -739470.408        2009.344          48.000  
 16  9 24 21 29 48.6000000  0 12G18G20G21G 2G 4G 5G24G26G30G13G29G15
  22941420.649    -1040509.084        2944.522          31.000  
  19999408.065     -287329.849         773.513          49.000  
  22022683.542    -1001399.411        2825.344          46.000  
  24419711.343       58676.0252      -2482.336          29.000  
  21868192.437      427664.331       -1276.497          46.000  
  22570417.678      703685.090       -1987.193          48.000  
  25427727.498     -195517.3113       3925.071          26.000  
  25697425.988      -33320.9492      -1034.829          31.000  
  24872728.907       -7400.9202        169.798          45.000  
  20777688.788      -98433.069         185.714          51.000  
  21327955.020       45392.969       -1762.307          37.000  
  20373572.004     -739872.305        2009.259          48.000  
 16  9 24 21 29 48.8000000  0 12G18G20G21G 2G 4G 5G24G26G30G13G29G15
  22941308.654    -1041097.925        2942.651          31.000  
  19999378.714     -287484.597         773.658          49.000  
  22022575.944    -1001964.483        2825.508          46.000  
  24419805.714       59172.3282      -2481.644          29.000  
  21868240.844      427919.632       -1276.585          46.000  
  22570493.097      704082.477       -1987.224          48.000  
  25427578.892     -196302.3573       3924.149          26.000  
  25697465.426      -33114.1212      -1035.469          31.000  
  24872722.311       -7434.8852        169.487          45.000  
  20777681.808      -98470.200         185.407          51.000  
  21328022.203       45745.453       -1763.141          37.000  
  20373495.502     -740274.196        2009.179          48.000  
 16  9 24 21 29 49.0000000  0 12G18G20G21G 2G 4G 5G24G26G30G13G29G15
  22941196.520    -1041686.723        2943.798          31.000  
  19999349.154     -287639.354         773.723          49.000  
  22022468.556    -1002529.559        2825.454          46.000  
  24419900.295       59668.7312      -2483.031          30.000  
  21868289.531      428174.924       -1276.616          46.000  
  22570568.762      704479.847       -1987.087          48.000  
  25427429.589     -197087.4213       3924.567          26.000  
  25697505.004      -32907.3262      -1031.683          31.000  
  24872715.751       -7468.8352        169.241          45.000  
  20777674.724      -98507.321         185.346          51.000  
  21328089.353       46097.950       -1762.795          37.000  
  20373419.036     -740676.084        2009.295          48.000  
 16  9 24 21 29 49.4000000  0 12G18G20G21G 2G 4G 5G24G26G30G13G29G15
  22940972.493    -1042864.207        2944.483          31.000  
  19999290.311     -287948.719         773.028          49.000  
  22022253.743    -1003659.591        2825.168          46.000  
  24420089.245       60661.5662      -2481.456          30.000  
  21868386.763      428685.678       -1276.751          46.000  
  22570719.671      705274.714       -1987.336          48.000  
  25427131.713     -198657.4043       3925.199          26.000  
  25697583.808      -32493.6212      -1034.497          31.000  
  24872702.523       -7536.5712        169.228          45.000  
  20777660.379      -98581.378         184.767          51.000  
  21328223.718       46803.068       -1762.832          37.000  
  20373266.451     -741479.677        2008.757          48.000  
 16  9 24 21 29 49.6000000  0 12G18G20G21G 2G 4G 5G24G26G30G13G29G15
  22940860.568    -1043453.060        2942.709          31.000  
  19999260.891     -288103.418         773.647          49.000  
  22022146.356    -1004224.623        2825.668          46.000  
  24420183.861       61157.9602      -2481.520          29.000  
  21868435.310      428941.055       -1276.601          46.000  
  22570795.162      705672.110       -1986.995          48.000  
  25426982.898     -199442.4333       3925.787          26.000  
  25697623.281      -32286.6862      -1036.740          31.000  
  24872695.857       -7570.4502        169.275          45.000  
  20777653.295      -98618.394         185.444          51.000  
  21328290.903       47155.609       -1763.041          37.000  
  20373190.124     -741881.460        2009.411          48.000  
 16  9 24 21 29 49.8000000  0 12G18G20G21G 2G 4G 5G24G26G30G13G29G15
  22940748.468    -1044041.845        2941.450          32.000  
  19999231.470     -288258.098         773.095          49.000  
  22022038.897    -1004789.663        2825.446          46.000  
  24420278.267       61654.3972      -2481.474          29.000  
  21868483.926      429196.448       -1277.070          46.000  
  22570870.895      706069.510       -1987.413          48.000  
  25426834.153     -200227.5333       3925.258          26.000  
  25697662.893      -32079.8382      -1034.461          31.000  
  24872689.157       -7604.3112        168.922          44.000  
  20777646.350      -98655.387         184.938          51.000  
  21328357.946       47508.208       -1763.082          37.000  
  20373113.413     -742283.232        2008.820          48.000  
 16  9 24 21 29 50.0000000  0 12G18G20G21G 2G 4G 5G24G26G30G13G29G15
  22940636.473    -1044630.548        2943.815          31.000  
  19999202.084     -288412.751         773.138          49.000  
  22021931.370    -1005354.667        2825.489          46.000  
  24420372.882       62150.8042      -2479.939          29.000  
  21868532.474      429451.871       -1276.950          46.000  
  22570946.351      706466.946       -1987.077          48.000  
  25426685.233     -201012.5353       3925.072          26.000  
  25697702.436      -31872.8932      -1033.232          31.000  
  24872682.526       -7638.1202        168.873          44.000  
  20777639.441      -98692.342         184.786          51.000  
  21328425.130       47860.818       -1762.266          37.000  
  20373036.982     -742684.967        2008.540          48.000  
 16  9 24 21 29 50.4000000  0 12G18G20G21G 2G 4G 5G24G26G30G13G29G15
  22940412.481    -1045808.087        2946.762          31.000  
  19999143.102     -288722.030         773.207          49.000  
  22021716.312    -1006484.687        2824.804          46.000  
  24420561.867       63143.6882      -2481.566          29.000  
  21868629.845      429962.773       -1277.502          46.000  
  22571097.644      707261.791       -1987.413          48.000  
  25426387.776     -202582.7073       3925.465          26.000  
  25697781.345      -31459.0912      -1034.382          31.000  
  24872669.124       -7705.6822        168.590          44.000  
  20777625.445      -98766.193         184.192          51.000  
  21328559.322       48566.083       -1763.511          37.000  
  20372884.117     -743488.369        2008.256          48.000  
 16  9 24 21 29 50.6000000  0 12G18G20G21G 2G 4G 5G24G26G30G13G29G15
  22940300.591    -1046396.835        2943.206          32.000  
  19999113.716     -288876.639         772.928          49.000  
  22021608.925    -1007049.662        2824.890          46.000  
  24420656.274       63640.1202      -2481.899          29.000  
  21868678.602      430218.262       -1277.810          46.000  
  22571173.378      707659.221       -1987.530          48.000  
  25426238.578     -203367.7663       3924.392          26.000  
  25697820.714      -31252.1582      -1036.731          31.000  
  24872662.459       -7739.4372        168.272          44.000  
  20777618.256      -98803.067         184.305          51.000  
  21328626.611       48918.762       -1763.125          37.000  
  20372807.896     -743890.014        2008.262          48.000  
 16  9 24 21 29 50.8000000  0 12G18G20G21G 2G 4G 5G24G26G30G13G29G15
  22940188.596    -1046985.559        2946.460          32.000  
  19999084.330     -289031.234         772.943          49.000  
  22021501.466    -1007614.639        2824.779          46.000  
  24420750.854       64136.5802      -2480.571          29.000  
  21868727.218      430473.771       -1277.441          47.000  
  22571248.938      708056.670       -1987.176          48.000  
  25426090.530     -204152.8623       3924.870          26.000  
  25697860.151      -31045.2342      -1035.638          31.000  
  24872655.862       -7773.1442        168.816          44.000  
  20777611.206      -98839.921         184.148          51.000  
  21328693.829       49271.457       -1762.965          37.000  
  20372731.394     -744291.639        2008.228          48.000  
 16  9 24 21 29 51.0000000  0 12G18G20G21G 2G 4G 5G24G26G30G13G29G15
  22940076.706    -1047574.344        2941.638          32.000  
  19999055.015     -289185.834         772.667          49.000  
  22021393.904    -1008179.627        2824.776          46.000  
  24420845.296       64633.0212      -2483.917          29.000  
  21868775.870      430729.285       -1277.688          47.000  
  22571324.498      708454.103       -1987.314          48.000  
  25425941.715     -204937.9193       3925.593          26.000  
  25697899.415      -30838.2102      -1034.411          31.000  
  24872649.337       -7806.8672        168.124          44.000  
  20777604.367      -98876.761         183.626          51.000  
  21328761.118       49624.142       -1763.485          37.000  
  20372655.137     -744693.263        2007.886          48.000  
 16  9 24 21 29 51.4000000  0 12G18G20G21G 2G 4G 5G24G26G30G13G29G15
  22939852.714    -1048751.808        2943.316          32.000  
  19998996.381     -289494.948         773.156          49.000  
  22021178.881    -1009309.549        2824.704          46.000  
  24421034.246       65625.9412      -2482.881          29.000  
  21868873.451      431240.407       -1277.904          47.000  
  22571475.721      709249.012       -1987.142          48.000  
  25425643.874     -206508.1453       3925.438          27.000  
  25697977.766      -30424.2843      -1035.613          31.000  
  24872635.969       -7874.1932        169.151          44.000  
  20777590.406      -98950.317         184.046          51.000  
  21328895.553       50329.613       -1762.818          37.000  
  20372502.272     -745496.390        2008.039          48.000  
 16  9 24 21 29 51.6000000  0 12G18G20G21G 2G 4G 5G24G26G30G13G29G15
  22939740.859    -1049340.521        2942.377          32.000  
  19998966.821     -289649.504         772.665          49.000  
  22021071.459    -1009874.513        2825.130          46.000  
  24421128.687       66122.3642      -2483.246          29.000  
  21868922.068      431495.964       -1278.143          47.000  
  22571551.386      709646.452       -1987.441          48.000  
  25425494.780     -207293.2523       3925.116          27.000  
  25698017.169      -30217.2852      -1033.865          31.000  
  24872629.444       -7907.8442        168.112          44.000  
  20777583.287      -98987.086         183.555          51.000  
  21328962.738       50682.378       -1764.594          37.000  
  20372425.772     -745897.939        2007.669          48.000  
 16  9 24 21 29 51.8000000  0 12G18G20G21G 2G 4G 5G24G26G30G13G29G15
  22939628.689    -1049929.196        2945.760          32.000  
  19998937.365     -289803.994         772.600          49.000  
  22020963.931    -1010439.421        2824.869          46.000  
  24421223.128       66618.9102      -2478.319          29.000  
  21868970.649      431751.609       -1278.159          47.000  
  22571626.945      710043.953       -1987.595          48.000  
  25425346.000     -208078.3813       3924.695          27.000  
  25698056.746      -30010.1883      -1036.243          31.000  
  24872622.743       -7941.4242        167.812          44.000  
  20777576.237      -99023.769         183.445          51.000  
  21329029.816       51035.176       -1763.392          37.000  
  20372349.270     -746299.410        2007.674          48.000  
 16  9 24 21 29 52.0000000  0 12G18G20G21G 2G 4G 5G24G26G30G13G29G15
  22939516.694    -1050517.8923       2943.943          32.000  
  19998907.945     -289958.499         772.249          49.000  
  22020856.508    -1011004.337        2825.040          46.000  
  24421317.709       67115.4393      -2482.338          28.000  
  21869019.301      432007.260       -1278.099          47.000  
  22571702.540      710441.437       -1987.593          48.000  
  25425196.766     -208863.4603       3925.252          27.000  
  25698096.080      -29803.1523      -1035.950          30.000  
  24872616.008       -7974.9992        167.708          44.000  
  20777569.327      -99060.442         183.427          51.000  
  21329097.000       51387.993       -1764.366          37.000  
  20372273.153     -746700.879        2007.653          48.000  
 16  9 24 21 29 52.4000000  0 12G18G20G21G 2G 4G 5G24G26G30G13G29G15
  22939292.982    -1051695.2452       2941.669          32.000  
  19998849.172     -290267.441         772.129          49.000  
  22020641.590    -1012134.154        2824.717          46.000  
  24421506.624       68108.4542      -2481.669          28.000  
  21869116.743      432518.606       -1278.300          47.000  
  22571853.728      711236.414       -1987.481          48.000  
  25424898.681     -210433.7343       3926.147          27.000  
  25698174.780      -29388.9792      -1036.655          31.000  
  24872602.640       -8042.0802        167.654          43.000  
  20777555.366      -99133.716         182.888          51.000  
  21329231.296       52093.699       -1764.170          37.000  
  20372120.288     -747503.728        2006.985          48.000  
 16  9 24 21 29 52.6000000  0 12G18G20G21G 2G 4G 5G24G26G30G13G29G15
  22939181.022    -1052283.9212       2943.145          32.000  
  19998819.926     -290421.880         771.962          49.000  
  22020534.202    -1012699.040        2823.932          46.000  
  24421601.205       68604.9412      -2481.742          28.000  
  21869165.534      432774.325       -1278.598          47.000  
  22571929.323      711633.917       -1987.651          48.000  
  25424750.006     -211218.8313       3925.182          27.000  
  25698214.253      -29181.8322      -1035.736          31.000  
  24872596.010       -8075.5652        167.185          43.000  
  20777548.387      -99170.304         182.613          51.000  
  21329298.620       52446.580       -1765.030          37.000  
  20372043.997     -747905.109        2006.427          48.000  
 16  9 24 21 29 52.8000000  0 12G18G20G21G 2G 4G 5G24G26G30G13G29G15
  22939069.026    -1052872.5782       2944.342          32.000  
  19998790.470     -290576.305         772.264          49.000  
  22020426.779    -1013263.907        2824.177          46.000  
  24421695.506       69101.5532      -2484.029          28.000  
  21869214.151      433030.050       -1278.879          47.000  
  22572004.953      712031.438       -1987.707          48.000  
  25424601.470     -212003.9393       3925.443          27.000  
  25698253.586      -28974.7852      -1038.809          31.000  
  24872589.169       -8109.0242        167.338          43.000  
  20777541.198      -99206.858         182.862          51.000  
  21329365.804       52799.503       -1764.109          37.000  
  20371967.460     -748306.449        2007.368          48.000  
 16  9 24 21 29 53.0000000  0 12G18G20G21G 2G 4G 5G24G26G30G13G29G15
  22938957.241    -1053461.2342       2944.751          32.000  
  19998761.015     -290730.740         772.111          49.000  
  22020319.426    -1013828.789        2824.781          46.000  
  24421790.052       69598.0832      -2479.582          28.000  
  21869262.838      433285.792       -1278.419          47.000  
  22572080.478      712428.947       -1987.324          48.000  
  25424452.411     -212789.1033       3926.492          27.000  
  25698292.849      -28767.5902      -1031.900          31.000  
  24872582.504       -8142.5042        167.913          43.000  
  20777534.288      -99243.412         182.787          51.000  
  21329433.058       53152.410       -1764.853          37.000  
  20371891.099     -748707.811        2006.507          48.000  
 16  9 24 21 29 53.4000000  0 12G18G20G21G 2G 4G 5G24G26G30G13G29G15
  22938733.214    -1054638.5082       2942.654          32.000  
  19998702.451     -291039.512         771.690          49.000  
  22020104.369    -1014958.501        2823.985          46.000  
  24421979.072       70591.1842      -2482.609          27.000  
  21869360.279      433797.370       -1278.982          47.000  
  22572231.771      713224.014       -1987.708          48.000  
  25424154.779     -214359.3913       3925.086          27.000  
  25698371.444      -28353.3453      -1035.702          31.000  
  24872569.102       -8209.3322        166.862          43.000  
  20777520.676      -99316.386         182.298          51.000  
  21329567.528       53858.339       -1764.926          37.000  
  20371738.408     -749510.380        2006.144          48.000  
 16  9 24 21 29 53.6000000  0 12G18G20G21G 2G 4G 5G24G26G30G13G29G15
  22938621.290    -1055227.1652       2943.117          32.000  
  19998673.031     -291193.884         771.794          49.000  
  22019997.085    -1015523.347        2824.006          46.000  
  24422073.548       71087.7202      -2484.435          27.000  
  21869409.105      434053.184       -1278.901          47.000  
  22572307.226      713621.551       -1987.359          48.000  
  25424005.511     -215144.5273       3925.437          27.000  
  25698410.987      -28146.1832      -1036.981          31.000  
  24872562.576       -8242.7042        167.380          43.000  
  20777513.837      -99352.845         182.169          51.000  
  21329634.782       54211.308       -1765.523          37.000  
  20371661.873     -749911.637        2005.912          48.000  
 16  9 24 21 29 53.8000000  0 12G18G20G21G 2G 4G 5G24G26G30G13G29G15
  22938509.364    -1055815.7662       2944.030          32.000  
  19998643.610     -291348.239         771.912          49.000  
  22019889.522    -1016088.184        2823.997          46.000  
  24422168.094       71584.3202      -2483.945          27.000  
  21869457.896      434309.012       -1278.575          47.000  
  22572382.890      714019.078       -1987.522          48.000  
  25423856.137     -215929.6973       3925.129          27.000  
  25698450.355      -27938.9312      -1037.107          31.000  
  24872556.050       -8276.0832        166.699          43.000  
  20777506.822      -99389.275         182.109          51.000  
  21329701.826       54564.310       -1764.843          37.000  
  20371585.441     -750312.857        2006.084          48.000  
 16  9 24 21 29 54.0000000  0 12G18G20G21G 2G 4G 5G24G26G30G13G29G15
  22938397.404    -1056404.4042       2943.704          32.000  
  19998614.260     -291502.572         771.739          49.000  
  22019782.239    -1016653.002        2823.798          46.000  
  24422262.605       72080.8952      -2481.458          27.000  
  21869506.618      434564.877       -1279.766          47.000  
  22572458.486      714416.627       -1987.678          48.000  
  25423706.938     -216714.8853       3925.452          27.000  
  25698489.689      -27731.7722      -1036.240          31.000  
  24872549.454       -8309.4042        165.848          43.000  
  20777499.773      -99425.671         181.639          51.000  
  21329769.080       54917.339       -1764.850          37.000  
  20371509.114     -750714.062        2005.810          48.000  
 16  9 24 21 29 54.4000000  0 12G18G20G21G 2G 4G 5G24G26G30G13G29G15
  22938173.412    -1057581.6532       2944.617          32.000  
  19998555.242     -291811.252         771.344          49.000  
  22019567.182    -1017782.670        2824.581          46.000  
  24422451.241       73074.0502      -2481.905          27.000  
  21869603.850      435076.619       -1279.272          47.000  
  22572609.604      715211.692       -1987.481          48.000  
  25423408.644     -218285.2473       3926.151          27.000  
  25698568.039      -27317.3072      -1037.295          31.000  
  24872535.738       -8376.527         166.535          42.000  
  20777486.195      -99498.407         182.124          51.000  
  21329903.306       55623.439       -1764.975          37.000  
  20371356.494     -751516.422        2005.753          48.000  
 16  9 24 21 29 54.6000000  0 12G18G20G21G 2G 4G 5G24G26G30G13G29G15
  22938061.662    -1058170.2392       2943.898          32.000  
  19998525.927     -291965.550         771.405          49.000  
  22019459.724    -1018347.488        2824.113          46.000  
  24422545.682       73570.7023      -2482.260          27.000  
  21869652.641      435332.519       -1279.505          47.000  
  22572685.234      715609.238       -1987.810          48.000  
  25423259.515     -219070.4883       3925.385          27.000  
  25698607.303      -27110.1003      -1033.721          30.000  
  24872529.352       -8409.803         166.083          42.000  
  20777479.286      -99534.737         181.481          51.000  
  21329970.455       55976.513       -1766.033          37.000  
  20371280.237     -751917.550        2005.471          48.000  
 16  9 24 21 29 54.8000000  0 12G18G20G21G 2G 4G 5G24G26G30G13G29G15
  22937949.666    -1058758.8842       2942.845          32.000  
  19998496.471     -292119.841         771.644          49.000  
  22019352.405    -1018912.300        2824.313          46.000  
  24422639.913       74067.2453      -2484.396          27.000  
  21869701.223      435588.444       -1279.888          47.000  
  22572760.863      716006.790       -1987.702          48.000  
  25423110.560     -219855.7023       3925.596          27.000  
  25698646.706      -26902.8233      -1032.978          30.000  
  24872522.755       -8443.075         166.466          42.000  
  20777472.166      -99571.048         181.604          51.000  
  21330037.604       56329.598       -1765.631          37.000  
  20371203.840     -752318.675        2005.652          48.000  
 16  9 24 21 29 55.0000000  0 12G18G20G21G 2G 4G 5G24G26G30G13G29G15
  22937837.881    -1059347.4792       2942.531          32.000  
  19998467.050     -292274.128         771.520          49.000  
  22019245.053    -1019477.116        2823.583          46.000  
  24422734.215       74563.8372      -2484.878          27.000  
  21869750.119      435844.381       -1279.709          47.000  
  22572836.423      716404.336       -1988.018          48.000  
  25422961.187     -220640.9073       3926.267          27.000  
  25698686.074      -26695.5202      -1036.132          31.000  
  24872516.090       -8476.304         165.905          42.000  
  20777465.257      -99607.325         181.058          51.000  
  21330104.858       56682.709       -1765.902          37.000  
  20371127.514     -752719.765        2005.399          48.000  
 16  9 24 21 29 55.4000000  0 12G18G20G21G 2G 4G 5G24G26G30G13G29G15
  22937613.889    -1060524.6272       2941.989          32.000  
  19998408.277     -292582.590         771.323          49.000  
  22019030.240    -1020606.640        2823.859          46.000  
  24422922.432       75557.0593      -2483.289          26.000  
  21869847.735      436356.384       -1280.121          47.000  
  22572987.646      717199.514       -1988.020          48.000  
  25422662.613     -222211.3033       3925.820          27.000  
  25698764.983      -26280.9913      -1036.990          30.000  
  24872502.618       -8542.649         165.676          42.000  
  20777451.540      -99679.742         180.771          51.000  
  21330239.224       57389.037       -1765.308          37.000  
  20370974.928     -753521.822        2004.904          48.000  
 16  9 24 21 29 55.6000000  0 12G18G20G21G 2G 4G 5G24G26G30G13G29G15
  22937501.860    -1061113.1932       2941.073          32.000  
  19998378.962     -292736.783         770.890          49.000  
  22018922.991    -1021171.358        2823.775          46.000  
  24423016.490       76053.6953      -2483.473          26.000  
  21869896.422      436612.436       -1280.785          47.000  
  22573063.136      717597.122       -1988.431          48.000  
  25422512.960     -222996.5463       3925.809          27.000  
  25698804.457      -26073.6402      -1037.151          31.000  
  24872495.953       -8575.765         165.414          42.000  
  20777444.840      -99715.890         180.642          51.000  
  21330306.129       57742.265       -1765.975          37.000  
  20370898.671     -753922.790        2005.153          48.000  
 16  9 24 21 29 55.8000000  0 12G18G20G21G 2G 4G 5G24G26G30G13G29G15
  22937389.829    -1061701.6952       2940.316          32.000  
  19998349.506     -292890.939         770.780          49.000  
  22018815.672    -1021736.074        2823.623          46.000  
  24423110.826       76550.4353      -2483.309          26.000  
  21869945.282      436868.526       -1280.683          47.000  
  22573138.696      717994.760       -1988.021          48.000  
  25422363.307     -223781.6923       3926.147          27.000  
  25698843.685      -25866.2342      -1037.991          31.000  
  24872489.147       -8608.843         165.439          42.000  
  20777438.034      -99751.996         180.438          51.000  
  21330373.277       58095.479       -1766.052          37.000  
  20370822.205     -754323.722        2004.376          48.000  
 16  9 24 21 29 56.0000000  0 12G18G20G21G 2G 4G 5G24G26G30G13G29G15
  22937278.043    -1062290.2083       2942.792          32.000  
  19998320.120     -293045.102         771.326          49.000  
  22018708.179    -1022300.772        2823.930          46.000  
  24423204.778       77047.0913      -2483.364          26.000  
  21869993.934      437124.627       -1280.082          47.000  
  22573214.290      718392.380       -1988.133          48.000  
  25422213.515     -224566.9113       3925.808          27.000  
  25698882.878      -25658.8882      -1037.225          30.000  
  24872482.551       -8641.911         165.515          41.000  
  20777430.915      -99788.092         180.576          51.000  
  21330440.495       58448.752       -1765.271          37.000  
  20370745.912     -754724.638        2004.861          48.000  
 16  9 24 21 29 56.2000000  0 12G18G20G21G 2G 4G 5G24G26G30G13G29G15
  22937166.118    -1062878.7442       2940.937          32.000  
  19998290.804     -293199.261         770.539          49.000  
  22018600.861    -1022865.502        2823.103          46.000  
  24423298.347       77543.7533      -2484.427          26.000  
  21870042.865      437380.726       -1280.418          47.000  
  22573289.746      718789.998       -1988.083          48.000  
  25422064.177     -225352.1353       3926.479          27.000  
  25698922.142      -25451.5322      -1037.595          30.000  
  24872475.956       -8674.979         165.037          41.000  
  20777424.005      -99824.174         180.231          51.000  
  21330507.749       58802.010       -1766.826          37.000  
  20370669.656     -755125.537        2004.073          48.000  
 16  9 24 21 29 56.4000000  0 12G18G20G21G 2G 4G 5G24G26G30G13G29G15
  22937054.158    -1063467.2582       2942.049          32.000  
  19998261.488     -293353.408         770.456          49.000  
  22018493.298    -1023430.210        2823.767          46.000  
  24423392.613       78040.4453      -2483.052          26.000  
  21870091.760      437636.840       -1280.938          47.000  
  22573365.410      719187.616       -1988.295          48.000  
  25421914.489     -226137.3423       3927.331          27.000  
  25698961.509      -25244.1062      -1036.964          30.000  
  24872469.325       -8708.028         165.153          41.000  
  20777417.165      -99860.232         180.102          51.000  
  21330574.967       59155.301       -1766.240          37.000  
  20370593.503     -755526.419        2004.133          48.000  
 16  9 24 21 29 56.6000000  0 12G18G20G21G 2G 4G 5G24G26G30G13G29G15
  22936942.338    -1064055.7962       2942.961          32.000  
  19998232.172     -293507.539         770.723          49.000  
  22018385.875    -1023994.909        2823.565          46.000  
  24423486.566       78537.1683      -2483.810          26.000  
  21870140.622      437892.982       -1280.704          47.000  
  22573441.180      719585.230       -1988.047          48.000  
  25421764.871     -226922.6003       3925.667          27.000  
  25699000.878      -25036.7202      -1037.667          30.000  
  24872462.869       -8741.047         164.887          41.000  
  20777410.395      -99896.262         179.952          51.000  
  21330642.152       59508.590       -1766.837          37.000  
  20370517.142     -755927.276        2004.001          48.000  
 16  9 24 21 29 56.8000000  0 12G18G20G21G 2G 4G 5G24G26G30G13G29G15
  22936830.377    -1064644.2912       2942.939          32.000  
  19998202.960     -293661.652         770.482          49.000  
  22018278.347    -1024559.614        2823.332          46.000  
  24423580.622       79033.8443      -2483.003          26.000  
  21870189.447      438149.139       -1281.222          48.000  
  22573516.704      719982.860       -1988.302          48.000  
  25421615.113     -227707.8433       3926.326          27.000  
  25699040.176      -24829.3113      -1042.565          30.000  
  24872456.377       -8774.028         164.901          41.000  
  20777403.589      -99932.267         179.588          51.000  
  21330709.475       59861.913       -1766.907          37.000  
  20370440.954     -756328.108        2003.688          48.000  
 16  9 24 21 29 57.0000000  0 12G18G20G21G 2G 4G 5G24G26G30G13G29G15
  22936718.521    -1065232.7822       2943.778          32.000  
  19998173.470     -293815.721         769.826          49.000  
  22018170.958    -1025124.251        2823.172          46.000  
  24423674.260       79530.5633      -2483.916          26.000  
  21870238.343      438405.358       -1281.289          48.000  
  22573592.403      720380.533       -1988.310          48.000  
  25421466.054     -228493.0603       3925.677          27.000  
  25699079.474      -24621.8312      -1034.789          30.000  
  24872449.921       -8806.950         165.197          41.000  
  20777396.714      -99968.201         179.648          51.000  
  21330776.658       60215.299       -1767.582          37.000  
  20370364.731     -756728.875        2003.244          48.000  
 16  9 24 21 29 57.2000000  0 12G18G20G21G 2G 4G 5G24G26G30G13G29G15
  22936606.457    -1065821.2182       2941.116          32.000  
  19998144.049     -293969.731         770.687          49.000  
  22018063.710    -1025688.867        2823.580          46.000  
  24423768.108       80027.3523      -2483.065          26.000  
  21870287.274      438661.625       -1281.331          48.000  
  22573668.138      720778.236       -1988.282          48.000  
  25421316.646     -229278.3053       3925.939          27.000  
  25699118.912      -24414.2872      -1033.905          30.000  
  24872443.430       -8839.845         164.768          41.000  
  20777389.944     -100004.088         179.303          51.000  
  21330843.772       60568.715       -1767.145          37.000  
  20370288.579     -757129.595        2003.821          48.000  
 16  9 24 21 29 57.4000000  0 12G18G20G21G 2G 4G 5G24G26G30G13G29G15
  22936494.322    -1066409.6602       2942.848          32.000  
  19998114.733     -294123.767         770.252          49.000  
  22017956.252    -1026253.499        2823.335          46.000  
  24423862.584       80524.0833      -2483.884          26.000  
  21870335.856      438917.887       -1281.464          48.000  
  22573743.628      721175.914       -1988.683          48.000  
  25421166.853     -230063.5363       3926.085          27.000  
  25699158.384      -24206.7852      -1040.292          31.000  
  24872436.869       -8872.732         164.195          41.000  
  20777382.999     -100039.960         179.490          51.000  
  21330910.990       60922.128       -1767.120          37.000  
  20370212.392     -757530.299        2003.366          48.000  
 16  9 24 21 29 57.6000000  0 12G18G20G21G 2G 4G 5G24G26G30G13G29G15
  22936382.432    -1066998.1242       2942.171          32.000  
  19998085.417     -294277.790         769.978          49.000  
  22017848.899    -1026818.130        2823.031          46.000  
  24423956.920       81020.8163      -2483.580          25.000  
  21870384.787      439174.161       -1281.828          48.000  
  22573819.258      721573.590       -1988.534          48.000  
  25421016.852     -230848.7463       3925.987          27.000  
  25699197.858      -23999.2832      -1039.725          31.000  
  24872430.483       -8905.606         164.754          41.000  
  20777376.090     -100075.832         179.011          51.000  
  21330978.244       61275.581       -1767.077          37.000  
  20370136.240     -757930.995        2003.268          48.000  
 16  9 24 21 29 57.8000000  0 12G18G20G21G 2G 4G 5G24G26G30G13G29G15
  22936270.611    -1067586.5812       2942.242          32.000  
  19998056.101     -294431.798         769.523          49.000  
  22017741.545    -1027382.743        2822.965          46.000  
  24424051.082       81517.6223      -2482.941          25.000  
  21870433.508      439430.466       -1281.646          48.000  
  22573894.817      721971.284       -1988.905          48.000  
  25420867.687     -231633.9653       3926.419          27.000  
  25699237.121      -23791.7993      -1042.657          31.000  
  24872423.852       -8938.447         164.013          41.000  
  20777369.354     -100111.656         179.099          51.000  
  21331045.463       61629.038       -1767.702          37.000  
  20370060.262     -758331.661        2002.803          48.000  
 16  9 24 21 29 58.0000000  0 12G18G20G21G 2G 4G 5G24G26G30G13G29G15
  22936158.685    -1068175.0102       2942.126          32.000  
  19998026.889     -294585.758         769.679          49.000  
  22017634.087    -1027947.323        2822.925          46.000  
  24424145.418       82014.3833      -2484.291          25.000  
  21870482.438      439686.809       -1282.110          48.000  
  22573970.412      722369.005       -1988.859          48.000  
  25420718.034     -232419.1853       3926.271          27.000  
  25699276.453      -23584.2222      -1037.611          30.000  
  24872417.430       -8971.232         164.068          41.000  
  20777362.653     -100147.438         178.775          51.000  
  21331112.681       61982.530       -1768.036          37.000  
  20369984.109     -758732.269        2002.750          48.000  
 16  9 24 21 29 58.2000000  0 12G18G20G21G 2G 4G 5G24G26G30G13G29G15
  22936046.760    -1068763.4452       2942.249          32.000  
  19997997.434     -294739.734         769.909          49.000  
  22017526.734    -1028511.927        2823.213          46.000  
  24424239.615       82511.1983      -2483.385          25.000  
  21870531.195      439943.154       -1281.642          48.000  
  22574046.042      722766.702       -1988.612          48.000  
  25420568.661     -233204.4453       3927.162          27.000  
  25699315.996      -23376.6413      -1035.785          30.000  
  24872411.009       -9004.035         163.527          41.000  
  20777355.743     -100183.214         179.049          51.000  
  21331179.865       62336.029       -1766.993          37.000  
  20369908.097     -759132.885        2002.940          48.000  
 16  9 24 21 29 58.4000000  0 12G18G20G21G 2G 4G 5G24G26G30G13G29G15
  22935934.800    -1069351.8582       2942.290          32.000  
  19997968.118     -294893.708         769.683          49.000  
  22017419.240    -1029076.537        2823.123          46.000  
  24424333.811       83007.9783      -2483.106          25.000  
  21870579.986      440199.496       -1281.849          48.000  
  22574121.636      723164.386       -1988.596          48.000  
  25420418.834     -233989.7283       3926.179          27.000  
  25699355.329      -23169.0472      -1036.983          30.000  
  24872404.483       -9036.822         163.692          41.000  
  20777348.903     -100218.982         178.728          51.000  
  21331246.979       62689.527       -1767.470          37.000  
  20369831.804     -759533.490        2002.476          48.000  
 16  9 24 21 29 58.6000000  0 12G18G20G21G 2G 4G 5G24G26G30G13G29G15
  22935822.805    -1069940.3112       2943.344          32.000  
  19997938.698     -295047.670         769.640          49.000  
  22017311.818    -1029641.136        2822.867          46.000  
  24424428.462       83504.7173      -2483.737          25.000  
  21870628.777      440455.863       -1281.609          48.000  
  22574197.301      723562.079       -1988.474          48.000  
  25420269.880     -234775.0433       3925.935          27.000  
  25699394.698      -22961.4522      -1036.577          30.000  
  24872397.957       -9069.579         163.453          40.000  
  20777342.133     -100254.725         178.724          51.000  
  21331314.093       63043.046       -1767.632          37.000  
  20369755.583     -759934.066        2003.006          48.000  
 16  9 24 21 29 58.8000000  0 12G18G20G21G 2G 4G 5G24G26G30G13G29G15
  22935710.775    -1070528.7612       2942.471          32.000  
  19997909.312     -295201.628         769.841          49.000  
  22017204.534    -1030205.734        2822.944          46.000  
  24424522.763       84001.5273      -2483.392          25.000  
  21870677.603      440712.245       -1281.727          48.000  
  22574272.825      723959.759       -1988.394          48.000  
  25420120.366     -235560.3383       3927.445          27.000  
  25699434.100      -22753.9142      -1038.738          31.000  
  24872391.640       -9102.336         163.784          40.000  
  20777335.467     -100290.444         178.857          51.000  
  21331381.241       63396.562       -1767.053          37.000  
  20369679.220     -760334.623        2002.914          48.000  
 16  9 24 21 29 59.0000000  0 12G18G20G21G 2G 4G 5G24G26G30G13G29G15
  22935598.814    -1071117.1752       2939.918          32.000  
  19997880.239     -295355.528         769.434          49.000  
  22017097.110    -1030770.297        2822.952          46.000  
  24424616.436       84498.3143      -2484.051          25.000  
  21870726.359      440968.672       -1282.178          48.000  
  22574348.559      724357.494       -1988.870          48.000  
  25419971.097     -236345.6133       3927.015          27.000  
  25699473.538      -22546.2782      -1036.453          31.000  
  24872385.323       -9135.035         163.293          40.000  
  20777328.836     -100326.111         178.009          51.000  
  21331448.634       63750.167       -1767.641          37.000  
  20369603.033     -760735.126        2002.580          48.000  
 16  9 24 21 29 59.4000000  0 12G18G20G21G 2G 4G 5G24G26G30G13G29G15
  22935374.753    -1072293.8882       2942.209          32.000  
  19997821.362     -295663.254         769.312          49.000  
  22016882.612    -1031899.332        2822.444          46.000  
  24424805.736       85492.0143      -2483.808          25.000  
  21870824.150      441481.646       -1282.494          48.000  
  22574499.643      725152.999       -1988.980          48.000  
  25419672.175     -237916.1473       3926.076          27.000  
  25699552.692      -22130.9292      -1038.005          31.000  
  24872372.724       -9200.294         163.028          40.000  
  20777314.841     -100397.298         177.780          51.000  
  21331583.140       64457.439       -1768.894          36.000  
  20369450.657     -761536.011        2001.897          48.000  
 16  9 24 21 29 59.6000000  0 12G18G20G21G 2G 4G 5G24G26G30G13G29G15
  22935262.933    -1072882.2312       2942.599          32.000  
  19997792.221     -295817.082         769.118          49.000  
  22016775.050    -1032463.845        2822.478          46.000  
  24424900.491       85988.9043      -2485.054          25.000  
  21870872.872      441738.169       -1282.505          48.000  
  22574575.343      725550.770       -1989.015          48.000  
  25419522.662     -238701.4373       3926.375          27.000  
  25699592.235      -21923.2532      -1039.747          31.000  
  24872366.338       -9232.903         162.949          40.000  
  20777308.211     -100432.846         177.751          51.000  
  21331650.429       64811.104       -1768.646          36.000  
  20369374.540     -761936.406        2001.886          48.000  
 16  9 24 21 29 59.8000000  0 12G18G20G21G 2G 4G 5G24G26G30G13G29G15
  22935151.042    -1073470.6332       2942.939          32.000  
  19997762.731     -295970.933         769.458          49.000  
  22016667.591    -1033028.377        2822.258          46.000  
  24424994.687       86485.7343      -2483.773          26.000  
  21870921.663      441994.675       -1282.883          48.000  
  22574650.798      725948.505       -1988.615          48.000  
  25419373.637     -239486.6763       3927.939          27.000  
  25699631.708      -21715.5972      -1041.163          31.000  
  24872359.952       -9265.509         163.306          40.000  
  20777301.580     -100468.408         177.746          51.000  
  21331717.613       65164.773       -1768.108          36.000  
  20369298.318     -762336.814        2001.643          48.000  
 16  9 24 21 30  0.0000000  0 12G18G20G21G 2G 4G 5G24G26G30G13G29G15
  22935039.012    -1074058.9532       2943.561          32.000  
  19997733.554     -296124.735         769.217          49.000  
  22016560.238    -1033592.856        2822.439          46.000  
  24425089.058       86982.6183      -2483.407          26.000  
  21870970.558      442251.237       -1282.636          48.000  
  22574726.532      726346.283       -1988.641          48.000  
  25419224.333     -240272.0263       3926.635          27.000  
  25699671.145      -21507.8052      -1036.350          31.000  
  24872353.670       -9298.062         163.271          40.000  
  20777294.879     -100503.908         177.576          51.000  
  21331784.831       65518.484       -1767.762          36.000  
  20369222.060     -762737.162        2001.856          48.000  
 16  9 24 21 30  0.4000000  0 12G18G20G21G 2G 4G 5G24G26G30G13G29G15
  22934815.056    -1075235.5992       2942.674          32.000  
  19997675.096     -296432.294         768.455          49.000  
  22016345.356    -1034721.798        2822.389          46.000  
  24425278.253       87976.3753      -2484.509          26.000  
  21871068.245      442764.446       -1283.369          48.000  
  22574877.756      727141.870       -1988.778          48.000  
  25418925.376     -241842.5913       3926.738          27.000  
  25699750.439      -21092.3342      -1038.808          31.000  
  24872341.105       -9363.086         162.268          40.000  
  20777281.337     -100574.808         177.016          51.000  
  21331919.163       66225.984       -1768.182          36.000  
  20369069.755     -763537.774        2000.939          48.000  
 16  9 24 21 30  0.6000000  0 12G18G20G21G 2G 4G 5G24G26G30G13G29G15
  22934703.236    -1075823.9162       2941.732          32.000  
  19997645.850     -296586.048         768.690          49.000  
  22016237.898    -1035286.268        2822.174          46.000  
  24425373.044       88473.3073      -2484.504          26.000  
  21871117.071      443021.070       -1283.344          48.000  
  22574953.246      727539.662       -1989.060          48.000  
  25418775.445     -242627.8703       3926.846          27.000  
  25699790.156      -20884.5772      -1039.104          31.000  
  24872334.789       -9395.558         163.066          40.000  
  20777274.533     -100610.227         176.899          51.000  
  21331986.487       66579.773       -1768.607          36.000  
  20368993.673     -763938.036        2000.993          48.000  
 16  9 24 21 30  0.8000000  0 12G18G20G21G 2G 4G 5G24G26G30G13G29G15
  22934591.310    -1076412.2432       2942.195          32.000  
  19997616.254     -296739.796         768.642          49.000  
  22016130.544    -1035850.719        2822.226          46.000  
  24425467.659       88970.1723      -2484.331          26.000  
  21871165.897      443277.720       -1283.181          48.000  
  22575028.771      727937.452       -1989.101          48.000  
  25418626.839     -243413.2083       3926.979          27.000  
  25699829.594      -20676.7932      -1039.837          31.000  
  24872328.298       -9428.019         162.677          40.000  
  20777267.762     -100645.618         176.977          51.000  
  21332053.914       66933.561       -1767.350          36.000  
  20368917.485     -764338.274        2001.552          48.000  
 16  9 24 21 30  1.0000000  0 12G18G20G21G 2G 4G 5G24G26G30G13G29G15
  22934479.454    -1077000.5292       2940.478          32.000  
  19997587.147     -296893.488         768.509          49.000  
  22016023.051    -1036415.135        2822.080          46.000  
  24425562.274       89467.1323      -2485.116          26.000  
  21871214.897      443534.418       -1283.623          48.000  
  22575104.435      728335.299       -1989.131          48.000  
  25418477.046     -244198.4873       3926.445          27.000  
  25699869.241      -20468.9672      -1039.845          31.000  
  24872321.876       -9460.418         162.712          40.000  
  20777261.166     -100680.956         176.798          51.000  
  21332121.097       67287.397       -1769.175          36.000  
  20368841.298     -764738.463        2000.989          48.000  
 16  9 24 21 30  1.2000000  0 12G18G20G21G 2G 4G 5G24G26G30G13G29G15
  22934367.494    -1077588.8572       2941.567          32.000  
  19997557.832     -297047.215         768.325          49.000  
  22015915.663    -1036979.577        2822.589          46.000  
  24425656.506       89964.0623      -2484.745          26.000  
  21871263.793      443791.095       -1283.875          48.000  
  22575179.925      728733.091       -1989.318          48.000  
  25418327.708     -244983.8123       3926.433          27.000  
  25699908.888      -20261.1472      -1039.201          31.000  
  24872315.595       -9492.839         162.354          40.000  
  20777254.640     -100716.303         176.387          51.000  
  21332188.177       67641.242       -1769.111          36.000  
  20368765.215     -765138.672        2000.870          48.000  
 16  9 24 21 30  1.4000000  0 12G18G20G21G 2G 4G 5G24G26G30G13G29G15
  22934255.464    -1078177.1992       2940.359          32.000  
  19997528.550     -297200.933         768.385          49.000  
  22015808.135    -1037544.033        2822.083          46.000  
  24425750.737       90460.9853      -2484.346          26.000  
  21871312.724      444047.788       -1283.769          48.000  
  22575255.659      729130.879       -1989.286          48.000  
  25418178.718     -245769.1383       3926.346          27.000  
  25699948.466      -20053.3272      -1038.499          31.000  
  24872309.487       -9525.230         162.796          39.000  
  20777247.835     -100751.627         176.511          51.000  
  21332255.221       67995.068       -1768.493          36.000  
  20368689.307     -765538.857        2000.855          48.000  
 16  9 24 21 30  1.6000000  0 12G18G20G21G 2G 4G 5G24G26G30G13G29G15
  22934143.678    -1078765.5323       2939.691          32.000  
  19997499.269     -297354.662         768.453          49.000  
  22015700.816    -1038108.503        2822.441          46.000  
  24425845.876       90957.8893      -2484.002          26.000  
  21871361.654      444304.474       -1283.330          48.000  
  22575331.184      729528.659       -1988.859          48.000  
  25418029.065     -246554.5223       3926.708          27.000  
  25699988.147      -19845.5462      -1039.997          31.000  
  24872303.170       -9557.658         161.632          39.000  
  20777240.820     -100786.955         176.542          51.000  
  21332322.544       68348.873       -1769.600          36.000  
  20368613.084     -765939.038        2000.910          48.000  
 16  9 24 21 30  1.8000000  0 12G18G20G21G 2G 4G 5G24G26G30G13G29G15
  22934031.683    -1079353.8482       2941.512          32.000  
  19997470.058     -297508.364         768.645          49.000  
  22015593.428    -1038672.949        2822.169          46.000  
  24425940.596       91454.7813      -2483.899          26.000  
  21871410.551      444561.188       -1283.570          48.000  
  22575406.884      729926.447       -1988.763          48.000  
  25417879.587     -247339.8653       3928.282          27.000  
  25700027.865      -19637.7272      -1040.452          32.000  
  24872296.994       -9590.030         161.681          39.000  
  20777234.224     -100822.246         176.306          51.000  
  21332389.623       68702.742       -1769.315          36.000  
  20368537.037     -766339.199        2000.832          48.000  
 16  9 24 21 30  2.0000000  0 12G18G20G21G 2G 4G 5G24G26G30G13G29G15
  22933919.757    -1079942.1272       2941.005          32.000  
  19997440.846     -297662.046         768.076          49.000  
  22015485.900    -1039237.390        2822.059          46.000  
  24426035.456       91951.6923      -2484.354          26.000  
  21871459.341      444817.919       -1283.654          48.000  
  22575482.687      730324.236       -1989.488          48.000  
  25417729.794     -248125.2583       3927.975          27.000  
  25700067.267      -19429.8942      -1038.530          32.000  
  24872290.816       -9622.399         161.628          39.000  
  20777227.698     -100857.507         176.062          51.000  
  21332456.841       69056.616       -1769.815          36.000  
  20368460.850     -766739.318        2000.561          49.000  
 16  9 24 21 30  2.4000000  0 12G18G20G21G 2G 4G 5G24G26G30G13G29G15
  22933696.046    -1081118.7052       2941.746          32.000  
  19997382.458     -297969.339         768.104          49.000  
  22015271.402    -1040366.203        2821.798          46.000  
  24426225.244       92945.5563      -2485.542          26.000  
  21871557.167      445331.495       -1284.169          48.000  
  22575633.946      731119.886       -1989.072          48.000  
  25417431.151     -249696.0193       3926.273          26.000  
  25700146.282      -19014.1532      -1039.883          32.000  
  24872278.392       -9686.983         160.668          39.000  
  20777214.436     -100927.921         175.610          51.000  
  21332591.697       69764.470       -1770.090          36.000  
  20368308.544     -767539.462        2000.073          49.000  
 16  9 24 21 30  2.6000000  0 12G18G20G21G 2G 4G 5G24G26G30G13G29G15
  22933584.085    -1081706.9672       2941.959          32.000  
  19997353.211     -298122.945         767.816          49.000  
  22015164.083    -1040930.565        2821.765          47.000  
  24426319.999       93442.5533      -2484.946          26.000  
  21871606.237      445588.334       -1284.534          48.000  
  22575709.470      731517.732       -1989.250          48.000  
  25417281.777     -250481.4173       3926.763          26.000  
  25700185.894      -18806.2442      -1039.999          32.000  
  24872272.005       -9719.227         161.224          39.000  
  20777207.560     -100963.054         175.664          51.000  
  21332658.915       70118.460       -1769.980          36.000  
  20368232.496     -767939.465        1999.904          49.000  
 16  9 24 21 30  2.8000000  0 12G18G20G21G 2G 4G 5G24G26G30G13G29G15
  22933472.055    -1082295.1992       2941.045          32.000  
  19997323.826     -298276.545         768.051          49.000  
  22015056.661    -1041494.946        2822.109          46.000  
  24426414.755       93939.5333      -2485.368          26.000  
  21871655.029      445845.219       -1283.434          48.000  
  22575785.135      731915.563       -1989.214          48.000  
  25417131.881     -251266.7673       3926.970          26.000  
  25700225.612      -18598.3052      -1038.683          33.000  
  24872265.898       -9751.463         161.179          39.000  
  20777200.756     -100998.187         175.729          51.000  
  21332726.308       70472.423       -1769.973          36.000  
  20368156.588     -768339.461        1999.932          49.000  
 16  9 24 21 30  3.0000000  0 12G18G20G21G 2G 4G 5G24G26G30G13G29G15
  22933360.130    -1082883.4532       2942.751          32.000  
  19997294.440     -298430.130         768.214          49.000  
  22014949.307    -1042059.322        2822.188          46.000  
  24426508.741       94436.5143      -2484.894          27.000  
  21871703.924      446102.045       -1284.372          48.000  
  22575860.730      732313.407       -1989.027          48.000  
  25416982.612     -252052.1443       3927.426          26.000  
  25700265.189      -18390.3692      -1040.648          33.000  
  24872259.651       -9783.676         161.393          39.000  
  20777194.159     -101033.296         175.550          51.000  
  21332793.771       70826.437       -1770.049          36.000  
  20368080.575     -768739.431        2000.033          49.000  
 16  9 24 21 30  3.4000000  0 12G18G20G21G 2G 4G 5G24G26G30G13G29G15
  22933136.243    -1084059.9612       2941.237          31.000  
  19997236.156     -298737.272         767.610          49.000  
  22014734.425    -1043188.041        2821.918          46.000  
  24426699.123       95430.4903      -2485.151          27.000  
  21871801.785      446615.832       -1284.766          48.000  
  22576012.023      733109.111       -1989.230          47.000  
  25416684.318     -253622.9433       3926.994          26.000  
  25700344.273      -17974.4132      -1038.036          33.000  
  24872246.912       -9848.011         161.059          39.000  
  20777181.002     -101103.419         175.145          51.000  
  21332928.347       71534.487       -1770.722          36.000  
  20367928.479     -769539.301        1999.640          49.000  
 16  9 24 21 30  3.6000000  0 12G18G20G21G 2G 4G 5G24G26G30G13G29G15
  22933024.213    -1084648.1942       2941.825          32.000  
  19997206.875     -298890.813         767.710          48.000  
  22014627.106    -1043752.391        2821.781          46.000  
  24426794.227       95927.4963      -2484.344          27.000  
  21871850.611      446872.757       -1284.650          48.000  
  22576087.722      733506.961       -1988.864          47.000  
  25416534.734     -254408.3313       3927.394          26.000  
  25700383.850      -17766.4902      -1039.353          33.000  
  24872240.735       -9880.177         160.677          39.000  
  20777174.301     -101138.443         174.979          51.000  
  21332995.670       71888.539       -1770.138          36.000  
  20367852.571     -769939.198        1999.444          49.000  
 16  9 24 21 30  3.8000000  0 12G18G20G21G 2G 4G 5G24G26G30G13G29G15
  22932912.358    -1085236.4962       2940.063          32.000  
  19997177.629     -299044.375         767.689          48.000  
  22014519.613    -1044316.763        2821.428          46.000  
  24426889.750       96424.4573      -2485.450          27.000  
  21871899.507      447129.669       -1285.047          48.000  
  22576163.247      733904.786       -1989.308          47.000  
  25416385.187     -255193.8563       3925.787          25.000  
  25700423.533      -17558.5092      -1039.609          33.000  
  24872234.559       -9912.320         160.943          39.000  
  20777167.496     -101173.471         174.774          51.000  
  21333062.994       72242.596       -1770.637          36.000  
  20367776.454     -770339.102        1999.330          49.000  
 16  9 24 21 30  4.0000000  0 12G18G20G21G 2G 4G 5G24G26G30G13G29G15
  22932800.328    -1085824.7262       2940.655          32.000  
  19997148.382     -299197.881         767.552          48.000  
  22014412.225    -1044881.082        2821.710          46.000  
  24426985.098       96921.4653      -2484.683          27.000  
  21871948.228      447386.650       -1284.982          48.000  
  22576239.016      734302.659       -1989.125          47.000  
  25416236.127     -255979.2613       3926.250          25.000  
  25700463.145      -17350.4872      -1040.630          33.000  
  24872228.311       -9944.417         159.748          39.000  
  20777160.795     -101208.441         174.665          51.000  
  21333130.282       72596.704       -1769.860          36.000  
  20367700.441     -770738.939        1999.241          49.000  
 16  9 24 21 30  4.4000000  0 12G18G20G21G 2G 4G 5G24G26G30G13G29G15
  22932576.546    -1087001.0682       2942.277          32.000  
  19997089.819     -299504.806         766.910          48.000  
  22014197.762    -1046009.660        2821.825          46.000  
  24427174.677       97915.5833      -2484.737          27.000  
  21872046.124      447900.713       -1285.264          48.000  
  22576390.414      735098.475       -1989.302          47.000  
  25415937.345     -257550.0333       3926.531          25.000  
  25700542.194      -16934.3762      -1041.147          33.000  
  24872215.817      -10008.459         160.831          38.000  
  20777147.673     -101278.221         174.465          51.000  
  21333264.928       73305.025       -1771.653          36.000  
  20367548.135     -771538.484        1998.854          49.000  
 16  9 24 21 30  4.8000000  0 12G18G20G21G 2G 4G 5G24G26G30G13G29G15
  22932352.660    -1088177.3232       2941.923          32.000  
  19997031.466     -299811.615         766.719          48.000  
  22013983.159    -1047138.156        2820.860          47.000  
  24427365.339       98909.7253      -2485.383          27.000  
  21872144.159      448414.891       -1285.932          48.000  
  22576541.813      735894.345       -1989.665          47.000  
  25415638.527     -259120.8013       3927.206          25.000  
  25700621.279      -16518.1832      -1040.407          33.000  
  24872203.567      -10072.391         160.393          38.000  
  20777134.306     -101347.867         173.810          51.000  
  21333399.713       74013.468       -1770.759          36.000  
  20367396.179     -772337.895        1997.983          49.000  
 16  9 24 21 30  5.0000000  0 12G18G20G21G 2G 4G 5G24G26G30G13G29G15
  22932240.874    -1088765.4692       2941.043          32.000  
  19997002.359     -299964.979         766.824          48.000  
  22013875.770    -1047702.366        2820.715          47.000  
  24427460.023       99406.8473      -2485.870          27.000  
  21872193.264      448672.045       -1285.738          48.000  
  22576617.407      736292.316       -1989.899          47.000  
  25415489.572     -259906.1803       3926.870          25.000  
  25700660.995      -16309.9932      -1039.610          34.000  
  24872197.320      -10104.304         159.565          38.000  
  20777127.466     -101382.623         173.729          51.000  
  21333467.211       74367.743       -1771.740          36.000  
  20367320.130     -772737.533        1998.062          49.000  
 16  9 24 21 30  5.4000000  0 12G18G20G21G 2G 4G 5G24G26G30G13G29G15
  22932017.232    -1089941.7152       2942.446          32.000  
  19996944.005     -300271.680         766.576          48.000  
  22013660.993    -1048830.790        2820.940          47.000  
  24427649.428      100401.1093      -2485.813          28.000  
  21872291.160      449186.380       -1286.380          48.000  
  22576768.805      737088.236       -1990.304          47.000  
  25415190.336     -261476.9523       3927.268          25.000  
  25700740.150      -15893.7002      -1041.912          34.000  
  24872185.000      -10168.083         159.089          38.000  
  20777114.483     -101452.083         173.360          51.000  
  21333602.136       75076.346       -1771.875          36.000  
  20367168.244     -773536.757        1997.890          49.000  
 16  9 24 21 30  5.6000000  0 12G18G20G21G 2G 4G 5G24G26G30G13G29G15
  22931905.341    -1090529.8052       2940.814          32.000  
  19996914.829     -300424.995         766.436          48.000  
  22013553.604    -1049394.965        2820.818          47.000  
  24427743.624      100898.2873      -2485.680          28.000  
  21872340.056      449443.596       -1286.392          49.000  
  22576844.364      737486.229       -1990.044          47.000  
  25415040.927     -262262.3653       3926.581          24.000  
  25700779.587      -15685.4842      -1041.510          34.000  
  24872178.718      -10199.910         159.116          38.000  
  20777107.991     -101486.754         173.149          51.000  
  21333669.319       75430.663       -1772.250          36.000  
  20367092.196     -773936.308        1997.615          49.000  
 16  9 24 21 30  5.8000000  0 12G18G20G21G 2G 4G 5G24G26G30G13G29G15
  22931793.521    -1091117.8872       2940.573          32.000  
  19996885.653     -300578.288         766.288          48.000  
  22013446.216    -1049959.146        2820.811          47.000  
  24427838.205      101395.4413      -2485.890          28.000  
  21872389.022      449700.829       -1286.228          49.000  
  22576919.925      737884.214       -1990.206          47.000  
  25414891.868     -263047.7513       3925.612          24.000  
  25700819.165      -15477.3032      -1043.212          34.000  
  24872172.402      -10231.712         158.829          38.000  
  20777101.500     -101521.401         173.072          51.000  
  21333736.782       75785.029       -1771.948          36.000  
  20367016.288     -774335.844        1997.526          49.000  
 16  9 24 21 30  6.0000000  0 12G18G20G21G 2G 4G 5G24G26G30G13G29G15
  22931681.455    -1091705.9632       2941.189          32.000  
  19996856.336     -300731.597         766.689          48.000  
  22013338.653    -1050523.324        2821.454          47.000  
  24427933.030      101892.6073      -2485.560          28.000  
  21872437.952      449958.065       -1285.993          49.000  
  22576995.554      738282.198       -1989.656          47.000  
  25414742.250     -263833.1563       3927.108          24.000  
  25700858.637      -15269.0612      -1041.788          34.000  
  24872166.259      -10263.535         158.956          38.000  
  20777094.800     -101556.038         173.352          51.000  
  21333804.036       76139.403       -1771.257          36.000  
  20366940.275     -774735.367        1997.665          49.000  
 16  9 24 21 30  6.4000000  0 12G18G20G21G 2G 4G 5G24G26G30G13G29G15
  22931457.639    -1092882.1382       2940.976          32.000  
  19996797.983     -301038.163         766.488          48.000  
  22013124.016    -1051651.676        2821.062          46.000  
  24428122.504      102886.8733      -2485.667          28.000  
  21872535.883      450472.583       -1286.591          49.000  
  22577146.882      739078.159       -1989.988          47.000  
  25414443.467     -265404.0793       3926.445          23.000  
  25700937.757      -14853.075       -1040.934          34.000  
  24872153.835      -10327.084         159.234          38.000  
  20777081.712     -101625.240         172.753          51.000  
  21333938.647       76848.159       -1772.982          36.000  
  20366788.249     -775534.353        1997.300          49.000  
 16  9 24 21 30  6.6000000  0 12G18G20G21G 2G 4G 5G24G26G30G13G29G15
  22931345.748    -1093470.2342       2941.172          32.000  
  19996768.841     -301191.410         766.259          48.000  
  22013016.592    -1052215.831        2820.657          46.000  
  24428217.085      103384.0513      -2486.177          28.000  
  21872584.848      450729.893       -1286.773          49.000  
  22577222.581      739476.156       -1990.076          47.000  
  25414293.779     -266189.4823       3926.793          23.000  
  25700977.299      -14644.844       -1041.667          34.000  
  24872147.518      -10358.791         157.680          38.000  
  20777075.081     -101659.791         172.681          51.000  
  21334006.039       77202.608       -1772.553          36.000  
  20366712.270     -775933.794        1996.879          49.000  
 16  9 24 21 30  6.8000000  0 12G18G20G21G 2G 4G 5G24G26G30G13G29G15
  22931233.718    -1094058.3122       2940.352          32.000  
  19996739.630     -301344.637         766.087          48.000  
  22012909.344    -1052779.967        2820.362          46.000  
  24428311.596      103881.2493      -2485.991          28.000  
  21872633.779      450987.233       -1286.878          49.000  
  22577298.351      739874.172       -1990.182          47.000  
  25414144.685     -266975.0943       3929.146          23.000  
  25701016.947      -14436.549       -1041.115          34.000  
  24872141.167      -10390.467         158.895          38.000  
  20777068.730     -101694.309         172.563          51.000  
  21334073.503       77557.058       -1772.066          36.000  
  20366636.363     -776333.197        1996.782          49.000  
 16  9 24 21 30  7.0000000  0 12G18G20G21G 2G 4G 5G24G26G30G13G29G15
  22931121.897    -1094646.3452       2942.673          32.000  
  19996710.418     -301497.844         766.110          48.000  
  22012801.851    -1053344.084        2820.609          46.000  
  24428406.385      104378.4493      -2485.784          28.000  
  21872682.745      451244.598       -1286.461          49.000  
  22577374.015      740272.203       -1989.899          47.000  
  25413995.381     -267760.3563       3925.200          22.000  
  25701056.663      -14228.231       -1040.867          34.000  
  24872135.129      -10422.157         157.924          38.000  
  20777062.134     -101728.784         172.346          51.000  
  21334140.965       77911.561       -1772.237          36.000  
  20366560.454     -776732.573        1996.834          49.000  
 16  9 24 21 30  7.4000000  0 12G18G20G21G 2G 4G 5G24G26G30G13G29G15
  22930898.046    -1095822.3912       2938.466          31.000  
  19996652.170     -301804.218         765.500          48.000  
  22012587.073    -1054472.309        2820.633          46.000  
  24428596.104      105372.8473      -2486.340          28.000  
  21872780.815      451759.376       -1286.960          49.000  
  22577525.378      741068.264       -1989.834          47.000  
  25413697.436     -269329.7753       3926.120          21.000  
  25701136.027      -13811.563       -1042.591          34.000  
  24872122.844      -10485.441         157.777          38.000  
  20777048.767     -101797.672         171.999          51.000  
  21334275.716       78620.565       -1772.058          36.000  
  20366408.463     -777531.264        1996.319          49.000  
 16  9 24 21 30  7.6000000  0 12G18G20G21G 2G 4G 5G24G26G30G13G29G15
  22930786.016    -1096410.4822       2939.901          31.000  
  19996622.888     -301957.378         765.891          48.000  
  22012479.859    -1055036.418        2820.305          46.000  
  24428690.405      105870.0913      -2485.321          28.000  
  21872829.745      452016.796       -1287.217          49.000  
  22577600.973      741466.283       -1990.281          47.000  
  25413548.097     -270115.4803       3935.025          21.000  
  25701175.639      -13603.246       -1041.897          34.000  
  24872116.736      -10517.036         158.513          38.000  
  20777042.310     -101832.080         171.999          51.000  
  21334343.143       78975.086       -1773.121          36.000  
  20366332.624     -777930.557        1996.529          49.000  
 16  9 24 21 30  7.8000000  0 12G18G20G21G 2G 4G 5G24G26G30G13G29G15
  22930674.265    -1096998.5072       2938.472          31.000  
  19996593.922     -302110.522         765.277          48.000  
  22012372.471    -1055600.499        2820.127          47.000  
  24428785.370      106367.2893      -2486.175          29.000  
  21872878.642      452274.231       -1287.292          49.000  
  22577676.672      741864.337       -1990.337          47.000  
  25413398.375     -270902.3403       3925.312          21.000  
  25701215.252      -13394.880       -1041.361          34.000  
  24872110.699      -10548.603         158.308          38.000  
  20777036.029     -101866.455         171.730          51.000  
  21334410.642       79329.664       -1773.079          36.000  
  20366256.856     -778329.839        1996.070          49.000  
 16  9 24 21 30  8.0000000  0 12G18G20G21G 2G 4G 5G24G26G30G13G29G15
  22930562.235    -1097586.4622       2939.743          32.000  
  19996564.640     -302263.645         765.623          48.000  
  22012265.153    -1056164.565        2820.310          47.000  
  24428880.404      106864.5453      -2486.583          29.000  
  21872927.607      452531.714       -1287.412          49.000  
  22577752.302      742262.394       -1990.556          47.000  
  25413249.071     -271687.4023       3925.312          21.000  
  25701254.899      -13186.457       -1040.249          34.000  
  24872104.522      -10580.130         157.603          38.000  
  20777029.642     -101900.792         171.365          51.000  
  21334477.965       79684.251       -1773.184          36.000  
  20366180.948     -778729.076        1996.007          49.000  
 16  9 24 21 30  8.4000000  0 12G18G20G21G 2G 4G 5G24G26G30G13G29G15
  22930338.453    -1098762.4442       2939.763          31.000  
  19996506.356     -302569.834         765.102          48.000  
  22012050.724    -1057292.677        2820.348          46.000  
  24429070.367      107859.0753      -2486.647          29.000  
  21873025.572      453046.731       -1287.719          49.000  
  22577903.839      743058.537       -1990.259          47.000  
  25412950.254     -273257.0063       3931.433          20.000  
  25701334.262      -12769.666       -1042.382          34.000  
  24872092.516      -10643.130         158.014          38.000  
  20777016.485     -101969.375         171.291          51.000  
  21334612.820       80393.516       -1773.131          36.000  
  20366029.271     -779527.468        1996.155          49.000  
 16  9 24 21 30  8.6000000  0 12G18G20G21G 2G 4G 5G24G26G30G13G29G15
  22930226.632    -1099350.4212       2938.694          31.000  
  19996477.215     -302722.879         765.320          48.000  
  22011943.371    -1057856.696        2819.562          47.000  
  24429164.947      108356.3693      -2486.725          29.000  
  21873074.712      453304.295       -1288.211          49.000  
  22577979.469      743456.643       -1990.639          47.000  
  25412799.798     -274043.1653       3927.788          20.000  
  25701373.874      -12561.183       -1040.945          34.000  
  24872086.304      -10674.590         156.597          38.000  
  20777010.063     -102003.606         170.763          51.000  
  21334680.108       80748.233       -1772.505          36.000  
  20365953.223     -779926.603        1995.423          49.000  
 16  9 24 21 30  8.8000000  0 12G18G20G21G 2G 4G 5G24G26G30G13G29G15
  22930114.777    -1099938.3462       2938.916          31.000  
  19996448.004     -302875.905         765.159          48.000  
  22011836.018    -1058420.687        2819.962          47.000  
  24429259.389      108853.6813      -2486.494          29.000  
  21873123.539      453561.891       -1288.256          49.000  
  22578055.203      743854.755       -1990.256          47.000  
  25412650.599     -274828.7183       3924.145          20.000  
  25701413.661      -12352.744       -1041.915          34.000  
  24872080.546      -10706.007         157.177          38.000  
  20777003.537     -102037.790         170.953          51.000  
  21334747.502       81102.924       -1773.441          36.000  
  20365877.350     -780325.700        1995.424          49.000  
 16  9 24 21 30  9.0000000  0 12G18G20G21G 2G 4G 5G24G26G30G13G29G15
  22930002.886    -1100526.3112       2941.252          31.000  
  19996418.862     -303028.933         765.730          48.000  
  22011728.629    -1058984.702        2820.686          47.000  
  24429354.422      109350.9863      -2486.827          29.000  
  21873172.574      453819.475       -1287.689          49.000  
  22578131.042      744252.843       -1990.173          47.000  
  25412501.295     -275613.5603       3924.145          19.000  
  25701453.378      -12144.268       -1042.279          34.000  
  24872074.543      -10737.420         156.830          38.000  
  20776996.906     -102071.984         170.955          51.000  
  21334814.824       81457.626       -1773.044          36.000  
  20365801.406     -780724.794        1995.869          49.000  
 16  9 24 21 30  9.2000000  0 12G18G20G21G 2G 4G 5G24G26G30G13G29G15
  22929891.136    -1101114.2522       2940.365          32.000  
  19996389.756     -303181.945         765.083          48.000  
  22011621.381    -1059548.694        2820.184          47.000  
  24429449.213      109848.2803      -2486.416          29.000  
  21873221.645      454077.109       -1287.835          49.000  
  22578206.882      744650.960       -1990.042          47.000  
  25412352.062     -276398.1123       3916.157          19.000  
  25701492.991      -11935.773       -1042.861          34.000  
  24872068.716      -10768.791         157.167          38.000  
  20776990.590     -102106.135         170.826          51.000  
  21334882.393       81812.359       -1773.931          36.000  
  20365725.604     -781123.850        1995.398          49.000  
 16  9 24 21 30  9.4000000  0 12G18G20G21G 2G 4G 5G24G26G30G13G29G15
  22929779.176    -1101702.1482       2940.633          31.000  
  19996360.649     -303334.931         764.788          48.000  
  22011514.062    -1060112.668        2819.862          47.000  
  24429543.444      110345.6203      -2486.637          29.000  
  21873270.785      454334.754       -1288.043          49.000  
  22578282.616      745049.078       -1990.626          47.000  
  25412203.142     -277181.3363       3927.553          19.000  
  25701532.533      -11727.267       -1042.172          34.000  
  24872062.748      -10800.149         156.489          39.000  
  20776983.889     -102140.252         170.482          51.000  
  21334949.855       82167.134       -1773.250          36.000  
  20365649.730     -781522.888        1995.146          49.000  
 16  9 24 21 30  9.6000000  0 12G18G20G21G 2G 4G 5G24G26G30G13G29G15
  22929667.180    -1102290.0812       2939.870          32.000  
  19996331.123     -303487.920         765.143          48.000  
  22011406.603    -1060676.656        2820.177          47.000  
  24429638.199      110842.9353      -2486.563          29.000  
  21873319.680      454592.399       -1288.227          49.000  
  22578358.280      745447.193       -1990.412          47.000  
  25412053.942     -277966.7913       3927.553          19.000  
  25701572.075      -11518.746       -1042.612          34.000  
  24872056.710      -10831.486         156.641          39.000  
  20776977.119     -102174.365         170.662          51.000  
  21335017.562       82521.919       -1772.624          36.000  
  20365573.961     -781921.907        1995.438          50.000  
 16  9 24 21 30  9.8000000  0 12G18G20G21G 2G 4G 5G24G26G30G13G29G15
  22929555.430    -1102878.0272       2941.447          32.000  
  19996302.122     -303640.908         764.924          48.000  
  22011299.216    -1061240.659        2819.831          47.000  
  24429732.675      111340.2373      -2486.877          29.000  
  21873368.856      454850.067       -1288.054          49.000  
  22578434.154      745845.292       -1990.564          47.000  
  25411903.557     -278752.3393       3927.993          18.000  
  25701611.863      -11310.264       -1043.100          34.000  
  24872050.917      -10862.822         156.366          38.000  
  20776970.733     -102208.458         170.408          51.000  
  21335084.956       82876.678       -1773.788          36.000  
  20365498.123     -782320.922        1994.741          50.000  
 16  9 24 21 30 10.0000000  0 12G18G20G21G 2G 4G 5G24G26G30G13G29G15
  22929443.504    -1103466.0332       2938.344          32.000  
  19996273.119     -303793.875         764.714          48.000  
  22011192.071    -1061804.638        2820.049          47.000  
  24429826.662      111837.5873      -2486.763          29.000  
  21873417.995      455107.750       -1288.461          49.000  
  22578509.818      746243.397       -1990.539          47.000  
  25411752.124     -279537.9383       3940.786          18.000  
  25701651.475      -11101.690       -1042.360          34.000  
  24872045.089      -10894.110         156.529          38.000  
  20776964.486     -102242.518         170.298          51.000  
  21335152.244       83231.465       -1774.051          36.000  
  20365422.320     -782719.892        1994.936          50.000  
 16  9 24 21 30 10.2000000  0 12G18G20G21G 2G 4G 5G24G26G30G13G29G15
  22929331.474    -1104053.8942       2941.886          31.000  
  19996243.908     -303946.816         764.996          48.000  
  22011084.857    -1062368.602        2819.995          47.000  
  24429921.835      112334.9193      -2486.591          29.000  
  21873467.135      455365.458       -1288.367          49.000  
  22578585.587      746641.528       -1990.617          47.000  
  25411605.054     -280326.0283       3940.786          18.000  
  25701690.877      -10893.153       -1041.142          34.000  
  24872039.086      -10925.379         157.260          38.000  
  20776958.029     -102276.545         170.257          51.000  
  21335219.567       83586.297       -1774.171          36.000  
  20365346.167     -783118.842        1994.995          50.000  
 16  9 24 21 30 10.4000000  0 12G18G20G21G 2G 4G 5G24G26G30G13G29G15
  22929219.619    -1104641.8532       2938.344          31.000  
  19996214.836     -304099.751         764.455          48.000  
  22010977.609    -1062932.571        2819.623          47.000  
  24430016.137      112832.2323      -2486.398          29.000  
  21873516.241      455623.188       -1288.617          49.000  
  22578661.287      747039.654       -1990.235          47.000  
  25411458.577     -281114.1823       3940.786          18.000  
  25701730.700      -10684.570       -1043.252          33.000  
  24872033.259      -10956.643         156.012          38.000  
  20776951.503     -102310.548         170.141          51.000  
  21335287.100       83941.137       -1774.156          36.000  
  20365270.434     -783517.768        1994.538          50.000  
 16  9 24 21 30 10.6000000  0 12G18G20G21G 2G 4G 5G24G26G30G13G29G15
  22929107.693    -1105229.7502       2937.990          31.000  
  19996185.764     -304252.677         764.540          48.000  
  22010870.220    -1063496.528        2819.638          47.000  
  24430111.031      113329.5653      -2486.638          29.000  
  21873565.346      455880.928       -1288.844          49.000  
  22578737.091      747437.774       -1990.295          47.000  
  25411309.273     -281901.1963       3934.267          18.000  
  25701770.312      -10475.984       -1042.864          34.000  
  24872027.395      -10987.884         155.838          39.000  
  20776944.872     -102344.541         169.853          51.000  
  21335354.423       84295.979       -1775.555          36.000  
  20365194.525     -783916.674        1994.309          50.000  
 16  9 24 21 30 10.8000000  0 12G18G20G21G 2G 4G 5G24G26G30G13G29G15
  22928995.628    -1105817.6832       2941.746          31.000  
  19996156.623     -304405.589         764.183          48.000  
  22010762.833    -1064060.481        2819.745          47.000  
  24430205.612      113826.9063      -2486.809          29.000  
  21873614.417      456138.697       -1288.928          49.000  
  22578812.686      747835.891       -1991.018          48.000  
  25411162.204     -282687.0263       3920.680          17.000  
  25701810.099      -10267.413       -1042.122          33.000  
  24872021.707      -11019.094         155.690          39.000  
  20776938.277     -102378.501         169.385          51.000  
  21335421.781       84650.869       -1774.193          36.000  
  20365118.722     -784315.553        1994.132          50.000  
 16  9 24 21 30 11.0000000  0 12G18G20G21G 2G 4G 5G24G26G30G13G29G15
  22928883.633    -1106405.5372       2939.934          31.000  
  19996127.482     -304558.456         764.154          48.000  
  22010655.584    -1064624.395        2819.195          47.000  
  24430300.158      114324.2863      -2486.641          29.000  
  21873663.382      456396.503       -1289.151          49.000  
  22578888.490      748234.053       -1990.933          48.000  
  25411013.214     -283471.1633       3920.680          17.000  
  25701849.746      -10058.795       -1044.429          33.000  
  24872015.670      -11050.251         155.294          39.000  
  20776931.925     -102412.404         169.197          51.000  
  21335489.139       85005.789       -1773.538          36.000  
  20365042.884     -784714.378        1993.827          50.000  
 16  9 24 21 30 11.4000000  0 12G18G20G21G 2G 4G 5G24G26G30G13G29G15
  22928659.537    -1107581.3062       2939.227          31.000  
  19996069.302     -304864.165         764.237          48.000  
  22010441.085    -1065752.217        2819.499          47.000  
  24430489.702      115319.0543      -2486.964          29.000  
  21873761.278      456912.170       -1289.495          49.000  
  22579040.062      749030.375       -1990.614          48.000  
  25410717.607     -285043.2543       3932.820          17.000  
  25701929.284       -9641.495       -1045.323          33.000  
  24872004.013      -11112.523         155.972          39.000  
  20776919.256     -102480.152         169.136          51.000  
  21335623.994       85715.642       -1775.168          36.000  
  20364891.102     -785511.974        1993.699          50.000  
 16  9 24 21 30 11.6000000  0 12G18G20G21G 2G 4G 5G24G26G30G13G29G15
  22928547.577    -1108169.2002       2937.612          32.000  
  19996040.091     -305017.029         764.301          48.000  
  22010333.732    -1066316.131        2819.697          47.000  
  24430584.352      115816.4053      -2486.836          29.000  
  21873810.278      457170.009       -1289.744          49.000  
  22579115.761      749428.517       -1990.454          48.000  
  25410565.267     -285830.1923       3935.259          18.000  
  25701968.931       -9432.844       -1043.633          33.000  
  24871997.975      -11143.642         155.960          39.000  
  20776912.835     -102514.007         169.030          51.000  
  21335691.457       86070.614       -1774.241          36.000  
  20364815.263     -785910.761        1993.414          50.000  
 16  9 24 21 30 11.8000000  0 12G18G20G21G 2G 4G 5G24G26G30G13G29G15
  22928435.791    -1108756.9933       2937.679          32.000  
  19996011.089     -305169.810         763.735          48.000  
  22010226.553    -1066879.991        2819.267          47.000  
  24430679.561      116313.8233      -2486.487          29.000  
  21873859.349      457427.930       -1289.791          49.000  
  22579191.566      749826.721       -1991.220          48.000  
  25410417.604     -286615.3593       3924.485          18.000  
  25702008.544       -9224.134       -1044.161          33.000  
  24871992.078      -11174.704         155.552          39.000  
  20776906.309     -102547.776         168.624          51.000  
  21335759.130       86425.627       -1775.500          36.000  
  20364739.460     -786309.458        1993.086          50.000  
 16  9 24 21 30 12.0000000  0 12G18G20G21G 2G 4G 5G24G26G30G13G29G15
  22928324.040    -1109344.8092       2940.789          32.000  
  19995981.982     -305322.548         763.925          48.000  
  22010119.165    -1067443.824        2818.756          47.000  
  24430773.792      116811.2783      -2487.648          29.000  
  21873908.384      457685.895       -1289.762          49.000  
  22579267.404      750224.952       -1991.009          48.000  
  25410268.579     -287401.2723       3932.033          18.000  
  25702048.330       -9015.380       -1043.939          33.000  
  24871986.145      -11205.704         154.437          39.000  
  20776899.678     -102581.498         168.570          51.000  
  21335826.662       86780.707       -1775.015          36.000  
  20364663.587     -786708.108        1993.297          50.000  
 16  9 24 21 30 12.4000000  0 12G18G20G21G 2G 4G 5G24G26G30G13G29G15
  22928100.328    -1110520.5032       2937.991          31.000  
  19995923.734     -305628.072         764.024          48.000  
  22009904.527    -1068571.515        2819.408          47.000  
  24430962.778      117806.1903      -2487.110          29.000  
  21874006.349      458201.805       -1289.666          49.000  
  22579418.872      751021.355       -1991.020          48.000  
  25409974.264     -288971.9423       3926.983          18.000  
  25702127.833       -8597.930       -1042.413          33.000  
  24871974.697      -11267.710         154.693          39.000  
  20776886.765     -102648.931         168.425          51.000  
  21335961.517       87490.827       -1776.067          35.000  
  20364512.014     -787505.399        1993.454          50.000  
 16  9 24 21 30 12.6000000  0 12G18G20G21G 2G 4G 5G24G26G30G13G29G15
  22927988.472    -1111108.2692       2939.110          31.000  
  19995894.766     -305780.805         763.549          48.000  
  22009797.452    -1069135.340        2818.802          47.000  
  24431057.219      118303.6273      -2487.155          30.000  
  21874055.489      458459.801       -1289.881          49.000  
  22579494.711      751419.583       -1991.119          48.000  
  25409831.346     -289759.6813       3958.233          18.000  
  25702167.480       -8389.128       -1042.434          33.000  
  24871968.799      -11298.653         154.541          39.000  
  20776880.518     -102682.610         168.044          51.000  
  21336028.840       87845.902       -1776.318          35.000  
  20364436.210     -787904.004        1992.799          50.000  
 16  9 24 21 30 12.8000000  0 11G18G20G21G 2G 4G 5G26G30G13G29G15
  22927876.722    -1111696.1302       2938.867          31.000  
  19995865.730     -305933.516         763.562          48.000  
  22009690.169    -1069699.165        2819.283          47.000  
  24431151.695      118801.0843      -2487.455          30.000  
  21874104.700      458717.820       -1289.820          49.000  
  22579570.446      751817.800       -1991.057          48.000  
  25702207.442       -8180.359       -1042.633          33.000  
  24871962.902      -11329.579         155.596          39.000  
  20776874.062     -102716.255         168.301          51.000  
  21336096.304       88201.030       -1775.602          35.000  
  20364360.477     -788302.587        1993.009          50.000  
 16  9 24 21 30 13.0000000  0 11G18G20G21G 2G 4G 5G26G30G13G29G15
  22927764.901    -1112283.8682       2940.572          31.000  
  19995836.797     -306086.228         763.347          48.000  
  22009582.676    -1070262.976        2819.414          47.000  
  24431245.717      119298.5583      -2487.410          29.000  
  21874153.630      458975.854       -1290.141          49.000  
  22579646.284      752216.026       -1991.405          48.000  
  25702247.194       -7971.573       -1044.555          33.000  
  24871957.143      -11360.492         154.057          39.000  
  20776867.466     -102749.872         168.208          51.000  
  21336163.731       88556.179       -1775.127          35.000  
  20364284.673     -788701.146        1992.916          50.000  
 16  9 24 21 30 13.4000000  0 11G18G20G21G 2G 4G 5G26G30G13G29G15
  22927541.573    -1113459.4172       2938.141          31.000  
  19995778.549     -306391.536         763.169          48.000  
  22009368.073    -1071390.531        2818.552          47.000  
  24431435.296      120293.5643      -2487.129          30.000  
  21874252.119      459492.030       -1290.474          49.000  
  22579797.962      753012.540       -1991.414          48.000  
  25702326.801       -7553.889       -1043.783          33.000  
  24871945.312      -11422.210         154.977          39.000  
  20776854.902     -102816.986         167.583          51.000  
  21336298.482       89266.519       -1776.788          35.000  
  20364132.926     -789498.124        1992.381          50.000  
 16  9 24 21 30 13.6000000  0 11G18G20G21G 2G 4G 5G26G30G13G29G15
  22927429.543    -1114047.1762       2937.969          32.000  
  19995749.581     -306544.183         762.869          48.000  
  22009260.719    -1071954.304        2818.445          47.000  
  24431529.946      120791.0303      -2487.669          30.000  
  21874301.224      459750.137       -1290.784          49.000  
  22579873.800      753410.792       -1991.500          48.000  
  25702366.588       -7345.067       -1044.049          33.000  
  24871939.623      -11453.049         153.732          39.000  
  20776848.550     -102850.507         167.319          51.000  
  21336365.770       89621.720       -1776.847          35.000  
  20364057.332     -789896.584        1992.253          50.000  
 16  9 24 21 30 13.8000000  0 11G18G20G21G 2G 4G 5G26G30G13G29G15
  22927317.758    -1114634.9522       2938.942          32.000  
  19995720.580     -306696.815         763.259          48.000  
  22009153.436    -1072518.073        2818.946          47.000  
  24431624.143      121288.5533      -2487.294          30.000  
  21874350.190      460008.266       -1290.444          49.000  
  22579949.361      753809.042       -1991.400          48.000  
  25702406.375       -7136.244       -1044.830          33.000  
  24871933.761      -11483.842         154.221          39.000  
  20776842.373     -102884.009         167.204          51.000  
  21336433.198       89976.972       -1776.414          35.000  
  20363981.494     -790295.033        1991.896          50.000  
 16  9 24 21 30 14.0000000  0 11G18G20G21G 2G 4G 5G26G30G13G29G15
  22927206.006    -1115222.7042       2939.112          31.000  
  19995691.403     -306849.425         762.790          48.000  
  22009046.083    -1073081.830        2818.218          47.000  
  24431718.758      121786.0583      -2487.136          30.000  
  21874399.330      460266.418       -1291.293          49.000  
  22580025.129      754207.319       -1991.361          48.000  
  25702446.127       -6927.325       -1043.369          33.000  
  24871927.967      -11514.637         154.161          39.000  
  20776836.021     -102917.478         167.049          51.000  
  21336500.591       90332.245       -1776.108          35.000  
  20363905.551     -790693.439        1991.479          50.000  
 16  9 24 21 30 14.4000000  0 11G18G20G21G 2G 4G 5G26G30G13G29G15
  22926982.260    -1116398.1832       2940.207          32.000  
  19995633.329     -307154.628         762.751          48.000  
  22008831.619    -1074209.339        2818.594          47.000  
  24431908.303      122781.0833      -2487.806          30.000  
  21874497.365      460782.767       -1291.021          49.000  
  22580176.877      755003.843       -1991.195          48.000  
  25702525.630       -6509.561       -1044.636          33.000  
  24871916.380      -11576.162         153.034          39.000  
  20776823.213     -102984.349         166.971          51.000  
  21336635.516       91042.776       -1776.335          35.000  
  20363754.013     -791490.200        1991.779          50.000  
 16  9 24 21 30 14.6000000  0 11G18G20G21G 2G 4G 5G26G30G13G29G15
  22926870.508    -1116985.9132       2938.976          31.000  
  19995604.187     -307307.202         762.904          48.000  
  22008724.440    -1074773.073        2818.598          47.000  
  24432003.616      123278.6073      -2487.721          30.000  
  21874546.540      461040.974       -1291.100          49.000  
  22580252.715      755402.115       -1991.685          48.000  
  25702565.382       -6300.589       -1043.802          33.000  
  24871910.517      -11606.859         153.128          39.000  
  20776816.931     -103017.742         166.842          51.000  
  21336702.944       91398.069       -1777.545          35.000  
  20363678.209     -791888.535        1991.971          50.000  
 16  9 24 21 30 14.8000000  0 11G18G20G21G 2G 4G 5G26G30G13G29G15
  22926758.793    -1117573.7252       2937.591          31.000  
  19995575.081     -307459.784         762.941          48.000  
  22008617.157    -1075336.832        2818.583          47.000  
  24432097.813      123776.1583      -2487.093          30.000  
  21874595.681      461299.174       -1290.926          49.000  
  22580328.415      755800.366       -1991.444          48.000  
  25702605.099       -6091.712       -1043.557          33.000  
  24871904.550      -11637.597         153.005          39.000  
  20776810.719     -103051.139         166.731          51.000  
  21336770.303       91753.361       -1776.925          35.000  
  20363602.511     -792286.879        1991.717          50.000  
 16  9 24 21 30 15.0000000  0 11G18G20G21G 2G 4G 5G26G30G13G29G15
  22926646.972    -1118161.4202       2943.156          31.000  
  19995545.939     -307612.351         763.066          48.000  
  22008510.013    -1075900.562        2819.081          47.000  
  24432192.567      124273.6623      -2486.191          29.000  
  21874644.890      461557.418       -1291.206          48.000  
  22580404.358      756198.643       -1991.286          47.000  
  25702644.781       -5882.822       -1045.104          32.000  
  24871898.791      -11668.275         153.385          39.000  
  20776804.507     -103084.493         167.022          50.000  
  21336837.660       92108.739       -1776.128          35.000  
  20363526.777     -792685.185        1991.706          49.000  
 16  9 24 21 30 15.4000000  0 11G18G20G21G 2G 4G 5G26G30G13G29G15
  22926423.225    -1119336.8712       2939.668          32.000  
  19995487.795     -307917.417         762.430          48.000  
  22008295.236    -1077028.015        2818.547          47.000  
  24432381.414      125268.7543      -2487.652          29.000  
  21874743.275      462073.947       -1291.615          49.000  
  22580555.826      756995.198       -1991.186          48.000  
  25702724.214       -5464.911       -1045.125          33.000  
  24871887.414      -11729.556         153.375          39.000  
  20776791.489     -103151.126         166.298          51.000  
  21336972.481       92819.440       -1775.377          35.000  
  20363375.170     -793481.712        1991.076          50.000  
 16  9 24 21 30 15.6000000  0 11G18G20G21G 2G 4G 5G26G30G13G29G15
  22926311.474    -1119924.6442       2938.168          32.000  
  19995458.653     -308069.947         761.929          48.000  
  22008187.882    -1077591.724        2818.406          47.000  
  24432476.168      125766.3153      -2487.580          29.000  
  21874792.415      462332.234       -1291.835          49.000  
  22580631.525      757393.467       -1991.505          48.000  
  25702764.036       -5255.965       -1045.746          33.000  
  24871881.376      -11760.221         152.947          38.000  
  20776785.347     -103184.404         166.043          51.000  
  21337039.943       93174.812       -1777.734          35.000  
  20363299.401     -793879.947        1990.608          50.000  
 16  9 24 21 30 15.8000000  0 11G18G20G21G 2G 4G 5G26G30G13G29G15
  22926199.689    -1120512.2912       2937.149          32.000  
  19995429.721     -308222.401         762.634          48.000  
  22008080.738    -1078155.388        2818.328          47.000  
  24432571.098      126263.8763      -2488.466          29.000  
  21874841.485      462590.594       -1291.593          49.000  
  22580707.260      757791.795       -1991.617          48.000  
  25702803.963       -5046.933       -1045.468          33.000  
  24871875.409      -11790.754         153.057          38.000  
  20776778.961     -103217.610         165.953          51.000  
  21337107.442       93530.270       -1777.732          35.000  
  20363223.633     -794278.105        1990.846          50.000  
 16  9 24 21 30 16.0000000  0 11G18G20G21G 2G 4G 5G26G30G13G29G15
  22926087.763    -1121099.9942       2935.965          32.000  
  19995400.684     -308374.860         762.043          48.000  
  22007973.454    -1078719.052        2817.949          47.000  
  24432665.644      126761.4653      -2487.909          29.000  
  21874890.625      462848.959       -1292.011          49.000  
  22580782.994      758190.118       -1992.117          48.000  
  25702843.819       -4837.920       -1045.740          33.000  
  24871869.546      -11821.299         152.700          38.000  
  20776772.783     -103250.798         165.714          51.000  
  21337174.834       93885.735       -1777.205          35.000  
  20363147.864     -794676.258        1990.587          50.000  
 16  9 24 21 30 16.4000000  0 11G18G20G21G 2G 4G 5G26G30G13G29G15
  22925864.086    -1122275.3072       2938.321          32.000  
  19995342.575     -308679.701         761.915          48.000  
  22007758.956    -1079846.347        2818.044          47.000  
  24432934.831      127756.6733      -2487.976          29.000  
  21874988.975      463365.771       -1292.360          49.000  
  22580934.427      758986.799       -1991.905          48.000  
  25702923.462       -4419.781       -1044.686          33.000  
  24871857.959      -11882.295         151.597          38.000  
  20776760.149     -103317.087         165.342          51.000  
  21337309.620       94596.718       -1776.358          35.000  
  20362996.292     -795472.451        1990.458          50.000  
 16  9 24 21 30 16.6000000  0 10G18G20G21G 4G 5G26G30G13G29G15
  22925752.091    -1122862.9312       2936.685          32.000  
  19995313.608     -308832.074         761.896          48.000  
  22007651.777    -1080409.951        2817.803          47.000  
  21875038.184      463624.236       -1292.284          49.000  
  22581010.231      759385.176       -1991.905          48.000  
  25702963.109       -4210.677       -1046.433          33.000  
  24871851.991      -11912.733         151.609          38.000  
  20776753.693     -103350.165         165.287          51.000  
  21337376.978       94952.251       -1777.047          35.000  
  20362920.592     -795870.495        1990.043          50.000  
 16  9 24 21 30 16.8000000  0 10G18G20G21G 4G 5G26G30G13G29G15
  22925640.375    -1123450.5672       2936.647          32.000  
  19995284.571     -308984.442         761.657          48.000  
  22007544.668    -1080973.548        2817.755          47.000  
  21875087.290      463882.719       -1292.583          49.000  
  22581086.105      759783.547       -1992.016          48.000  
  25703003.001       -4001.552       -1046.613          33.000  
  24871846.303      -11943.144         151.471          38.000  
  20776747.412     -103383.209         164.871          51.000  
  21337444.406       95307.801       -1778.020          35.000  
  20362844.755     -796268.501        1990.019          50.000  
 16  9 24 21 30 17.0000000  0 10G18G20G21G 4G 5G26G30G13G29G15
  22925528.589    -1124038.1812       2939.282          32.000  
  19995255.325     -309136.823         761.913          48.000  
  22007437.419    -1081537.160        2818.091          47.000  
  21875136.220      464141.190       -1292.221          49.000  
  22581161.909      760181.896       -1991.515          48.000  
  25703042.717       -3792.485       -1044.417          33.000  
  24871840.579      -11973.571         152.297          38.000  
  20776741.095     -103416.263         165.237          51.000  
  21337511.973       95663.395       -1777.103          34.000  
  20362769.230     -796666.516        1989.979          50.000  
 16  9 24 21 30 17.4000000  0 11G18G20G21G 2G 4G 5G26G30G13G29G15
  22925305.052    -1125213.5122       2936.729          32.000  
  19995197.460     -309441.569         761.580          48.000  
  22007222.956    -1082664.416        2817.874          47.000  
  24433342.748        1598.0633      -2488.398          29.000  
  21875234.535      464658.156       -1292.785          49.000  
  22581313.447      760978.566       -1992.227          48.000  
  25703122.605       -3374.248       -1046.860          33.000  
  24871828.713      -12034.376         152.131          38.000  
  20776728.600     -103482.333         164.980          51.000  
  21337647.003       96374.516       -1778.025          34.000  
  20362617.902     -797462.509        1989.809          50.000  
 16  9 24 21 30 17.6000000  0 11G18G20G21G 2G 4G 5G26G30G13G29G15
  22925193.301    -1125801.1342       2938.987          32.000  
  19995168.388     -309593.909         761.712          48.000  
  22007115.672    -1083228.014        2818.065          47.000  
  24433508.734        2095.6893      -2488.337          29.000  
  21875283.919      464916.688       -1292.760          49.000  
  22581389.320      761376.924       -1991.990          48.000  
  25703162.391       -3165.087       -1045.745          33.000  
  24871822.675      -12064.710         150.853          38.000  
  20776722.283     -103515.311         164.554          51.000  
  21337714.536       96730.116       -1778.271          34.000  
  20362542.203     -797860.453        1989.759          50.000  
 16  9 24 21 30 17.8000000  0 11G18G20G21G 2G 4G 5G26G30G13G29G15
  22925081.445    -1126388.7512       2938.971          32.000  
  19995139.455     -309746.224         761.173          48.000  
  22007008.214    -1083791.595        2817.999          47.000  
  24433610.015        2593.3733      -2489.212          29.000  
  21875333.024      465175.248       -1292.614          49.000  
  22581465.159      761775.298       -1991.893          48.000  
  25703202.212       -2955.944       -1043.432          33.000  
  24871816.847      -12095.043         151.660          38.000  
  20776715.827     -103548.246         164.569          51.000  
  21337781.928       97085.769       -1777.881          34.000  
  20362466.469     -798258.358        1989.354          50.000  
 16  9 24 21 30 18.0000000  0 11G18G20G21G 2G 4G 5G26G30G13G29G15
  22924969.520    -1126976.3322       2938.378          32.000  
  19995110.489     -309898.505         761.104          48.000  
  22006900.931    -1084355.165        2817.752          47.000  
  24433709.587        3091.0403      -2488.739          29.000  
  21875382.130      465433.842       -1292.998          49.000  
  22581540.824      762173.686       -1992.208          48.000  
  25703242.105       -2746.743       -1045.991          33.000  
  24871810.985      -12125.339         151.231          37.000  
  20776709.650     -103581.152         164.313          51.000  
  21337849.322       97441.460       -1778.484          34.000  
  20362390.701     -798656.235        1989.268          50.000  
 16  9 24 21 30 18.4000000  0 10G18G20G21G 4G 5G26G30G13G29G15
  22924746.122    -1128151.579        2937.631          32.000  
  19995052.589     -310203.094         761.127          48.000  
  22006686.363    -1085482.322        2817.867          46.000  
  21875480.444      465951.016       -1293.175          49.000  
  22581692.815      762970.420       -1992.197          48.000  
  25703321.782       -2328.364       -1045.411          33.000  
  24871799.432      -12185.914         150.938          37.000  
  20776697.295     -103646.935         164.191          51.000  
  21337984.247       98152.780       -1778.138          34.000  
  20362239.303     -799451.966        1988.958          50.000  
 16  9 24 21 30 18.8000000  0 10G18G20G21G 4G 5G26G30G13G29G15
  22924522.514    -1129326.780        2938.760          32.000  
  19994994.444     -310507.601         761.494          48.000  
  22006471.829    -1086609.421        2818.052          46.000  
  21875578.863      466468.313       -1293.160          49.000  
  22581844.352      763767.195       -1991.761          48.000  
  25703401.145       -1909.934       -1046.603          33.000  
  24871787.740      -12246.356         151.445          37.000  
  20776684.486     -103712.595         164.290          51.000  
  21338119.101       98864.237       -1778.269          34.000  
  20362087.904     -800247.558        1989.145          50.000  
 16  9 24 21 30 19.0000000  0 10G18G20G21G 4G 5G26G30G13G29G15
  22924410.869    -1129914.391        2938.316          32.000  
  19994965.442     -310659.874         761.364          48.000  
  22006364.720    -1087173.004        2817.691          46.000  
  21875628.073      466726.950       -1293.281          49.000  
  22581920.296      764165.550       -1991.818          48.000  
  25703441.002       -1700.725       -1045.713          33.000  
  24871781.738      -12276.607         151.019          37.000  
  20776678.065     -103745.425         163.941          51.000  
  21338186.635       99219.972       -1778.554          34.000  
  20362012.415     -800645.369        1988.999          50.000  
 16  9 24 21 30 19.2000000  0 10G18G20G21G 4G 5G26G30G13G29G15
  22924299.152    -1130502.015        2936.406          32.000  
  19994936.475     -310812.132         761.146          48.000  
  22006257.506    -1087736.570        2818.039          46.000  
  21875677.213      466985.614       -1293.250          49.000  
  22581996.100      764563.919       -1991.814          48.000  
  25703480.754       -1491.505       -1046.541          33.000  
  24871775.944      -12306.804         150.729          37.000  
  20776671.888     -103778.221         163.865          51.000  
  21338254.132       99575.680       -1779.343          34.000  
  20361936.681     -801043.141        1988.983          50.000  
 16  9 24 21 30 19.4000000  0 11G18G20G 2G21G 4G 5G26G30G13G29G15
  22924187.437    -1131089.589        2938.273          32.000  
  19994907.509     -310964.356         760.840          48.000  
  24434375.558        2394.1933      -2489.008          28.000  
  22006150.188    -1088300.110        2817.368          46.000  
  21875726.528      467244.313       -1293.500          49.000  
  22582071.905      764962.304       -1992.110          48.000  
  25703520.646       -1282.237       -1046.368          34.000  
  24871770.117      -12336.969         150.421          37.000  
  20776665.851     -103810.970         163.303          51.000  
  21338321.595       99931.458       -1779.252          34.000  
  20361861.088     -801440.870        1988.390          50.000  
 16  9 24 21 30 19.6000000  0 11G18G20G 2G21G 4G 5G26G30G13G29G15
  22924075.616    -1131677.122        2938.599          32.000  
  19994878.506     -311116.516         760.513          48.000  
  24434471.709        2891.8863      -2489.353          28.000  
  22006042.869    -1088863.610        2817.572          46.000  
  21875775.842      467503.063       -1293.953          49.000  
  22582147.778      765360.736       -1992.220          48.000  
  25703560.362       -1072.938       -1047.053          34.000  
  24871764.219      -12367.072         150.062          37.000  
  20776659.604     -103843.667         163.280          51.000  
  21338389.058      100287.299       -1778.170          34.000  
  20361785.389     -801838.546        1988.190          50.000  
