     2.10           OBSERVATION DATA    G (GPS)             RINEX VERSION / TYPE
RTKCONV 2.4.2                           20161014 212744 UTC PGM / RUN BY / DATE 
log: C:\Users\macshen\Desktop\asus_1014.ubx                 COMMENT             
format: u-blox                                              COMMENT             
                                                            MARKER NAME         
                                                            MARKER NUMBER       
                                                            OBSERVER / AGENCY   
                                                            REC # / TYPE / VERS 
                                                            ANT # / TYPE        
   517530.7908 -4696408.8778  4270462.4362                  APPROX POSITION XYZ 
        0.0000        0.0000        0.0000                  ANTENNA: DELTA H/E/N
     1     1                                                WAVELENGTH FACT L1/2
     4    C1    L1    D1    S1                              # / TYPES OF OBSERV 
  1980     1    11    20    49   15.6720000     GPS         TIME OF FIRST OBS   
  2016    10    14    21     3   50.8000000     GPS         TIME OF LAST OBS    
                                                            END OF HEADER       
 80  1 11 20 49 15.6720000  0  1G15
  21437184.699        2491.5922       -278.102          48.000  
 80  1 11 20 49 15.8000000  0  4G18G29G13G15
  23304663.847      -11008.4452       1876.793          47.000  
  23996827.501       21682.0812      -3345.570          44.000  
  22686557.136       13594.7192      -1992.564          44.000  
  21437191.051        2527.2142       -278.563          48.000  
 80  1 11 20 49 16.0000000  0  4G18G29G13G15
  23304591.777      -11383.7042       1875.792          47.000  
  23996954.661       22351.2742      -3345.632          44.000  
  22686633.708       13993.3302      -1993.050          44.000  
  21437201.608        2582.9652       -279.079          48.000  
 80  1 11 20 49 16.2000000  0  4G18G29G13G15
  23304520.197      -11758.8792       1875.621          47.000  
  23997082.309       23020.5202      -3347.061          44.000  
  22686709.163       14392.0182      -1993.951          44.000  
  21437211.380        2638.8032       -279.825          48.000  
 80  1 11 20 49 16.4000000  0  7G18G29G20G 4G21G13G15
  23304448.581      -12133.9442       1875.110          47.000  
  23997209.993       23689.9242      -3346.804          44.000  
  21497674.011        6445.0982       -834.500          46.000  
  24418420.242       20655.5522      -2990.717          42.000  
  22530907.337       -9463.6962       1497.014          46.000  
  22686785.699       14790.8442      -1994.372          44.000  
  21437222.618        2694.7882       -279.877          48.000  
 80  1 11 20 49 16.6000000  0  7G18G29G20G 4G21G13G15
  23304377.349      -12508.9042       1874.715          47.000  
  23997337.117       24359.3982      -3347.321          44.000  
  21497705.962        6612.0482       -834.707          46.000  
  24418533.040       21253.7572      -2990.826          42.000  
  22530849.943       -9763.0122       1496.389          46.000  
  22686861.677       15189.7812      -1994.701          44.000  
  21437233.454        2750.8812       -280.813          48.000  
 80  1 11 20 49 16.8000000  0  7G18G29G20G 4G21G13G15
  23304306.012      -12883.7722       1873.994          47.000  
  23997464.259       25028.9772      -3348.416          44.000  
  21497737.704        6779.1122       -835.319          46.000  
  24418646.903       21852.0532      -2992.062          42.000  
  22530793.613      -10062.1962       1495.879          46.000  
  22686937.655       15588.8362      -1995.589          44.000  
  21437244.029        2807.1002       -281.168          48.000  
 80  1 11 20 49 17.0000000  0  8G18G29G20G 4G21G24G13G15
  23304234.658      -13258.5082       1873.449          47.000  
  23997591.855       25698.6952      -3348.748          44.000  
  21497769.638        6946.3002       -835.601          46.000  
  24418760.818       22450.4932      -2991.841          41.000  
  22530737.005      -10361.2902       1495.013          46.000  
  25179193.423      -22258.8582       3352.956          42.000  
  22687013.512       15988.0152      -1996.203          44.000  
  21437254.743        2863.4562       -281.629          48.000  
 80  1 11 20 49 17.2000000  0  8G18G29G20G 4G21G24G13G15
  23304163.392      -13633.1842       1872.599          47.000  
  23997719.469       26368.4742      -3349.137          44.000  
  21497801.345        7113.5582       -836.761          46.000  
  24418874.558       23048.9852      -2992.675          41.000  
  22530680.274      -10660.2792       1495.118          46.000  
  25179066.089      -22929.3852       3352.190          42.000  
  22687089.403       16387.2902      -1997.113          44.000  
  21437265.475        2919.8902       -282.853          48.000  
 80  1 11 20 49 17.4000000  0  8G18G29G20G 4G21G24G13G15
  23304092.456      -14007.7782       1872.480          47.000  
  23997846.751       27038.3302      -3349.715          44.000  
  21497833.104        7280.9032       -837.313          46.000  
  24418988.386       23647.5762      -2993.798          41.000  
  22530623.247      -10959.1922       1494.129          46.000  
  25178938.476      -23599.8272       3352.594          42.000  
  22687165.189       16786.6672      -1996.695          44.000  
  21437276.260        2976.4322       -282.683          48.000  
 80  1 11 20 49 17.6000000  0  9G18G29G20G 4G21G24G 5G13G15
  23304021.346      -14382.2712       1872.488          47.000  
  23997974.468       27708.3062      -3350.001          44.000  
  21497864.916        7448.3602       -837.255          46.000  
  24419102.266       24246.2732      -2994.261          41.000  
  22530566.551      -11257.9952       1493.694          46.000  
  25178810.740      -24270.1762       3351.804          42.000  
  25252761.307       21725.2302      -2891.860          41.000  
  22687241.324       17186.1412      -1997.718          44.000  
  21437286.869        3033.0892       -283.649          48.000  
 80  1 11 20 49 17.8000000  0  9G18G29G20G 4G21G24G 5G13G15
  23303950.516      -14756.7162       1871.829          47.000  
  23998102.274       28378.3142      -3350.369          44.000  
  21497896.693        7615.8762       -837.576          46.000  
  24419216.006       24845.0192      -2993.528          41.000  
  22530509.837      -11556.7472       1493.523          46.000  
  25178683.493      -24940.4822       3350.750          42.000  
  25252871.471       22303.5432      -2892.143          41.000  
  22687317.407       17585.6692      -1998.517          44.000  
  21437297.810        3089.8222       -284.005          48.000  
 80  1 11 20 49 18.0000000  0  9G18G29G20G 4G21G24G 5G13G15
  23303879.528      -15131.0362       1871.173          47.000  
  23998229.625       29048.4612      -3351.269          44.000  
  21497928.504        7783.5132       -838.494          46.000  
  24419329.991       25443.9082      -2994.728          41.000  
  22530452.985      -11855.3622       1492.747          46.000  
  25178556.019      -25610.6572       3351.221          42.000  
  25252981.547       22881.9762      -2892.107          41.000  
  22687393.385       17985.3392      -1999.176          44.000  
  21437308.804        3146.6762       -284.733          48.000  
 80  1 11 20 49 18.2000000  0  9G18G29G20G 4G21G24G 5G13G15
  23303808.157      -15505.2472       1870.617          47.000  
  23998357.344       29718.7222      -3351.340          44.000  
  21497960.211        7951.2632       -839.142          46.000  
  24419443.923       26042.8842      -2995.783          41.000  
  22530395.940      -12153.8602       1492.748          46.000  
  25178428.667      -26280.7402       3349.781          42.000  
  25253091.832       23460.5042      -2892.508          41.000  
  22687469.433       18385.1382      -1999.794          44.000  
  21437319.571        3203.6762       -285.323          48.000  
 80  1 11 20 49 18.4000000  0  9G18G29G20G 4G21G24G 5G13G15
  23303737.047      -15879.3822       1870.345          47.000  
  23998484.643       30389.0602      -3351.155          44.000  
  21497992.320        8119.1092       -839.755          46.000  
  24419557.838       26641.9342      -2995.987          41.000  
  22530338.895      -12452.2782       1491.825          46.000  
  25178301.071      -26950.7332       3349.360          42.000  
  25253201.908       24039.1322      -2893.025          41.000  
  22687545.394       18785.0512      -1999.145          44.000  
  21437330.686        3260.7712       -285.955          48.000  
 80  1 11 20 49 18.6000000  0  9G18G29G20G 4G21G24G 5G13G15
  23303665.902      -16253.4072       1870.301          47.000  
  23998612.204       31059.5032      -3352.084          44.000  
  21498024.201        8287.0572       -839.974          46.000  
  24419671.823       27241.1182      -2996.122          41.000  
  22530282.234      -12750.5842       1491.231          46.000  
  25178173.614      -27620.6382       3349.328          42.000  
  25253311.949       24617.8482      -2893.107          41.000  
  22687621.424       19185.0592      -1999.978          44.000  
  21437341.208        3317.9922       -285.808          48.000  
 80  1 11 20 49 18.8000000  0  9G18G29G20G 4G21G24G 5G13G15
  23303594.601      -16627.3752       1869.847          47.000  
  23998739.834       31730.0172      -3352.815          44.000  
  21498056.536        8455.0882       -840.201          46.000  
  24419785.773       27840.3682      -2995.488          41.000  
  22530225.695      -13048.8122       1491.288          46.000  
  25178045.983      -28290.4802       3348.603          42.000  
  25253422.216       25196.6022      -2894.335          41.000  
  22687697.629       19585.1432      -2000.307          44.000  
  21437352.045        3375.2782       -286.578          48.000  
 80  1 11 20 49 19.0000000  0  9G18G29G20G 4G21G24G 5G13G15
  23303523.526      -17001.2622       1869.221          47.000  
  23998867.361       32400.6122      -3353.247          44.000  
  21498088.296        8623.1962       -840.844          46.000  
  24419899.688       28439.6972      -2996.134          41.000  
  22530168.842      -13346.9502       1490.430          46.000  
  25177918.370      -28960.2262       3349.065          42.000  
  25253532.258       25775.4492      -2894.155          41.000  
  22687773.852       19985.3252      -2001.530          44.000  
  21437363.021        3432.6792       -287.049          48.000  
 80  1 11 20 49 19.2000000  0  9G18G29G20G 4G21G24G 5G13G15
  23303452.085      -17375.0252       1869.059          47.000  
  23998994.730       33071.3352      -3354.098          44.000  
  21498120.142        8791.4432       -841.351          46.000  
  24420013.620       29039.1842      -2997.308          41.000  
  22530112.234      -13644.9562       1489.920          46.000  
  25177790.774      -29629.8862       3347.824          42.000  
  25253642.351       26354.4092      -2895.179          41.000  
  22687850.004       20385.6582      -2001.975          44.000  
  21437374.242        3490.2142       -287.964          48.000  
 80  1 11 20 49 19.4000000  0 10G18G29G20G 4G21G24G 5G10G13G15
  23303380.905      -17748.7492       1868.335          47.000  
  23999122.378       33742.1022      -3354.187          44.000  
  21498151.971        8959.7242       -841.542          46.000  
  24420127.623       29638.6922      -2997.253          41.000  
  22530055.346      -13942.9232       1489.392          46.000  
  25177663.091      -30299.4802       3347.886          42.000  
  25253752.532       26933.4112      -2895.466          41.000  
  26023813.853       -9543.6082       2889.321          35.000  
  22687925.965       20786.0222      -2002.605          44.000  
  21437385.253        3547.8112       -288.026          48.000  
 80  1 11 20 49 19.6000000  0 10G18G29G20G 4G21G24G 5G10G13G15
  23303309.726      -18122.3512       1868.023          47.000  
  23999250.026       34412.9782      -3354.684          44.000  
  21498184.062        9128.1362       -842.436          46.000  
  24420241.974       30238.3282      -2998.337          41.000  
  22529998.738      -14240.7552       1489.374          46.000  
  25177535.914      -30968.9572       3347.552          42.000  
  25253862.642       27512.5212      -2895.694          41.000  
  26023704.789      -10121.4742       2888.249          35.000  
  22688002.397       21186.5182      -2003.095          44.000  
  21437395.950        3605.5362       -288.770          48.000  
 80  1 11 20 49 19.8000000  0 10G18G29G20G 4G21G24G 5G10G13G15
  23303238.511      -18495.8972       1867.145          47.000  
  23999377.884       35083.9412      -3355.479          44.000  
  21498216.293        9296.6262       -842.842          46.000  
  24420356.185       30838.0162      -2998.801          41.000  
  22529942.129      -14538.5252       1488.764          46.000  
  25177408.544      -31638.3932       3347.295          42.000  
  25253972.788       28091.6992      -2895.949          41.000  
  26023595.690      -10699.2292       2889.038          35.000  
  22688078.532       21587.1302      -2003.511          44.000  
  21437406.943        3663.3652       -289.014          48.000  
 80  1 11 20 49 20.0000000  0 10G18G29G20G 4G21G24G 5G10G13G15
  23303167.594      -18869.3182       1867.320          47.000  
  23999505.637       35755.0172      -3355.083          44.000  
  21498248.471        9465.2222       -842.951          46.000  
  24420470.170       31437.8292      -2999.667          41.000  
  22529885.328      -14836.1722       1488.429          46.000  
  25177281.140      -32307.7222       3346.161          42.000  
  25254083.143       28670.9812      -2896.270          41.000  
  26023485.719      -11276.9092       2887.796          35.000  
  22688154.755       21987.8332      -2003.508          44.000  
  21437418.111        3721.3012       -289.831          47.000  
 80  1 11 20 49 20.2000000  0 10G18G29G20G 4G21G24G 5G10G13G15
  23303096.676      -19242.7032       1866.933          47.000  
  23999633.128       36426.1182      -3355.705          44.000  
  21498280.719        9633.8682       -843.489          46.000  
  24420584.591       32037.6812      -3000.632          41.000  
  22529828.737      -15133.7612       1487.954          46.000  
  25177153.753      -32976.9932       3346.649          42.000  
  25254193.254       29250.2952      -2896.923          41.000  
  26023376.149      -11854.5432       2888.668          35.000  
  22688231.082       22388.6062      -2004.255          44.000  
  21437428.983        3779.3072       -290.617          48.000  
 80  1 11 20 49 20.4000000  0 10G18G29G20G 4G21G24G 5G10G13G15
  23303025.601      -19615.9952       1866.095          47.000  
  23999761.091       37097.3422      -3356.399          44.000  
  21498312.845        9802.6242       -844.123          46.000  
  24420698.593       32637.6412      -2999.796          41.000  
  22529772.321      -15431.2562       1487.297          46.000  
  25177026.559      -33646.1872       3345.532          42.000  
  25254303.679       29829.7052      -2897.030          41.000  
  26023266.632      -12432.0802       2887.668          35.000  
  22688307.549       22789.4852      -2004.633          44.000  
  21437439.767        3837.4292       -290.609          48.000  
 80  1 11 20 49 20.6000000  0 10G18G29G20G 4G21G24G 5G10G13G15
  23302954.509      -19989.2142       1866.181          47.000  
  23999888.739       37768.6242      -3356.374          44.000  
  21498344.901        9971.4602       -844.317          46.000  
  24420812.770       33237.6842      -3000.128          41.000  
  22529715.555      -15728.6652       1487.466          46.000  
  25176899.539      -34315.2992       3345.928          42.000  
  25254413.807       30409.1752      -2897.211          41.000  
  26023155.509      -13009.5632       2887.342          35.000  
  22688383.789       23190.4582      -2004.728          44.000  
  21437450.935        3895.6492       -291.041          47.000  
 80  1 11 20 49 20.8000000  0 10G18G29G20G 4G21G24G 5G10G13G15
  23302883.364      -20362.3762       1865.448          47.000  
  24000016.666       38439.9632      -3356.635          44.000  
  21498377.183       10140.3492       -844.852          46.000  
  24420927.069       33837.7822      -3001.265          41.000  
  22529659.051      -16026.0222       1486.489          46.000  
  25176772.204      -34984.3902       3345.495          42.000  
  25254524.005       30988.6872      -2897.938          41.000  
  26023045.781      -13586.9762       2888.456          35.000  
  22688460.185       23591.4922      -2005.440          44.000  
  21437462.085        3953.9232       -291.871          47.000  
 80  1 11 20 49 21.0000000  0 10G18G29G20G 4G21G24G 5G10G13G15
  23302812.446      -20735.4812       1865.341          47.000  
  24000144.419       39111.3552      -3357.293          44.000  
  21498409.082       10309.3072       -845.122          46.000  
  24421041.472       34437.9272      -3000.989          41.000  
  22529602.303      -16323.2942       1485.952          46.000  
  25176644.887      -35653.4052       3345.213          41.000  
  25254634.657       31568.2742      -2898.829          41.000  
  26022935.478      -14164.3682       2886.679          35.000  
  22688536.425       23992.5812      -2006.508          44.000  
  21437472.747        4012.2872       -292.493          47.000  
 80  1 11 20 49 21.2000000  0 10G18G29G20G 4G21G24G 5G10G13G15
  23302741.319      -21108.4762       1865.131          47.000  
  24000271.823       39782.8712      -3358.427          44.000  
  21498441.260       10478.3752       -845.255          46.000  
  24421155.614       35038.1822      -3001.593          41.000  
  22529545.991      -16620.4612       1485.559          46.000  
  25176517.623      -36322.3282       3344.223          42.000  
  25254744.837       32147.9482      -2898.797          41.000  
  26022825.699      -14741.6552       2886.531          35.000  
  22688613.171       24393.8222      -2006.116          44.000  
  21437484.177        4070.7762       -292.297          47.000  
 80  1 11 20 49 21.4000000  0 10G18G29G20G 4G21G24G 5G10G13G15
  23302670.541      -21481.4232       1864.446          47.000  
  24000399.960       40454.4672      -3357.872          44.000  
  21498473.456       10647.5072       -845.921          46.000  
  24421269.721       35638.5252      -3001.977          41.000  
  22529489.504      -16917.5812       1484.905          45.000  
  25176390.341      -36991.1892       3344.074          42.000  
  25254854.983       32727.6802      -2899.547          41.000  
  26022716.618      -15318.8742       2885.474          35.000  
  22688689.376       24795.1022      -2006.962          43.000  
  21437495.328        4129.3412       -293.139          47.000  
 80  1 11 20 49 21.6000000  0 10G18G29G20G 4G21G24G 5G10G13G15
  23302599.693      -21854.2522       1864.024          47.000  
  24000527.818       41126.1542      -3358.218          44.000  
  21498505.983       10816.7652       -846.432          46.000  
  24421383.549       36239.0002      -3002.433          41.000  
  22529433.018      -17214.5532       1484.657          45.000  
  25176263.146      -37659.9342       3343.995          42.000  
  25254965.199       33307.5292      -2899.705          41.000  
  26022607.222      -15895.9742       2885.548          36.000  
  22688765.878       25196.5492      -2007.148          44.000  
  21437506.426        4188.0382       -293.779          47.000  
 80  1 11 20 49 21.8000000  0 10G18G29G20G 4G21G24G 5G10G13G15
  23302528.636      -22226.9942       1863.576          47.000  
  24000655.518       41797.9322      -3358.716          44.000  
  21498538.335       10986.1042       -847.193          46.000  
  24421497.760       36839.5382      -3002.867          41.000  
  22529376.496      -17511.4582       1484.310          46.000  
  25176135.777      -38328.6092       3342.857          42.000  
  25255075.641       33887.4322      -2899.978          41.000  
  26022496.500      -16473.0092       2884.790          36.000  
  22688842.362       25598.0772      -2007.649          44.000  
  21437517.332        4246.8282       -294.235          47.000  
 80  1 11 20 49 22.0000000  0 10G18G29G20G 4G21G24G 5G10G13G15
  23302457.526      -22599.6832       1863.087          47.000  
  24000782.974       42469.7672      -3359.780          44.000  
  21498570.514       11155.5242       -847.247          46.000  
  24421611.850       37440.1372      -3003.379          41.000  
  22529319.940      -17808.2772       1483.722          46.000  
  25176008.460      -38997.2102       3343.183          42.000  
  25255185.787       34467.4102      -2899.639          41.000  
  26022386.721      -17050.0122       2884.217          36.000  
  22688918.759       25999.6642      -2008.712          44.000  
  21437528.745        4305.7012       -294.411          47.000  
 80  1 11 20 49 22.2000000  0 10G18G29G20G 4G21G24G 5G10G13G15
  23302386.643      -22972.2742       1862.832          47.000  
  24000910.745       43141.7112      -3359.632          44.000  
  21498602.622       11325.0282       -847.987          46.000  
  24421726.253       38040.8432      -3003.634          41.000  
  22529263.471      -18105.0062       1483.186          46.000  
  25175881.283      -39665.7252       3342.480          42.000  
  25255296.212       35047.4832      -2900.321          41.000  
  26022276.436      -17626.8702       2883.749          36.000  
  22688995.366       26401.3662      -2009.315          44.000  
  21437540.122        4364.6912       -295.060          47.000  
 80  1 11 20 49 22.4000000  0 10G18G29G20G 4G21G24G 5G10G13G15
  23302315.568      -23344.8162       1862.642          47.000  
  24001038.777       43813.7042      -3360.396          44.000  
  21498635.027       11494.5882       -847.881          46.000  
  24421840.465       38641.6152      -3003.541          41.000  
  22529207.090      -18401.6602       1483.474          45.000  
  25175753.844      -40334.2122       3342.189          42.000  
  25255406.794       35627.5892      -2900.557          41.000  
  26022166.656      -18203.7022       2884.840          36.000  
  22689071.606       26803.1442      -2008.974          44.000  
  21437551.273        4423.7422       -295.471          47.000  
 80  1 11 20 49 22.6000000  0 10G18G29G20G 4G21G24G 5G10G13G15
  23302244.633      -23717.2632       1862.396          47.000  
  24001166.722       44485.7962      -3360.976          44.000  
  21498667.327       11664.2742       -848.386          46.000  
  24421954.834       39242.4582      -3004.404          41.000  
  22529150.534      -18698.2172       1482.455          45.000  
  25175626.876      -41002.5852       3342.102          43.000  
  25255517.219       36207.8142      -2900.841          41.000  
  26022056.999      -18780.4482       2884.080          36.000  
  22689148.264       27205.0242      -2009.811          45.000  
  21437562.633        4482.9112       -296.092          47.000  
 80  1 11 20 49 22.8000000  0 10G18G29G20G 4G21G24G 5G10G13G15
  23302173.593      -24089.6562       1861.541          47.000  
  24001294.667       45157.9412      -3360.800          44.000  
  21498699.488       11834.0002       -848.576          46.000  
  24422069.516       39843.3772      -3004.283          41.000  
  22529094.099      -18994.7272       1482.188          45.000  
  25175499.594      -41670.9172       3341.729          43.000  
  25255627.905       36788.0562      -2901.005          41.000  
  26021947.167      -19357.1812       2882.713          36.000  
  22689224.731       27606.9672      -2010.067          45.000  
  21437573.783        4542.1592       -296.452          47.000  
 80  1 11 20 49 23.0000000  0 10G18G29G20G 4G21G24G 5G10G13G15
  23302102.780      -24461.9642       1861.249          47.000  
  24001422.298       45830.1992      -3361.265          44.000  
  21498731.718       12003.8382       -849.513          46.000  
  24422183.640       40444.3782      -3004.472          41.000  
  22529037.648      -19291.1202       1481.703          45.000  
  25175372.434      -42339.1632       3340.772          43.000  
  25255738.469       37368.3842      -2901.943          41.000  
  26021837.510      -19933.7582       2883.165          36.000  
  22689301.215       28009.0082      -2010.832          45.000  
  21437585.091        4601.5142       -297.151          47.000  
 80  1 11 20 49 23.2000000  0 10G18G29G20G 4G21G24G 5G10G13G15
  23302031.915      -24834.1702       1861.010          47.000  
  24001550.330       46502.5262      -3361.993          44.000  
  21498764.071       12173.7642       -849.807          46.000  
  24422298.062       41045.4952      -3005.437          41.000  
  22528980.952      -19587.4232       1481.185          45.000  
  25175245.309      -43007.3132       3341.063          43.000  
  25255849.086       37948.7982      -2902.067          41.000  
  26021727.992      -20510.2812       2881.716          36.000  
  22689377.926       28411.1652      -2010.838          45.000  
  21437596.521        4660.9802       -297.446          47.000  
 80  1 11 20 49 23.4000000  0 10G18G29G20G 4G21G24G 5G10G13G15
  23301960.910      -25206.3152       1860.861          47.000  
  24001677.996       47174.9242      -3361.722          44.000  
  21498796.179       12343.7652       -850.168          46.000  
  24422412.709       41646.6532      -3006.565          41.000  
  22528924.448      -19883.6562       1480.672          45.000  
  25175118.080      -43675.4182       3340.688          43.000  
  25255959.668       38529.2692      -2902.943          41.000  
  26021618.457      -21086.7582       2880.018          36.000  
  22689454.323       28813.4032      -2011.549          45.000  
  21437607.689        4720.5222       -297.939          47.000  
 80  1 11 20 49 23.6000000  0 10G18G29G20G 4G21G24G 5G10G13G15
  23301889.957      -25578.4002       1860.039          47.000  
  24001805.836       47847.4032      -3362.562          44.000  
  21498828.585       12513.8382       -850.362          46.000  
  24422527.043       42247.9252      -3006.374          41.000  
  22528868.154      -20179.8092       1480.011          45.000  
  25174990.815      -44343.4452       3340.012          42.000  
  25256070.181       39109.8332      -2902.235          42.000  
  26021508.800      -21663.1392       2883.927          36.000  
  22689531.104       29215.7132      -2012.244          45.000  
  21437619.136        4780.1592       -298.267          47.000  
 80  1 11 20 49 23.8000000  0 10G18G29G20G 4G21G24G 5G10G13G15
  23301819.196      -25950.4672       1860.060          47.000  
  24001933.850       48519.8872      -3362.603          44.000  
  21498861.059       12683.9272       -850.871          46.000  
  24422641.621       42849.1902      -3005.987          41.000  
  22528811.894      -20475.9402       1480.425          45.000  
  25174863.934      -45011.4602       3339.843          42.000  
  25256180.588       39690.3972      -2902.878          42.000  
  26021399.160      -22239.5572       2881.932          36.000  
  22689607.728       29618.0712      -2011.699          45.000  
  21437630.304        4839.8162       -298.571          47.000  
 80  1 11 20 49 24.0000000  0 10G18G29G20G 4G21G24G 5G10G13G15
  23301748.697      -26322.4262       1859.695          47.000  
  24002061.795       49192.4842      -3363.096          44.000  
  21498893.394       12854.1282       -851.044          46.000  
  24422756.304       43450.5712      -3007.125          41.000  
  22528755.547      -20771.9602       1479.912          45.000  
  25174736.966      -45679.3772       3339.104          42.000  
  25256291.065       40271.0392      -2902.896          42.000  
  26021289.398      -22815.8352       2880.392          36.000  
  22689684.352       30020.5262      -2012.526          45.000  
  21437641.664        4899.6032       -299.305          47.000  
 80  1 11 20 49 24.2000000  0 10G18G29G20G 4G21G24G 5G10G13G15
  23301677.780      -26694.3492       1859.490          47.000  
  24002189.531       49865.1202      -3363.629          44.000  
  21498925.904       13024.3642       -851.251          46.000  
  24422870.899       44051.9992      -3007.325          41.000  
  22528699.218      -21067.9452       1480.011          45.000  
  25174609.719      -46347.2872       3339.614          42.000  
  25256401.316       40851.7272      -2903.564          42.000  
  26021179.968      -23392.0722       2881.959          36.000  
  22689760.731       30423.0312      -2012.819          45.000  
  21437652.989        4959.4372       -299.158          47.000  
 80  1 11 20 49 24.4000000  0 10G18G29G20G 4G21G24G 5G10G13G15
  23301607.176      -27066.2192       1859.212          47.000  
  24002317.685       50537.8232      -3363.769          44.000  
  21498958.169       13194.6902       -851.653          46.000  
  24422985.321       44653.4882      -3007.293          41.000  
  22528642.819      -21363.8572       1479.001          45.000  
  25174482.507      -47015.0942       3339.245          42.000  
  25256511.898       41432.4892      -2903.482          42.000  
  26021070.276      -23968.3182       2880.377          36.000  
  22689837.198       30825.6232      -2013.403          45.000  
  21437664.541        5019.3582       -299.710          47.000  
 80  1 11 20 49 24.6000000  0 10G18G29G20G 4G21G24G 5G10G13G15
  23301536.380      -27438.0072       1858.695          47.000  
  24002445.770       51210.6022      -3364.699          43.000  
  21498990.627       13365.0722       -852.415          46.000  
  24423100.125       45255.0512      -3008.131          41.000  
  22528586.838      -21659.6812       1478.765          45.000  
  25174355.417      -47682.8472       3338.508          42.000  
  25256622.706       42013.2772      -2904.552          41.000  
  26020960.758      -24544.4152       2880.354          36.000  
  22689913.962       31228.3042      -2014.020          45.000  
  21437676.233        5079.3782       -300.391          47.000  
 80  1 11 20 49 24.8000000  0 10G18G29G20G 4G21G24G 5G10G13G15
  23301465.776      -27809.7402       1858.430          47.000  
  24002573.767       51883.4292      -3364.344          43.000  
  21499022.874       13535.5422       -852.381          46.000  
  24423214.249       45856.6722      -3008.406          41.000  
  22528530.753      -21955.4392       1478.681          45.000  
  25174228.222      -48350.5412       3338.398          42.000  
  25256733.026       42594.1602      -2904.124          41.000  
  26020851.258      -25120.4802       2880.774          36.000  
  22689990.568       31631.0562      -2013.878          45.000  
  21437687.662        5139.4692       -300.974          47.000  
 80  1 11 20 49 25.0000000  0 10G18G29G20G 4G21G24G 5G10G13G15
  23301395.103      -28181.4092       1858.066          47.000  
  24002701.660       52556.3602      -3364.736          43.000  
  21499055.192       13706.0712       -853.216          46.000  
  24423328.583       46458.3772      -3008.520          41.000  
  22528474.301      -22251.1192       1478.085          45.000  
  25174101.289      -49018.1732       3338.057          42.000  
  25256843.626       43175.0892      -2904.662          41.000  
  26020741.775      -25696.4802       2880.827          36.000  
  22690067.366       32033.9002      -2014.570          45.000  
  21437699.092        5199.6402       -301.504          47.000  
 80  1 11 20 49 25.2000000  0 10G18G29G20G 4G21G24G 5G10G13G15
  23301324.377      -28552.9772       1857.657          47.000  
  24002829.570       53229.3692      -3365.033          43.000  
  21499087.754       13876.7172       -853.654          46.000  
  24423443.092       47060.1772      -3009.295          41.000  
  22528418.007      -22546.7062       1477.421          45.000  
  25173974.357      -49685.7092       3338.317          42.000  
  25256954.033       43756.1062      -2904.950          41.000  
  26020631.996      -26272.4342       2879.219          36.000  
  22690144.112       32436.8392      -2014.980          45.000  
  21437710.383        5259.9372       -301.615          47.000  
 80  1 11 20 49 25.4000000  0 10G18G29G20G 4G21G24G 5G10G13G15
  23301253.460      -28924.4822       1857.284          47.000  
  24002957.707       53902.4482      -3365.704          43.000  
  21499120.334       14047.4172       -853.248          46.000  
  24423557.879       47662.0382      -3008.791          41.000  
  22528361.852      -22842.2212       1477.440          45.000  
  25173847.511      -50353.1932       3337.619          42.000  
  25257064.476       44337.1972      -2906.053          41.000  
  26020522.338      -26848.2882       2879.238          35.000  
  22690220.701       32839.8572      -2015.078          45.000  
  21437722.074        5320.3172       -301.891          47.000  
 80  1 11 20 49 25.6000000  0 10G18G29G20G 4G21G24G 5G10G13G15
  23301182.612      -29295.9482       1857.314          47.000  
  24003086.193       54575.5522      -3365.909          43.000  
  21499153.036       14218.1662       -854.312          46.000  
  24423672.353       48263.9432      -3010.203          41.000  
  22528305.907      -23137.6812       1477.188          45.000  
  25173720.438      -51020.6412       3336.722          42.000  
  25257174.883       44918.3072      -2905.297          41.000  
  26020412.803      -27424.1322       2878.820          35.000  
  22690297.412       33242.9202      -2015.460          45.000  
  21437733.522        5380.7372       -302.191          47.000  
 80  1 11 20 49 25.8000000  0 10G18G29G20G 4G21G24G 5G10G13G15
  23301112.008      -29667.3342       1856.765          47.000  
  24003214.259       55248.7702      -3366.019          43.000  
  21499185.388       14389.0072       -854.321          46.000  
  24423786.895       48865.9412      -3010.840          41.000  
  22528249.595      -23433.0532       1476.933          45.000  
  25173593.331      -51688.0052       3336.880          42.000  
  25257285.273       45499.4952      -2906.395          41.000  
  26020303.320      -27999.8712       2878.713          35.000  
  22690374.298       33646.0982      -2015.852          45.000  
  21437745.038        5441.2672       -302.838          47.000  
 80  1 11 20 49 26.0000000  0 10G18G29G20G 4G21G24G 5G10G13G15
  23301041.526      -30038.6422       1856.256          47.000  
  24003342.379       55922.0492      -3366.692          44.000  
  21499218.020       14559.9282       -855.144          46.000  
  24423901.788       49468.0202      -3011.305          41.000  
  22528193.370      -23728.3472       1475.887          45.000  
  25173466.415      -52355.3032       3336.093          42.000  
  25257395.907       46080.7482      -2907.242          41.000  
  26020193.663      -28575.5522       2878.981          35.000  
  22690451.236       34049.3542      -2016.393          45.000  
  21437756.486        5501.8952       -303.517          47.000  
 80  1 11 20 49 26.2000000  0 10G18G29G20G 4G21G24G 5G10G13G15
  23300971.167      -30409.8532       1855.927          47.000  
  24003470.568       56595.4382      -3366.675          44.000  
  21499250.460       14730.9752       -854.644          46.000  
  24424016.436       50070.2102      -3010.851          41.000  
  22528137.110      -24023.5302       1475.815          45.000  
  25173339.657      -53022.5062       3335.423          42.000  
  25257506.646       46662.1082      -2907.232          41.000  
  26020083.901      -29151.1402       2877.241          35.000  
  22690527.842       34452.7162      -2016.969          45.000  
  21437768.020        5562.6382       -304.052          47.000  
 80  1 11 20 49 26.4000000  0 10G18G29G20G 4G21G24G 5G10G13G15
  23300900.389      -30781.0622       1855.766          47.000  
  24003598.897       57268.8242      -3366.662          44.000  
  21499283.057       14902.0122       -855.510          46.000  
  24424130.909       50672.4002      -3010.824          41.000  
  22528080.868      -24318.6872       1475.785          45.000  
  25173212.357      -53689.6902       3336.224          42.000  
  25257617.508       47243.4592      -2906.426          41.000  
  26019974.331      -29726.7462       2876.757          35.000  
  22690604.449       34856.0982      -2017.276          45.000  
  21437779.729        5623.4022       -304.090          47.000  
 80  1 11 20 49 26.6000000  0 10G18G29G20G 4G21G24G 5G10G13G15
  23300829.768      -31152.1962       1855.459          47.000  
  24003727.174       57942.2842      -3367.136          44.000  
  21499315.793       15073.1282       -855.763          46.000  
  24424245.714       51274.6872      -3010.791          41.000  
  22528024.836      -24613.7902       1474.697          45.000  
  25173085.512      -54356.8242       3336.004          42.000  
  25257728.247       47824.8842      -2906.875          41.000  
  26019864.569      -30302.2492       2877.141          35.000  
  22690681.229       35259.5792      -2017.545          45.000  
  21437791.229        5684.2652       -304.284          47.000  
 80  1 11 20 49 26.8000000  0 10G18G29G20G 4G21G24G 5G10G13G15
  23300759.164      -31523.2652       1855.124          47.000  
  24003855.485       58615.8262      -3368.211          44.000  
  21499348.320       15244.3272       -856.220          46.000  
  24424360.362       51877.0042      -3012.368          41.000  
  22527968.663      -24908.8022       1474.634          45.000  
  25172958.648      -55023.8992       3335.012          42.000  
  25257838.898       48406.3682      -2908.337          41.000  
  26019755.139      -30877.6892       2876.268          35.000  
  22690758.080       35663.1402      -2018.492          45.000  
  21437803.008        5745.2042       -304.817          47.000  
 80  1 11 20 49 27.0000000  0 10G18G29G20G 4G21G24G 5G10G13G15
  23300688.700      -31894.2632       1854.735          47.000  
  24003983.534       59289.4302      -3367.812          44.000  
  21499380.778       15415.5922       -856.350          46.000  
  24424474.922       52479.4032      -3011.938          41.000  
  22527912.264      -25203.7422       1474.738          45.000  
  25172831.593      -55690.8952       3335.460          42.000  
  25257949.550       48987.9072      -2907.832          41.000  
  26019645.586      -31453.1032       2877.861          35.000  
  22690834.791       36066.7742      -2018.461          45.000  
  21437814.403        5806.2342       -304.886          47.000  
 80  1 11 20 49 27.2000000  0 10G18G29G20G 4G21G24G 5G10G13G15
  23300618.149      -32265.2172       1854.376          47.000  
  24004111.915       59963.0872      -3368.551          44.000  
  21499413.287       15586.9142       -856.713          46.000  
  24424589.518       53081.8742      -3012.422          41.000  
  22527856.196      -25498.6232       1474.479          45.000  
  25172704.730      -56357.8392       3334.698          42.000  
  25258060.115       49569.5082      -2908.491          41.000  
  26019536.016      -32028.3992       2877.536          35.000  
  22690911.642       36470.4742      -2018.248          45.000  
  21437826.234        5867.3312       -305.710          47.000  
 80  1 11 20 49 27.4000000  0 10G18G29G20G 4G21G24G 5G10G13G15
  23300547.301      -32636.1232       1853.604          47.000  
  24004240.122       60636.8052      -3368.953          44.000  
  21499446.041       15758.2992       -857.278          46.000  
  24424704.305       53684.3892      -3012.530          41.000  
  22527800.234      -25793.4492       1473.828          45.000  
  25172577.815      -57024.7422       3334.237          42.000  
  25258170.627       50151.1522      -2908.641          41.000  
  26019426.464      -32603.6992       2876.484          35.000  
  22690988.458       36874.2352      -2018.802          45.000  
  21437837.734        5928.4892       -306.406          47.000  
 80  1 11 20 49 27.6000000  0 10G18G29G20G 4G21G24G 5G10G13G15
  23300476.802      -33006.9542       1854.107          47.000  
  24004368.695       61310.5872      -3369.056          44.000  
  21499478.569       15929.7492       -857.500          46.000  
  24424818.796       54286.9732      -3012.766          41.000  
  22527743.817      -26088.1962       1473.914          45.000  
  25172450.987      -57691.5802       3334.196          42.000  
  25258281.052       50732.8412      -2908.709          41.000  
  26019316.667      -33178.9522       2877.429          35.000  
  22691065.134       37278.0832      -2018.890          45.000  
  21437849.041        5989.7442       -306.150          47.000  
 80  1 11 20 49 27.8000000  0 10G18G29G20G 4G21G24G 5G10G13G15
  23300406.286      -33377.7522       1853.807          47.000  
  24004496.710       61984.4052      -3369.932          44.000  
  21499511.427       16101.2452       -857.605          46.000  
  24424933.252       54889.6182      -3013.348          41.000  
  22527687.819      -26382.9072       1473.387          45.000  
  25172323.687      -58358.3952       3333.651          42.000  
  25258392.053       51314.5832      -2909.080          41.000  
  26019207.237      -33754.1432       2876.579          35.000  
  22691142.072       37681.9782      -2020.363          44.000  
  21437860.541        6051.0422       -307.100          47.000  
 80  1 11 20 49 28.0000000  0 10G18G29G20G 4G21G24G 5G10G13G15
  23300335.821      -33748.4762       1853.105          47.000  
  24004624.742       62658.3232      -3369.926          44.000  
  21499544.129       16272.8302       -858.291          46.000  
  24425047.952       55492.3442      -3013.616          41.000  
  22527632.048      -26677.5272       1472.524          45.000  
  25172197.051      -59025.1152       3333.810          42.000  
  25258503.018       51896.4082      -2908.957          41.000  
  26019097.876      -34329.2962       2874.500          35.000  
  22691218.538       38085.9832      -2020.578          44.000  
  21437872.005        6112.4622       -307.347          47.000  
 80  1 11 20 49 28.2000000  0 10G18G29G20G 4G21G24G 5G10G13G15
  23300265.165      -34119.0852       1853.763          47.000  
  24004753.123       63332.3332      -3369.650          44.000  
  21499576.726       16444.5152       -858.081          46.000  
  24425162.582       56095.1632      -3013.586          41.000  
  22527575.754      -26972.0372       1473.205          45.000  
  25172070.571      -59691.7452       3334.404          42.000  
  25258613.932       52478.2882      -2909.592          41.000  
  26018988.585      -34904.3262       2875.376          35.000  
  22691295.686       38490.0912      -2020.368          44.000  
  21437883.680        6173.9742       -307.742          47.000  
 80  1 11 20 49 28.4000000  0 10G18G29G20G 4G21G24G 5G10G13G15
  23300194.789      -34489.6952       1852.608          47.000  
  24004881.313       64006.3432      -3370.378          44.000  
  21499609.480       16616.2142       -858.986          46.000  
  24425277.300       56697.9892      -3014.599          41.000  
  22527519.808      -27266.5322       1471.961          45.000  
  25171943.796      -60358.3812       3332.085          42.000  
  25258724.793       53060.2022      -2909.926          41.000  
  26018879.260      -35479.3682       2875.689          35.000  
  22691372.641       38894.2032      -2021.259          44.000  
  21437895.598        6235.5232       -308.321          47.000  
 80  1 11 20 49 28.6000000  0 10G18G29G20G 4G21G24G 5G10G13G15
  23300124.464      -34860.2212       1852.773          47.000  
  24005009.694       64680.4662      -3370.192          44.000  
  21499642.077       16788.0232       -858.992          46.000  
  24425392.140       57300.9322      -3014.507          41.000  
  22527463.723      -27560.9362       1471.835          45.000  
  25171816.985      -61024.9202       3332.452          42.000  
  25258835.270       53642.1962      -2910.255          41.000  
  26018769.916      -36054.3362       2873.577          35.000  
  22691449.492       39298.4452      -2021.160          44.000  
  21437907.464        6297.1832       -308.596          47.000  
 80  1 11 20 49 28.8000000  0 10G18G29G20G 4G21G24G 5G10G13G15
  23300054.018      -35230.6992       1852.684          47.000  
  24005138.180       65354.6092      -3369.955          44.000  
  21499674.761       16959.8612       -859.357          46.000  
  24425506.893       57903.8962      -3013.888          41.000  
  22527407.673      -27855.2822       1471.876          45.000  
  25171690.104      -61691.4412       3332.619          42.000  
  25258946.062       54224.2022      -2909.683          41.000  
  26018660.539      -36629.2382       2873.618          35.000  
  22691526.168       39702.7382      -2021.878          44.000  
  21437919.226        6358.8952       -308.472          47.000  
 80  1 11 20 49 29.0000000  0 10G18G29G20G 4G21G24G 5G10G13G15
  23299983.518      -35601.1862       1851.901          47.000  
  24005266.159       66028.7522      -3370.853          44.000  
  21499707.288       17131.7172       -859.681          46.000  
  24425621.523       58506.8742      -3014.978          41.000  
  22527351.413      -28149.6352       1471.440          45.000  
  25171563.066      -62357.9462       3332.463          42.000  
  25259056.800       54806.2332      -2910.167          41.000  
  26018551.125      -37204.1162       2875.607          35.000  
  22691602.844       40107.0182      -2021.673          44.000  
  21437931.283        6420.6252       -309.118          47.000  
 80  1 11 20 49 29.2000000  0 10G18G29G20G 4G21G24G 5G10G13G15
  23299912.932      -35971.5922       1851.659          47.000  
  24005394.506       66702.9912      -3370.847          44.000  
  21499739.972       17303.6502       -859.911          46.000  
  24425736.101       59109.9262      -3015.596          41.000  
  22527295.363      -28443.9032       1471.018          45.000  
  25171436.238      -63024.3832       3332.258          42.000  
  25259167.557       55388.3182      -2911.048          41.000  
  26018441.835      -37778.9842       2874.180          35.000  
  22691680.026       40511.4072      -2022.576          44.000  
  21437942.800        6482.4532       -309.359          47.000  
 80  1 11 20 49 29.4000000  0 10G18G29G20G 4G21G24G 5G10G13G15
  23299842.608      -36341.9402       1851.267          47.000  
  24005522.904       67377.2822      -3371.509          44.000  
  21499772.935       17475.6542       -860.359          46.000  
  24425850.958       59713.0702      -3015.729          41.000  
  22527239.348      -28738.0922       1470.709          45.000  
  25171309.288      -63690.7462       3332.302          42.000  
  25259277.999       55970.4672      -2910.907          41.000  
  26018332.334      -38353.7782       2873.783          35.000  
  22691756.825       40915.8692      -2023.597          44.000  
  21437954.370        6544.3512       -309.993          47.000  
 80  1 11 20 49 29.6000000  0 10G18G29G20G 4G21G24G 5G10G13G15
  23299772.109      -36712.2422       1850.895          47.000  
  24005651.111       68051.6342      -3372.297          44.000  
  21499805.724       17647.7072       -860.661          46.000  
  24425965.728       60316.2082      -3016.850          41.000  
  22527183.717      -29032.2382       1470.279          45.000  
  25171182.320      -64357.1112       3330.811          41.000  
  25259388.808       56552.6552      -2911.784          41.000  
  26018222.625      -38928.5032       2873.684          35.000  
  22691834.094       41320.4032      -2022.607          44.000  
  21437966.201        6606.3152       -310.172          47.000  
 80  1 11 20 49 29.8000000  0 10G18G29G20G 4G21G24G 5G10G13G15
  23299701.767      -37082.4572       1850.733          47.000  
  24005779.405       68726.0912      -3372.521          44.000  
  21499838.618       17819.8642       -860.588          46.000  
  24426080.359       60919.4942      -3016.997          41.000  
  22527127.666      -29326.2792       1470.034          45.000  
  25171055.701      -65023.3592       3331.497          41.000  
  25259499.792       57134.9452      -2911.484          41.000  
  26018113.090      -39503.1522       2872.488          35.000  
  22691911.207       41725.0262      -2022.839          44.000  
  21437978.381        6668.4082       -310.320          47.000  
 80  1 11 20 49 30.0000000  0 10G18G29G20G 4G21G24G 5G10G13G15
  23299631.093      -37452.6122       1850.947          47.000  
  24005907.838       69400.5782      -3372.353          44.000  
  21499871.232       17992.0732       -860.985          46.000  
  24426195.024       61522.8292      -3016.356          41.000  
  22527071.633      -29620.2572       1469.960          45.000  
  25170929.082      -65689.5732       3330.526          41.000  
  25259610.617       57717.2612      -2911.724          41.000  
  26018003.781      -40077.8072       2872.255          35.000  
  22691988.022       42129.7042      -2023.840          44.000  
  21437990.108        6730.5452       -310.769          47.000  
 80  1 11 20 49 30.2000000  0 10G18G29G20G 4G21G24G 5G10G13G15
  23299561.083      -37822.717        1850.480          47.000  
  24006036.377       70074.612       -3372.407          44.000  
  21499904.196       18164.335        -861.176          46.000  
  24426309.794       62125.686       -3016.657          41.000  
  22527015.758      -29914.184        1469.022          45.000  
  25170802.167      -66356.236        3330.744          41.000  
  25259721.531       58299.611       -2911.699          41.000  
  26017894.194      -40652.3672       2872.497          35.000  
  22692065.048       42533.952       -2023.740          44.000  
  21438002.305        6792.257        -311.176          47.000  
 80  1 11 20 49 30.4000000  0 10G18G29G20G 4G21G24G 5G10G13G15
  23299490.514      -38192.803        1849.992          47.000  
  24006165.212       70749.184       -3373.777          44.000  
  21499937.002       18336.644        -861.947          46.000  
  24426424.913       62729.107       -3017.139          41.000  
  22526959.690      -30208.084        1468.620          45.000  
  25170675.216      -67022.361        3329.440          41.000  
  25259832.200       58882.008       -2912.631          41.000  
  26017784.973      -41226.8662       2873.205          35.000  
  22692142.090       42938.773       -2024.763          44.000  
  21438014.137        6854.530        -312.371          47.000  
 80  1 11 20 49 30.6000000  0 10G18G29G20G 4G21G24G 5G10G13G15
  23299420.155      -38562.804        1850.004          47.000  
  24006293.244       71423.846       -3373.947          44.000  
  21499969.564       18509.021        -862.416          46.000  
  24426539.718       63332.581       -3017.925          41.000  
  22526903.780      -30501.882        1468.623          45.000  
  25170548.318      -67688.414        3329.920          41.000  
  25259943.079       59464.470       -2912.256          41.000  
  26017675.508      -41801.3602       2872.320          35.000  
  22692218.732       43343.656       -2024.052          44.000  
  21438025.985        6916.882        -312.080          47.000  
 80  1 11 20 49 30.8000000  0 10G18G29G20G 4G21G24G 5G10G13G15
  23299349.604      -38932.763        1849.701          47.000  
  24006421.363       72098.558       -3373.337          44.000  
  21500002.318       18681.460        -862.249          46.000  
  24426654.401       63936.137       -3017.099          41.000  
  22526847.747      -30795.634        1469.005          45.000  
  25170421.682      -68354.418        3330.486          41.000  
  25260053.853       60046.986       -2912.823          41.000  
  26017566.235      -42375.7792       2872.122          35.000  
  22692295.914       43748.593       -2025.345          44.000  
  21438037.782        6979.310        -312.483          47.000  
 80  1 11 20 49 31.0000000  0 10G18G29G20G 4G21G24G 5G10G13G15
  23299279.174      -39302.726        1850.002          47.000  
  24006550.023       72773.282       -3373.365          44.000  
  21500034.932       18853.908        -862.778          46.000  
  24426769.188       64539.674       -3017.834          42.000  
  22526791.958      -31089.373        1468.474          45.000  
  25170294.749      -69020.438        3330.094          41.000  
  25260164.574       60629.498       -2912.970          41.000  
  26017456.786      -42950.2012       2872.793          35.000  
  22692373.026       44153.559       -2024.952          44.000  
  21438049.560        7041.756        -312.608          47.000  
 80  1 11 20 49 31.2000000  0 10G18G29G20G 4G21G24G 5G10G13G15
  23299208.850      -39672.626        1849.644          47.000  
  24006678.178       73448.040       -3374.139          44.000  
  21500067.704       19026.428        -862.311          46.000  
  24426884.272       65143.321       -3017.657          42.000  
  22526736.275      -31383.040        1468.140          45.000  
  25170168.095      -69686.378        3330.045          41.000  
  25260275.383       61212.046       -2913.370          41.000  
  26017347.513      -43524.5522       2872.804          35.000  
  22692450.051       44558.616       -2024.500          44.000  
  21438061.461        7104.279        -312.370          47.000  
 80  1 11 20 49 31.4000000  0 10G18G29G20G 4G21G24G 5G10G13G15
  23299138.683      -40042.498        1849.354          47.000  
  24006806.419       74122.846       -3374.489          44.000  
  21500100.632       19198.980        -862.831          46.000  
  24426999.147       65746.949       -3017.879          42.000  
  22526680.294      -31676.679        1467.534          45.000  
  25170041.581      -70352.309        3329.034          42.000  
  25260386.175       61794.643       -2913.272          41.000  
  26017238.310      -44098.9312       2870.377          35.000  
  22692527.094       44963.696       -2025.342          44.000  
  21438073.292        7166.854        -312.947          47.000  
 80  1 11 20 49 31.6000000  0 10G18G29G20G 4G21G24G 5G10G13G15
  23299068.236      -40412.295        1848.926          47.000  
  24006934.853       74797.728       -3374.961          44.000  
  21500133.386       19371.595        -863.406          46.000  
  24427114.022       66350.676       -3018.779          42.000  
  22526624.471      -31970.223        1468.369          45.000  
  25169914.997      -71018.167        3329.532          42.000  
  25260497.332       62377.291       -2912.858          41.000  
  26017129.211      -44673.1892       2871.278          35.000  
  22692604.102       45368.856       -2025.386          44.000  
  21438085.438        7229.516        -313.111          47.000  
 80  1 11 20 49 31.8000000  0 10G18G29G20G 4G21G24G 5G10G13G15
  23298997.772      -40782.038        1848.782          47.000  
  24007063.164       75472.681       -3374.997          44.000  
  21500166.385       19544.286        -863.677          46.000  
  24427229.123       66954.466       -3018.827          42.000  
  22526568.630      -32263.734        1467.389          45.000  
  25169788.553      -71683.982        3328.440          42.000  
  25260608.386       62959.982       -2914.229          41.000  
  26017019.938      -45247.4212       2871.665          35.000  
  22692681.319       45774.098       -2026.538          44.000  
  21438097.478        7292.237        -313.828          47.000  
 16 10 14 20 49 32.0000000  0 10G18G29G20G 4G21G24G 5G10G13G15
  23298927.360      -41151.695        1848.145          47.000  
  24007191.685       76147.706       -3375.219          44.000  
  21500199.313       19717.072        -863.924          46.000  
  24427343.649       67558.336       -3019.308          42.000  
  22526512.807      -32557.122        1466.818          45.000  
  25169662.091      -72349.701        3328.356          42.000  
  25260719.177       63542.760       -2914.584          41.000  
  26016910.734      -45821.5662       2871.300          35.000  
  22692758.571       46179.428       -2026.805          44.000  
  21438109.187        7355.085        -314.473          47.000  
 16 10 14 20 49 32.2000000  0 10G18G29G20G 4G21G24G 5G10G13G15
  23298856.966      -41521.305        1848.027          47.000  
  24007320.206       76822.788       -3375.435          44.000  
  21500232.416       19889.915        -864.127          46.000  
  24427458.523       68162.251       -3020.043          41.000  
  22526456.914      -32850.475        1466.553          45.000  
  25169535.280      -73015.393        3328.214          42.000  
  25260830.212       64125.577       -2914.430          41.000  
  26016801.338      -46395.7022       2870.653          35.000  
  22692835.666       46584.818       -2026.788          44.000  
  21438121.350        7417.979        -314.821          47.000  
 16 10 14 20 49 32.4000000  0 10G18G29G20G 4G21G24G 5G10G13G15
  23298786.502      -41890.869        1848.252          47.000  
  24007448.604       77497.905       -3375.133          44.000  
  21500265.222       20062.803        -864.572          46.000  
  24427573.503       68766.228       -3019.601          41.000  
  22526401.038      -33143.763        1466.712          45.000  
  25169408.591      -73681.017        3328.873          42.000  
  25260941.074       64708.423       -2914.260          41.000  
  26016692.100      -46969.7522       2869.006          35.000  
  22692912.813       46990.280       -2026.976          43.000  
  21438133.303        7480.946        -314.650          47.000  
 16 10 14 20 49 32.6000000  0 10G18G29G20G 4G21G24G 5G10G13G15
  23298716.370      -42260.410        1847.767          47.000  
  24007577.352       78173.058       -3376.064          44.000  
  21500297.959       20235.728        -864.494          46.000  
  24427688.447       69370.231       -3020.515          41.000  
  22526345.058      -33437.025        1466.115          45.000  
  25169282.042      -74346.631        3327.556          42.000  
  25261052.005       65291.328       -2914.551          40.000  
  26016583.019      -47543.7702       2871.086          35.000  
  22692990.083       47395.773       -2027.435          43.000  
  21438145.204        7543.969        -314.982          47.000  
 16 10 14 20 49 32.8000000  0 10G18G29G20G 4G21G24G 5G10G13G15
  23298646.237      -42629.849        1847.089          47.000  
  24007705.978       78848.317       -3376.519          44.000  
  21500331.132       20408.743        -865.132          46.000  
  24427803.375       69974.352       -3020.106          41.000  
  22526289.409      -33730.182        1465.789          45.000  
  25169155.424      -75012.165        3327.984          42.000  
  25261162.866       65874.310       -2915.274          40.000  
  26016473.745      -48117.7272       2869.674          35.000  
  22693067.248       47801.387       -2027.864          43.000  
  21438157.454        7607.092        -315.918          47.000  
 16 10 14 20 49 33.0000000  0 10G18G29G20G 4G21G24G 5G10G13G15
  23298575.633      -42999.258        1847.054          47.000  
  24007834.585       79523.595       -3376.741          44.000  
  21500364.095       20581.811        -865.429          46.000  
  24427918.249       70578.484       -3021.104          41.000  
  22526233.481      -34023.284        1465.249          45.000  
  25169028.717      -75677.659        3327.410          42.000  
  25261273.552       66457.310       -2915.345          40.000  
  26016364.699      -48691.6612       2868.687          35.000  
  22693144.133       48207.036       -2027.812          43.000  
  21438169.477        7670.268        -316.486          47.000  
 16 10 14 20 49 33.2000000  0 10G18G29G20G 4G21G24G 5G10G13G15
  23298505.413      -43368.625        1846.825          47.000  
  24007963.298       80198.939       -3376.294          44.000  
  21500397.233       20754.917        -865.540          46.000  
  24428033.403       71182.684       -3021.650          41.000  
  22526177.727      -34316.349        1465.084          45.000  
  25168902.238      -76343.135        3326.887          42.000  
  25261384.762       67040.366       -2915.444          40.000  
  26016255.321      -49265.5392       2869.354          35.000  
  22693221.542       48612.737       -2029.453          43.000  
  21438181.082        7733.506        -316.415          47.000  
 16 10 14 20 49 33.4000000  0 10G18G29G20G 4G21G24G 5G10G13G15
  23298435.141      -43737.977        1846.542          47.000  
  24008091.662       80874.303       -3376.683          44.000  
  21500430.092       20928.052        -865.455          46.000  
  24428148.278       71786.879       -3021.425          41.000  
  22526122.009      -34609.400        1464.928          45.000  
  25168775.584      -77008.567        3327.235          42.000  
  25261495.746       67623.407       -2915.365          40.000  
  26016146.012      -49839.4272       2869.289          35.000  
  22693299.161       49018.486       -2028.680          43.000  
  21438193.087        7796.782        -316.600          47.000  
 16 10 14 20 49 33.6000000  0 10G18G29G20G 4G21G24G 5G10G13G15
  23298364.957      -44107.292        1846.499          47.000  
  24008220.218       81549.686       -3377.272          44.000  
  21500462.915       21101.234        -865.940          46.000  
  24428263.763       72391.143       -3021.254          41.000  
  22526066.395      -34902.386        1465.085          45.000  
  25168648.931      -77673.982        3327.141          42.000  
  25261606.624       68206.486       -2915.219          40.000  
  26016036.704      -50413.2392       2868.442          35.000  
  22693376.256       49424.281       -2029.284          43.000  
  21438205.076        7860.109        -316.948          47.000  
 16 10 14 20 49 33.8000000  0 10G18G29G20G 4G21G24G 5G10G13G15
  23298294.650      -44476.564        1846.245          47.000  
  24008348.704       82225.140       -3377.020          44.000  
  21500495.739       21274.470        -866.305          46.000  
  24428378.778       72995.453       -3021.668          41.000  
  22526010.484      -35195.323        1464.937          45.000  
  25168522.417      -78339.333        3327.044          42.000  
  25261717.329       68789.625       -2915.700          40.000  
  26015927.204      -50987.0502       2869.365          35.000  
  22693453.508       49830.133       -2028.704          44.000  
  21438216.959        7923.511        -316.652          47.000  
 16 10 14 20 49 34.0000000  0 10G18G29G20G 4G21G24G 5G10G13G15
  23298224.150      -44845.782        1846.216          47.000  
  24008477.276       82900.623       -3377.670          44.000  
  21500528.964       21447.742        -866.655          46.000  
  24428493.530       73599.794       -3021.309          41.000  
  22525954.748      -35488.227        1464.386          45.000  
  25168395.867      -79004.675        3326.321          42.000  
  25261828.329       69372.776       -2915.567          40.000  
  26015818.088      -51560.8102       2867.438          35.000  
  22693530.899       50236.032       -2029.366          44.000  
  21438229.087        7986.952        -317.853          47.000  
 16 10 14 20 49 34.2000000  0 10G18G29G20G 4G21G24G 5G10G13G15
  23298154.053      -45214.939        1845.531          47.000  
  24008605.780       83576.197       -3377.679          44.000  
  21500561.613       21621.105        -866.939          46.000  
  24428608.579       74204.226       -3022.969          41.000  
  22525899.099      -35781.029        1464.073          45.000  
  25168269.179      -79669.929        3325.762          42.000  
  25261939.417       69956.015       -2916.555          40.000  
  26015708.901      -52134.4822       2868.243          35.000  
  22693607.907       50642.038       -2030.008          44.000  
  21438241.127        8050.501        -318.127          47.000  
 16 10 14 20 49 34.4000000  0 10G18G29G20G 4G21G24G 5G10G13G15
  23298083.886      -45584.025        1845.597          47.000  
  24008734.231       84251.822       -3377.912          44.000  
  21500594.682       21794.536        -867.382          46.000  
  24428723.419       74808.726       -3022.278          41.000  
  22525843.311      -36073.762        1463.790          45.000  
  25168142.368      -80335.120        3326.563          42.000  
  25262050.453       70539.301       -2916.590          40.000  
  26015599.873      -52708.1372       2867.422          35.000  
  22693685.194       51048.103       -2030.410          44.000  
  21438253.011        8114.135        -317.952          47.000  
 16 10 14 20 49 34.6000000  0 10G18G29G20G 4G21G24G 5G10G13G15
  23298013.387      -45953.078        1845.180          47.000  
  24008862.804       84927.501       -3378.193          44.000  
  21500627.785       21968.010        -867.547          46.000  
  24428838.678       75413.275       -3023.185          41.000  
  22525787.470      -36366.456        1463.368          45.000  
  25168015.993      -81000.288        3326.077          42.000  
  25262161.209       71122.638       -2916.134          40.000  
  26015490.372      -53281.7202       2867.088          35.000  
  22693762.620       51454.235       -2030.861          44.000  
  21438265.104        8177.820        -318.408          47.000  
 16 10 14 20 49 34.8000000  0 10G18G29G20G 4G21G24G 5G10G13G15
  23297943.027      -46322.072        1845.251          47.000  
  24008991.482       85603.226       -3379.014          44.000  
  21500660.556       22141.548        -867.697          46.000  
  24428953.343       76017.860       -3023.006          41.000  
  22525731.787      -36659.098        1462.859          45.000  
  25167889.218      -81665.405        3325.664          42.000  
  25262272.053       71706.025       -2916.499          40.000  
  26015381.151      -53855.2732       2868.149          35.000  
  22693839.890       51860.419       -2031.410          44.000  
  21438277.406        8241.573        -318.619          47.000  
 16 10 14 20 49 35.0000000  0 10G18G29G20G 4G21G24G 5G10G13G15
  23297872.807      -46691.024        1845.096          47.000  
  24009119.933       86279.010       -3378.884          44.000  
  21500693.659       22315.152        -867.510          46.000  
  24429068.532       76622.527       -3023.346          41.000  
  22525676.260      -36951.661        1463.459          45.000  
  25167762.494      -82330.471        3325.403          42.000  
  25262382.914       72289.431       -2917.196          41.000  
  26015272.140      -54428.7472       2867.720          35.000  
  22693917.054       52266.665       -2031.554          44.000  
  21438289.464        8305.398        -319.222          47.000  
 16 10 14 20 49 35.2000000  0 10G18G29G20G 4G21G24G 5G10G13G15
  23297802.745      -47059.913        1844.324          47.000  
  24009248.680       86954.851       -3378.805          44.000  
  21500726.832       22488.809        -868.418          46.000  
  24429183.476       77227.245       -3022.254          41.000  
  22525620.558      -37244.170        1462.629          45.000  
  25167635.927      -82995.480        3324.680          42.000  
  25262494.316       72872.903       -2917.267          41.000  
  26015163.111      -55002.1942       2866.509          35.000  
  22693994.446       52673.000       -2032.016          44.000  
  21438301.505        8369.306        -319.865          47.000  
 16 10 14 20 49 35.4000000  0 10G18G29G20G 4G21G24G 5G10G13G15
  23297732.351      -47428.760        1844.349          47.000  
  24009377.358       87630.739       -3379.944          44.000  
  21500760.336       22662.504        -868.467          46.000  
  24429298.648       77831.982       -3023.849          41.000  
  22525564.788      -37536.633        1462.621          45.000  
  25167509.553      -83660.450        3325.007          42.000  
  25262605.108       73456.402       -2917.503          41.000  
  26015054.151      -55575.6162       2867.703          35.000  
  22694071.960       53079.380       -2031.921          44.000  
  21438313.772        8433.266        -320.106          47.000  
 16 10 14 20 49 35.6000000  0 10G18G29G20G 4G21G24G 5G10G13G15
  23297662.148      -47797.618        1844.518          47.000  
  24009506.176       88306.618       -3378.624          44.000  
  21500793.125       22836.219        -868.413          46.000  
  24429413.575       78436.741       -3024.030          41.000  
  22525509.052      -37829.092        1462.397          45.000  
  25167383.004      -84325.427        3325.289          42.000  
  25262716.353       74039.896       -2917.198          41.000  
  26014945.349      -56149.0412       2867.454          35.000  
  22694149.038       53485.779       -2031.507          44.000  
  21438326.144        8497.238        -319.899          47.000  
 16 10 14 20 49 35.8000000  0 10G18G29G20G 4G21G24G 5G10G13G15
  23297591.894      -48166.430        1843.588          47.000  
  24009634.749       88982.553       -3380.020          44.000  
  21500826.211       23009.969        -869.248          46.000  
  24429528.694       79041.565       -3024.394          41.000  
  22525453.403      -38121.498        1461.571          45.000  
  25167256.420      -84990.364        3324.254          42.000  
  25262827.319       74623.440       -2917.557          41.000  
  26014836.320      -56722.4192       2867.711          35.000  
  22694226.342       53892.215       -2032.565          44.000  
  21438338.534        8561.273        -320.353          47.000  
 16 10 14 20 49 36.0000000  0 10G18G29G20G 4G21G24G 5G10G13G15
  23297521.604      -48535.226        1843.698          47.000  
  24009763.182       89658.523       -3379.302          44.000  
  21500859.331       23183.757        -868.791          46.000  
  24429643.935       79646.378       -3024.545          41.000  
  22525398.068      -38413.877        1462.377          45.000  
  25167129.940      -85655.277        3324.328          42.000  
  25262938.494       75206.992       -2917.171          41.000  
  26014727.326      -57295.7702       2867.893          35.000  
  22694303.838       54298.703       -2032.525          44.000  
  21438350.731        8625.354        -320.232          47.000  
 16 10 14 20 49 36.2000000  0 10G18G29G20G 4G21G24G 5G10G13G15
  23297451.890      -48903.947        1843.395          47.000  
  24009891.668       90334.554       -3379.766          44.000  
  21500892.661       23357.617        -869.115          46.000  
  24429759.089       80251.287       -3024.668          42.000  
  22525342.646      -38706.177        1461.923          45.000  
  25167003.182      -86320.124        3324.230          42.000  
  25263049.582       75790.610       -2918.432          41.000  
  26014618.332      -57869.075        2866.735          35.000  
  22694381.544       54705.276       -2032.860          44.000  
  21438362.999        8689.523        -320.403          47.000  
 16 10 14 20 49 36.4000000  0 10G18G29G20G 4G21G24G 5G10G13G15
  23297381.810      -49272.658        1843.161          47.000  
  24010020.433       91010.590       -3381.021          44.000  
  21500925.467       23531.499        -869.554          46.000  
  24429874.312       80856.226       -3025.526          42.000  
  22525287.206      -38998.453        1460.969          45.000  
  25166876.615      -86984.962        3323.717          42.000  
  25263160.687       76374.252       -2918.555          41.000  
  26014509.477      -58442.382        2865.967          35.000  
  22694459.128       55111.891       -2033.070          44.000  
  21438375.092        8753.714        -321.385          47.000  
 16 10 14 20 49 36.6000000  0 10G18G29G20G 4G21G24G 5G10G13G15
  23297311.625      -49641.304        1843.289          47.000  
  24010149.007       91686.697       -3380.411          44.000  
  21500958.396       23705.445        -869.394          46.000  
  24429989.379       81461.218       -3024.963          42.000  
  22525231.471      -39290.670        1461.031          45.000  
  25166749.997      -87649.757        3323.737          42.000  
  25263271.740       76957.920       -2918.136          41.000  
  26014400.169      -59015.614        2865.453          35.000  
  22694536.659       55518.541       -2033.692          44.000  
  21438387.464        8817.991        -321.197          47.000  
 16 10 14 20 49 36.8000000  0 10G18G29G20G 4G21G24G 5G10G13G15
  23297241.423      -50009.931        1842.497          47.000  
  24010277.562       92362.829       -3380.856          44.000  
  21500991.324       23879.418        -870.244          46.000  
  24430104.411       82066.241       -3025.199          41.000  
  22525175.944      -39582.860        1460.866          45.000  
  25166623.413      -88314.515        3323.630          42.000  
  25263382.776       77541.614       -2919.104          41.000  
  26014291.123      -59588.805        2866.028          35.000  
  22694613.981       55925.257       -2033.789          44.000  
  21438399.749        8882.307        -321.978          47.000  
 16 10 14 20 49 37.0000000  0 10G18G29G20G 4G21G24G 5G10G13G15
  23297171.727      -50378.502        1842.666          47.000  
  24010406.362       93039.023       -3381.098          44.000  
  21501024.445       24053.478        -870.349          46.000  
  24430219.548       82671.331       -3025.638          41.000  
  22525120.243      -39874.960        1460.672          45.000  
  25166497.160      -88979.204        3323.604          42.000  
  25263493.777       78125.402       -2918.366          41.000  
  26014181.989      -60161.966        2866.240          35.000  
  22694691.442       56332.030       -2034.440          44.000  
  21438411.859        8946.712        -322.213          47.000  
 16 10 14 20 49 37.2000000  0 10G18G29G20G 4G21G24G 5G10G13G15
  23297101.402      -50747.063        1842.532          47.000  
  24010535.092       93715.226       -3381.221          44.000  
  21501057.669       24227.529        -870.401          46.000  
  24430334.474       83276.424       -3025.813          41.000  
  22525064.716      -40167.056        1460.731          45.000  
  25166370.751      -89643.914        3323.551          42.000  
  25263604.673       78709.146       -2918.793          41.000  
  26014073.379      -60735.144        2864.810          35.000  
  22694768.834       56738.832       -2034.165          44.000  
  21438424.092        9011.128        -322.329          47.000  
 16 10 14 20 49 37.4000000  0 10G18G29G20G 4G21G24G 5G10G13G15
  23297031.357      -51115.569        1843.029          47.000  
  24010663.892       94391.486       -3381.303          44.000  
  21501090.685       24401.628        -870.737          46.000  
  24430449.681       83881.535       -3025.469          41.000  
  22525009.067      -40459.112        1460.222          45.000  
  25166244.359      -90308.585        3323.600          42.000  
  25263716.005       79292.936       -2919.048          41.000  
  26013964.367      -61308.214        2867.001          35.000  
  22694846.260       57145.698       -2033.701          44.000  
  21438436.062        9075.603        -322.164          47.000  
 16 10 14 20 49 37.6000000  0 10G18G29G20G 4G21G24G 5G10G13G15
  23296961.486      -51484.056        1842.214          47.000  
  24010792.937       95067.784       -3381.876          44.000  
  21501123.788       24575.786        -871.250          46.000  
  24430564.957       84486.755       -3026.068          41.000  
  22524953.506      -40751.105        1459.636          45.000  
  25166117.880      -90973.210        3323.107          42.000  
  25263827.268       79876.766       -2918.851          41.000  
  26013855.251      -61881.336        2865.510          35.000  
  22694923.635       57552.592       -2034.991          44.000  
  21438448.400        9140.141        -323.223          47.000  
 16 10 14 20 49 37.8000000  0 10G18G29G20G 4G21G24G 5G10G13G15
  23296891.145      -51852.518        1842.021          47.000  
  24010921.492       95744.087       -3382.204          44.000  
  21501156.891       24749.971        -871.188          46.000  
  24430680.407       85091.965       -3026.597          41.000  
  22524897.839      -41043.079        1459.385          45.000  
  25165991.331      -91637.838        3323.344          42.000  
  25263938.426       80460.592       -2919.925          41.000  
  26013746.361      -62454.406        2866.357          35.000  
  22695001.183       57959.533       -2035.533          44.000  
  21438460.807        9204.724        -322.668          47.000  
 16 10 14 20 49 38.0000000  0 10G18G29G20G 4G21G24G 5G10G13G15
  23296821.012      -52220.883        1841.713          47.000  
  24011050.432       96420.509       -3383.016          44.000  
  21501190.082       24924.245        -872.034          46.000  
  24430795.858       85697.262       -3027.041          41.000  
  22524842.138      -41334.961        1459.214          45.000  
  25165864.677      -92302.350        3322.170          41.000  
  25264049.496       81044.555       -2919.368          41.000  
  26013636.984      -63027.363        2865.422          35.000  
  22695078.540       58366.614       -2035.188          44.000  
  21438473.545        9269.412        -323.748          47.000  
 16 10 14 20 49 38.2000000  0 10G18G29G20G 4G21G24G 5G10G13G15
  23296750.652      -52589.205        1841.781          47.000  
  24011178.848       97096.989       -3382.456          44.000  
  21501223.341       25098.553        -871.815          46.000  
  24430911.029       86302.593       -3026.992          41.000  
  22524786.594      -41626.780        1459.172          45.000  
  25165738.128      -92966.812        3321.662          40.000  
  25264160.654       81628.495       -2919.965          41.000  
  26013528.041      -63600.298        2863.711          35.000  
  22695155.879       58773.687       -2036.230          44.000  
  21438485.917        9334.156        -323.523          47.000  
 16 10 14 20 49 38.4000000  0 10G18G29G20G 4G21G24G 5G10G13G15
  23296680.363      -52957.508        1841.470          47.000  
  24011307.630       97773.469       -3382.656          44.000  
  21501256.636       25272.927        -872.328          46.000  
  24431026.096       86907.977       -3027.024          41.000  
  22524731.189      -41918.559        1458.657          45.000  
  25165611.439      -93631.271        3322.513          40.000  
  25264271.759       82212.509       -2920.074          41.000  
  26013418.873      -64173.244        2863.720          35.000  
  22695233.376       59180.856       -2035.962          44.000  
  21438498.342        9398.944        -323.920          47.000  
 16 10 14 20 49 38.6000000  0 10G18G29G20G 4G21G24G 5G10G13G15
  23296610.108      -53325.788        1841.252          47.000  
  24011436.204       98449.982       -3383.268          44.000  
  21501290.054       25447.326        -872.054          45.000  
  24431141.354       87513.387       -3027.340          41.000  
  22524675.628      -42210.324        1458.204          45.000  
  25165484.855      -94295.712        3321.335          41.000  
  25264382.760       82796.518       -2920.717          41.000  
  26013310.018      -64746.123        2864.434          35.000  
  22695310.994       59588.047       -2036.235          44.000  
  21438510.574        9463.790        -324.481          47.000  
 16 10 14 20 49 38.8000000  0 10G18G29G20G 4G21G24G 5G10G13G15
  23296539.993      -53694.030        1841.170          47.000  
  24011565.004       99126.556       -3382.874          44.000  
  21501323.122       25621.754        -872.275          46.000  
  24431256.735       88118.875       -3027.494          41.000  
  22524620.049      -42502.029        1458.761          45.000  
  25165358.550      -94960.103        3321.902          41.000  
  25264494.162       83380.568       -2920.331          41.000  
  26013201.077      -65318.995        2863.799          35.000  
  22695388.351       59995.276       -2035.885          44.000  
  21438522.633        9528.695        -325.023          47.000  
 16 10 14 20 49 39.0000000  0 10G18G29G20G 4G21G24G 5G10G13G15
  23296470.053      -54062.238        1840.726          47.000  
  24011693.908       99803.131       -3383.367          44.000  
  21501356.399       25796.228        -872.433          46.000  
  24431372.011       88724.362       -3028.054          41.000  
  22524564.644      -42793.708        1458.059          45.000  
  25165232.071      -95624.496        3321.560          41.000  
  25264605.215       83964.648       -2921.093          41.000  
  26013092.100      -65891.816        2865.309          35.000  
  22695465.847       60402.578       -2036.276          44.000  
  21438535.197        9593.637        -325.052          47.000  
 16 10 14 20 49 39.2000000  0 10G18G29G20G 4G21G24G 5G10G13G15
  23296399.955      -54430.398        1840.749          47.000  
  24011822.568      100479.768       -3383.362          44.000  
  21501389.624       25970.746        -872.759          46.000  
  24431487.095       89329.898       -3027.902          41.000  
  22524509.275      -43085.322        1457.593          45.000  
  25165105.644      -96288.839        3321.516          41.000  
  25264716.163       84548.760       -2920.890          41.000  
  26012983.001      -66464.619        2864.523          36.000  
  22695543.396       60809.902       -2036.640          44.000  
  21438547.499        9658.640        -325.558          47.000  
 16 10 14 20 49 39.4000000  0 10G18G29G20G 4G21G24G 5G10G13G15
  23296329.875      -54798.520        1840.666          47.000  
  24011951.543      101156.443       -3383.751          44.000  
  21501422.762       26145.319        -873.221          46.000  
  24431602.127       89935.481       -3028.544          41.000  
  22524453.608      -43376.906        1457.946          45.000  
  25164979.200      -96953.133        3321.881          41.000  
  25264827.601       85132.903       -2920.999          41.000  
  26012873.920      -67037.378        2863.280          36.000  
  22695621.014       61217.300       -2036.806          44.000  
  21438559.784        9723.703        -325.589          47.000  
 16 10 14 20 49 39.6000000  0 10G18G29G20G 4G21G24G 5G10G13G15
  23296259.882      -55166.587        1840.170          47.000  
  24012080.326      101833.171       -3383.357          44.000  
  21501456.092       26319.953        -873.238          46.000  
  24431717.351       90541.126       -3028.276          41.000  
  22524397.907      -43668.415        1457.364          45.000  
  25164853.122      -97617.383        3321.762          41.000  
  25264939.160       85717.071       -2920.504          41.000  
  26012764.821      -67610.099        2863.680          36.000  
  22695698.650       61624.774       -2037.295          44.000  
  21438572.278        9788.839        -325.784          47.000  
 16 10 14 20 49 39.8000000  0 10G18G29G20G 4G21G24G 5G10G13G15
  23296189.732      -55534.652        1840.226          47.000  
  24012209.562      102509.912       -3383.971          44.000  
  21501489.317       26494.585        -873.203          46.000  
  24431832.487       91146.781       -3028.129          41.000  
  22524342.625      -43959.912        1457.885          45.000  
  25164726.590      -98281.658        3322.094          40.000  
  25265050.213       86301.281       -2920.149          41.000  
  26012655.862      -68182.829        2863.710          36.000  
  22695776.391       62032.239       -2036.935          44.000  
  21438584.737        9853.989        -326.292          47.000  
 16 10 14 20 49 40.0000000  0 10G18G29G20G 4G21G24G 5G10G13G15
  23296119.687      -55902.648        1839.509          47.000  
  24012338.310      103186.716       -3384.490          44.000  
  21501522.316       26669.305        -874.438          46.000  
  24431947.921       91752.476       -3028.159          41.000  
  22524287.063      -44251.330        1456.836          45.000  
  25164600.111      -98945.838        3320.677          40.000  
  25265161.179       86885.528       -2921.214          41.000  
  26012546.676      -68755.466        2862.258          36.000  
  22695853.765       62439.825       -2037.427          44.000  
  21438597.197        9919.239        -326.483          47.000  
 16 10 14 20 49 40.2000000  0 10G18G29G20G 4G21G24G 5G10G13G15
  23296049.851      -56270.561        1839.700          47.000  
  24012466.952      103863.620       -3384.715          44.000  
  21501555.505       26844.114        -874.325          46.000  
  24432063.092       92358.302       -3029.046          41.000  
  22524231.589      -44542.688        1456.798          45.000  
  25164473.701      -99609.950        3320.734          42.000  
  25265272.319       87469.845       -2921.732          41.000  
  26012437.524      -69328.055        2861.243          36.000  
  22695931.087       62847.452       -2037.979          44.000  
  21438609.865        9984.585        -326.538          47.000  
 16 10 14 20 49 40.4000000  0 10G18G29G20G 4G21G24G 5G10G13G15
  23295980.015      -56638.511        1839.176          47.000  
  24012595.560      104540.500       -3384.592          44.000  
  21501588.783       27018.872        -874.110          46.000  
  24432178.228       92964.103       -3029.195          41.000  
  22524176.254      -44834.038        1456.477          45.000  
  25164347.344     -100274.105        3320.380          42.000  
  25265383.477       88054.166       -2921.523          41.000  
  26012328.478      -69900.642        2861.826          36.000  
  22696008.862       63255.121       -2038.621          44.000  
  21438622.133       10049.916        -327.010          47.000  
 16 10 14 20 49 40.6000000  0 10G18G29G20G 4G21G24G 5G10G13G15
  23295910.005      -57006.364        1839.494          47.000  
  24012724.168      105217.461       -3384.752          44.000  
  21501622.235       27193.756        -874.358          46.000  
  24432293.766       93569.944       -3029.511          41.000  
  22524121.059      -45125.300        1455.921          45.000  
  25164221.197     -100938.160        3320.196          42.000  
  25265494.635       88638.542       -2921.392          41.000  
  26012219.082      -70473.201        2862.695          35.000  
  22696086.359       63662.849       -2038.968          44.000  
  21438634.418       10115.352        -327.257          47.000  
 16 10 14 20 49 40.8000000  0 10G18G29G20G 4G21G24G 5G10G13G15
  23295839.977      -57374.227        1838.669          47.000  
  24012853.125      105894.427       -3384.649          44.000  
  21501655.373       27368.639        -874.893          46.000  
  24432408.972       94175.833       -3029.569          41.000  
  22524065.637      -45416.546        1455.927          45.000  
  25164094.718     -101602.215        3320.096          42.000  
  25265605.775       89222.926       -2922.648          41.000  
  26012110.018      -71045.699        2863.841          35.000  
  22696163.925       64070.613       -2038.699          44.000  
  21438647.052       10180.826        -327.388          47.000  
 16 10 14 20 49 41.0000000  0 10G18G29G20G 4G21G24G 5G10G13G15
  23295770.054      -57742.068        1838.767          47.000  
  24012981.908      106571.408       -3385.262          44.000  
  21501688.912       27543.535        -874.878          46.000  
  24432524.196       94781.721       -3030.076          41.000  
  22524010.250      -45707.771        1456.038          45.000  
  25163968.378     -102266.253        3320.132          42.000  
  25265716.968       89807.319       -2922.520          41.000  
  26012001.007      -71618.220        2862.671          35.000  
  22696241.805       64478.394       -2039.631          44.000  
  21438659.476       10246.301        -327.675          47.000  
 16 10 14 20 49 41.2000000  0 10G18G29G20G 4G21G24G 5G10G13G15
  23295699.747      -58109.851        1838.913          47.000  
  24013110.760      107248.454       -3385.164          44.000  
  21501722.120       27718.506        -874.969          46.000  
  24432639.559       95387.696       -3029.772          41.000  
  22523954.898      -45998.941        1455.807          45.000  
  25163842.282     -102930.248        3319.779          42.000  
  25265828.405       90391.752       -2922.344          41.000  
  26011891.995      -72190.698        2862.050          35.000  
  22696319.127       64886.257       -2039.289          44.000  
  21438671.831       10311.875        -328.068          47.000  
 16 10 14 20 49 41.4000000  0 10G18G29G20G 4G21G24G 5G10G13G15
  23295629.649      -58477.608        1838.728          47.000  
  24013239.438      107925.535       -3385.647          44.000  
  21501755.834       27893.515        -875.058          46.000  
  24432754.539       95993.707       -3029.766          41.000  
  22523899.528      -46290.062        1455.811          45.000  
  25163715.786     -103594.200        3319.862          42.000  
  25265939.545       90976.212       -2922.657          41.000  
  26011783.106      -72763.140        2862.289          35.000  
  22696396.868       65294.165       -2040.080          44.000  
  21438684.814       10377.497        -328.407          47.000  
 16 10 14 20 49 41.6000000  0 10G18G29G20G 4G21G24G 5G10G13G15
  23295559.726      -58845.290        1838.161          47.000  
  24013368.151      108602.686       -3385.832          44.000  
  21501789.303       28068.594        -875.633          46.000  
  24432869.989       96599.758       -3030.444          41.000  
  22523843.862      -46581.117        1455.335          45.000  
  25163589.376     -104258.107        3318.920          42.000  
  25266050.738       91560.765       -2922.789          41.000  
  26011674.251      -73335.504        2862.151          35.000  
  22696474.713       65702.165       -2039.897          44.000  
  21438697.290       10443.208        -328.867          47.000  
 16 10 14 20 49 41.8000000  0 10G18G29G20G 4G21G24G 5G10G13G15
  23295489.716      -59212.976        1838.564          47.000  
  24013496.951      109279.829       -3386.108          44.000  
  21501822.371       28243.675        -875.365          46.000  
  24432985.178       97205.841       -3030.547          41.000  
  22523788.632      -46872.172        1455.413          45.000  
  25163463.089     -104922.005        3319.828          42.000  
  25266162.088       92145.286       -2921.873          41.000  
  26011565.152      -73907.863        2860.930          35.000  
  22696552.262       66110.147       -2039.941          44.000  
  21438709.558       10508.924        -328.437          47.000  
 16 10 14 20 49 42.0000000  0 10G18G29G20G 4G21G24G 5G10G13G15
  23295419.740      -59580.644        1838.534          47.000  
  24013625.768      109956.990       -3385.682          44.000  
  21501855.928       28418.779        -875.860          46.000  
  24433100.716       97811.921       -3030.182          41.000  
  22523733.245      -47163.193        1454.924          45.000  
  25163336.767     -105585.904        3319.436          42.000  
  25266273.525       92729.813       -2923.055          41.000  
  26011456.054      -74480.220        2860.395          35.000  
  22696629.880       66518.179       -2040.216          44.000  
  21438722.244       10574.678        -328.784          47.000  
 16 10 14 20 49 42.2000000  0 10G18G29G20G 4G21G24G 5G10G13G15
  23295349.834      -59948.310        1838.279          47.000  
  24013754.620      110634.181       -3385.934          44.000  
  21501888.943       28593.903        -875.133          46.000  
  24433215.974       98418.030       -3030.028          41.000  
  22523677.805      -47454.190        1454.946          45.000  
  25163210.252     -106249.788        3319.162          42.000  
  25266384.455       93314.361       -2922.192          41.000  
  26011346.920      -75052.605        2860.538          35.000  
  22696707.289       66926.230       -2039.774          44.000  
  21438734.564       10640.463        -329.262          47.000  
 16 10 14 20 49 42.5960000  0 10G18G29G20G 4G21G24G 5G10G13G15
  22096040.047      -60683.515        1837.883          47.000  
  22814842.855      111988.679       -3386.330          44.000  
  20302785.418       28944.292        -875.954          46.000  
  23234276.847       99630.384       -3030.255          41.000  
  21324397.212      -48036.055        1454.838          45.000  
  23963788.016     -107577.442        3319.321          42.000  
  24067436.952       94483.552       -2922.396          41.000  
  24811959.932      -76197.192        2862.259          35.000  
  21497692.951       67742.506       -2040.762          44.000  
  20239589.681       10772.214        -329.445          47.000  
 16 10 14 20 49 42.8000000  0 10G18G29G20G 4G21G24G 5G10G13G15
  22095968.868      -61058.460        1837.972          47.000  
  22814974.255      112679.476       -3386.408          44.000  
  20302819.585       29123.011        -876.375          46.000  
  23234394.514      100248.711       -3031.583          41.000  
  21324340.865      -48332.791        1453.981          45.000  
  23963658.902     -108254.547        3319.465          42.000  
  24067550.291       95079.819       -2923.504          41.000  
  24811848.967      -76780.958        2861.613          35.000  
  21497772.193       68158.825       -2040.853          44.000  
  20239602.420       10839.431        -329.665          47.000  
 16 10 14 20 49 43.0000000  0 10G18G29G20G 4G21G24G 5G10G13G15
  22095898.770      -61426.007        1837.454          47.000  
  22815103.317      113356.762       -3387.410          44.000  
  20302852.810       29298.268        -876.478          46.000  
  23234510.226      100854.958       -3031.493          41.000  
  21324285.391      -48623.648        1454.079          45.000  
  23963532.632     -108918.328        3319.020          42.000  
  24067661.519       95664.474       -2923.640          41.000  
  24811739.955      -77353.224        2859.697          35.000  
  21497850.143       68567.040       -2040.910          44.000  
  20239614.931       10905.406        -329.749          47.000  
 16 10 14 20 49 43.2000000  0 10G18G29G20G 4G21G24G 5G10G13G15
  22095829.161      -61793.507        1837.140          47.000  
  22815232.413      114034.137       -3387.398          44.000  
  20302886.332       29473.594        -876.465          46.000  
  23234625.345      101461.257       -3031.638          41.000  
  21324229.882      -48914.442        1453.811          45.000  
  23963406.449     -109582.075        3318.033          42.000  
  24067772.956       96249.157       -2924.070          41.000  
  24811631.065      -77925.423        2860.040          35.000  
  21497927.674       68975.333       -2041.658          44.000  
  20239627.600       10971.455        -330.464          47.000  
 16 10 14 20 49 43.4000000  0 11G18G29G20G 4G21G24G 5G10G27G13G15
  22095759.133      -62160.958        1837.089          47.000  
  22815361.161      114711.551       -3387.027          44.000  
  20302920.115       29648.956        -876.837          46.000  
  23234740.656      102067.609       -3031.973          41.000  
  21324174.634      -49205.189        1453.608          45.000  
  23963280.354     -110245.751        3318.424          42.000  
  24067884.253       96833.884       -2923.510          41.000  
  24811522.054      -78497.594        2861.374          35.000  
  24898476.471      -19698.0492       2600.293          35.000  
  21498005.292       69383.681       -2041.983          44.000  
  20239640.286       11037.550        -330.782          47.000  
 16 10 14 20 49 43.6000000  0 11G18G29G20G 4G21G24G 5G10G27G13G15
  22095688.844      -62528.378        1837.159          47.000  
  22815490.153      115389.004       -3386.968          44.000  
  20302953.376       29824.380        -877.087          46.000  
  23234856.368      102673.989       -3032.204          41.000  
  21324119.544      -49495.883        1453.782          45.000  
  23963154.084     -110909.422        3318.414          42.000  
  24067995.603       97418.640       -2923.043          41.000  
  24811412.920      -79069.764        2861.953          35.000  
  24898379.570      -20218.3142       2601.516          35.000  
  21498083.242       69792.082       -2041.765          44.000  
  20239652.711       11103.708        -330.842          47.000  
 16 10 14 20 49 43.8000000  0 11G18G29G20G 4G21G24G 5G10G27G13G15
  22095619.060      -62895.774        1837.046          47.000  
  22815619.267      116066.475       -3387.276          44.000  
  20302986.548       29999.819        -877.465          46.000  
  23234971.644      103280.407       -3032.018          41.000  
  21324064.349      -49786.567        1453.496          45.000  
  23963027.849     -111573.060        3318.564          42.000  
  24068106.761       98003.399       -2923.981          41.000  
  24811303.856      -79641.840        2862.483          35.000  
  24898278.935      -20738.6002       2603.155          35.000  
  21498161.018       70200.516       -2042.072          44.000  
  20239665.606       11169.912        -330.990          47.000  
 16 10 14 20 49 44.0000000  0 11G18G29G20G 4G21G24G 5G10G27G13G15
  22095549.207      -63263.115        1836.740          47.000  
  22815748.277      116743.999       -3387.671          44.000  
  20303019.983       30175.319        -877.353          46.000  
  23235087.252      103886.879       -3032.446          41.000  
  21324009.049      -50077.186        1452.930          45.000  
  23962901.527     -112236.664        3318.094          42.000  
  24068218.163       98588.211       -2924.118          41.000  
  24811195.054      -80213.948        2861.906          35.000  
  24898180.463      -21258.8192       2600.112          35.000  
  21498238.480       70609.009       -2042.337          44.000  
  20239678.258       11236.184        -331.194          47.000  
 16 10 14 20 49 44.2000000  0 11G18G29G20G 4G21G24G 5G10G27G13G15
  22095479.371      -63630.508        1836.440          47.000  
  22815877.321      117421.472       -3387.903          44.000  
  20303053.295       30350.791        -877.702          46.000  
  23235202.667      104493.303       -3033.035          41.000  
  21323953.627      -50367.841        1452.995          45.000  
  23962775.030     -112900.311        3317.465          42.000  
  24068329.373       99172.977       -2923.756          41.000  
  24811085.955      -80786.071        2860.222          35.000  
  24898081.311      -21779.0182       2601.222          35.000  
  21498316.080       71017.468       -2042.339          44.000  
  20239690.787       11302.413        -331.678          47.000  
 16 10 14 20 49 44.4000000  0 11G18G29G20G 4G21G24G 5G10G27G13G15
  22095409.552      -63997.820        1836.586          47.000  
  22816006.260      118099.039       -3387.726          44.000  
  20303086.852       30526.329        -877.777          46.000  
  23235318.223      105099.809       -3032.723          41.000  
  21323898.292      -50658.402        1453.087          45.000  
  23962648.935     -113563.878        3317.497          42.000  
  24068440.496       99757.828       -2923.967          41.000  
  24810977.083      -81358.131        2860.915          35.000  
  24897984.113      -22299.1692       2600.574          35.000  
  21498394.030       71426.031       -2043.080          44.000  
  20239703.403       11368.751        -331.729          47.000  
 16 10 14 20 49 44.6000000  0 11G18G29G20G 4G21G24G 5G10G27G13G15
  22095339.350      -64365.135        1836.597          47.000  
  22816135.165      118776.596       -3387.795          44.000  
  20303120.217       30701.878        -877.642          46.000  
  23235433.569      105706.319       -3032.551          41.000  
  21323842.975      -50948.968        1452.671          45.000  
  23962522.665     -114227.458        3317.504          42.000  
  24068551.601      100342.645       -2924.544          41.000  
  24810868.420      -81930.201        2860.818          35.000  
  24897886.025      -22819.2852       2600.821          35.000  
  21498471.771       71834.600       -2042.722          44.000  
  20239715.810       11435.100        -332.234          47.000  
 16 10 14 20 49 44.8000000  0 11G18G29G20G 4G21G24G 5G10G27G13G15
  22095269.410      -64732.399        1836.213          47.000  
  22816264.279      119454.208       -3387.760          44.000  
  20303153.564       30877.489        -878.261          46.000  
  23235549.054      106312.891       -3033.333          39.000  
  21323787.745      -51239.467        1452.440          45.000  
  23962396.500     -114890.977        3317.682          42.000  
  24068663.038      100927.533       -2924.469          41.000  
  24810759.234      -82502.229        2859.829          35.000  
  24897786.524      -23339.4092       2600.617          35.000  
  21498549.756       72243.234       -2043.563          44.000  
  20239728.636       11501.524        -332.657          47.000  
 16 10 14 20 49 45.0000000  0 11G18G29G20G 4G21G24G 5G10G27G13G15
  22095199.696      -65099.647        1836.239          47.000  
  22816393.306      120131.862       -3388.104          44.000  
  20303187.138       31053.128        -878.070          46.000  
  23235664.313      106919.498       -3033.362          39.000  
  21323732.288      -51529.937        1452.393          45.000  
  23962270.143     -115554.486        3317.716          42.000  
  24068774.214      101512.437       -2924.031          41.000  
  24810650.624      -83074.216        2859.491          35.000  
  24897688.087      -23859.4352       2599.913          35.000  
  21498627.828       72651.894       -2043.059          44.000  
  20239741.235       11567.995        -332.100          47.000  
 16 10 14 20 49 45.2000000  0 11G18G29G20G 4G21G24G 5G10G27G13G15
  22095129.529      -65466.870        1836.012          47.000  
  22816521.984      120809.510       -3388.178          44.000  
  20303220.573       31228.776        -878.396          46.000  
  23235779.659      107526.111       -3032.673          40.000  
  21323677.198      -51820.408        1451.786          45.000  
  23962143.943     -116217.999        3316.988          42.000  
  24068885.773      102097.330       -2924.828          41.000  
  24810541.735      -83646.207        2860.895          35.000  
  24897586.737      -24379.4682       2599.643          35.000  
  21498705.377       73060.582       -2043.797          44.000  
  20239754.061       11634.478        -332.548          47.000  
 16 10 14 20 49 45.4000000  0 11G18G29G20G 4G21G24G 5G10G27G13G15
  22095059.518      -65834.084        1836.041          47.000  
  22816650.749      121487.191       -3388.575          44.000  
  20303253.867       31404.457        -879.294          46.000  
  23235895.266      108132.747       -3033.814          40.000  
  21323621.950      -52110.834        1451.687          45.000  
  23962017.865     -116881.465        3317.403          42.000  
  24068997.314      102682.242       -2925.443          41.000  
  24810432.880      -84218.191        2860.399          35.000  
  24897488.125      -24899.4732       2598.712          35.000  
  21498783.100       73469.315       -2044.433          44.000  
  20239766.607       11701.012        -333.225          47.000  
 16 10 14 20 49 45.6000000  0 11G18G29G20G 4G21G24G 5G10G27G13G15
  22094989.996      -66201.229        1835.757          47.000  
  22816779.653      122164.936       -3388.911          44.000  
  20303287.215       31580.220        -878.526          46.000  
  23236010.717      108739.451       -3033.560          40.000  
  21323566.860      -52401.180        1451.841          45.000  
  23961891.473     -117544.884        3316.712          42.000  
  24069108.420      103267.227       -2925.865          41.000  
  24810324.218      -84790.115        2859.041          35.000  
  24897388.065      -25419.3812       2599.176          35.000  
  21498860.754       73878.132       -2044.030          44.000  
  20239779.311       11767.634        -333.102          47.000  
 16 10 14 20 49 45.8000000  0 11G18G29G20G 4G21G24G 5G10G27G13G15
  22094919.969      -66568.346        1835.555          47.000  
  22816908.523      122842.730       -3388.388          44.000  
  20303320.702       31756.017        -878.818          46.000  
  23236125.871      109346.188       -3033.904          40.000  
  21323511.420      -52691.488        1451.168          45.000  
  23961765.220     -118208.278        3316.900          42.000  
  24069219.613      103852.226       -2924.677          41.000  
  24810215.450      -85361.992        2859.034          36.000  
  24897290.344      -25939.2262       2600.156          35.000  
  21498938.651       74286.988       -2044.174          44.000  
  20239792.120       11834.317        -333.030          47.000  
 16 10 14 20 49 46.0000000  0 11G18G29G20G 4G21G24G 5G10G27G13G15
  22094850.307      -66935.462        1835.824          47.000  
  22817037.376      123520.504       -3389.041          44.000  
  20303354.206       31931.822        -878.775          46.000  
  23236241.513      109952.949       -3033.688          40.000  
  21323455.911      -52981.800        1451.261          45.000  
  23961638.863     -118871.673        3316.774          42.000  
  24069331.050      104437.228       -2925.108          41.000  
  24810106.753      -85933.848        2859.417          35.000  
  24897191.977      -26459.1262       2598.519          35.000  
  21499016.601       74695.857       -2044.386          44.000  
  20239804.841       11900.984        -333.538          47.000  
 16 10 14 20 49 46.2000000  0 11G18G29G20G 4G21G24G 5G10G27G13G15
  22094780.193      -67302.560        1835.613          47.000  
  22817166.507      124198.308       -3389.022          44.000  
  20303387.676       32107.637        -879.269          46.000  
  23236356.737      110559.711       -3033.630          40.000  
  21323400.629      -53272.086        1451.059          45.000  
  23961512.995     -119535.063        3316.504          42.000  
  24069442.347      105022.255       -2925.551          41.000  
  24809997.968      -86505.736        2858.756          35.000  
  24897093.523      -26978.9412       2599.623          35.000  
  21499094.255       75104.753       -2044.448          44.000  
  20239817.614       11967.714        -333.794          47.000  
 16 10 14 20 49 46.4000000  0 11G18G29G20G 4G21G24G 5G10G27G13G15
  22094710.321      -67669.657        1835.312          47.000  
  22817295.708      124876.114       -3389.482          44.000  
  20303421.389       32283.472        -879.405          46.000  
  23236472.030      111166.496       -3033.931          40.000  
  21323345.905      -53562.341        1451.494          45.000  
  23961386.707     -120198.443        3316.585          42.000  
  24069553.679      105607.253       -2925.033          41.000  
  24809889.270      -87077.638        2859.542          35.000  
  24896993.987      -27498.7712       2598.356          35.000  
  21499171.856       75513.660       -2044.626          44.000  
  20239830.318       12034.448        -333.929          47.000  
 16 10 14 20 49 46.6000000  0 11G18G29G20G 4G21G24G 5G10G27G13G15
  22094640.503      -68036.680        1834.947          47.000  
  22817424.630      125554.017       -3389.244          44.000  
  20303455.033       32459.388        -879.768          46.000  
  23236587.411      111773.344       -3033.950          40.000  
  21323290.692      -53852.529        1450.785          45.000  
  23961260.228     -120861.742        3316.354          42.000  
  24069664.959      106192.342       -2925.544          41.000  
  24809780.276      -87649.464        2858.932          35.000  
  24896895.323      -28018.5272       2598.095          35.000  
  21499249.858       75922.671       -2044.988          44.000  
  20239842.847       12101.292        -334.374          47.000  
 16 10 14 20 49 46.8000000  0 11G18G29G20G 4G21G24G 5G10G27G13G15
  22094570.772      -68403.646        1834.366          47.000  
  22817553.657      126231.941       -3389.891          44.000  
  20303488.590       32635.367        -879.643          46.000  
  23236702.775      112380.259       -3033.958          40.000  
  21323235.375      -54142.662        1450.294          45.000  
  23961134.028     -121525.017        3315.896          42.000  
  24069776.292      106777.469       -2926.053          41.000  
  24809671.474      -88221.169        2859.300          35.000  
  24896796.450      -28538.1842       2599.159          35.000  
  21499328.000       76331.731       -2045.659          44.000  
  20239855.516       12168.199        -334.623          47.000  
 16 10 14 20 49 47.0000000  0 11G18G29G20G 4G21G24G 5G10G27G13G15
  22094500.989      -68770.562        1834.943          47.000  
  22817682.841      126909.950       -3390.187          44.000  
  20303521.902       32811.400        -880.344          46.000  
  23236818.068      112987.216       -3034.323          40.000  
  21323180.040      -54432.740        1450.357          45.000  
  23961008.160     -122188.212        3316.116          42.000  
  24069887.659      107362.639       -2926.463          41.000  
  24809562.777      -88792.906        2857.608          35.000  
  24896697.316      -29057.7812       2599.152          35.000  
  21499405.811       76740.871       -2045.679          44.000  
  20239868.063       12235.171        -334.974          47.000  
 16 10 14 20 49 47.2000000  0 11G18G29G20G 4G21G24G 5G10G27G13G15
  22094431.188      -69137.471        1833.937          47.000  
  22817811.764      127587.965       -3390.797          44.000  
  20303555.110       32987.454        -880.674          46.000  
  23236933.693      113594.199       -3034.421          40.000  
  21323124.601      -54722.782        1449.888          45.000  
  23960881.977     -122851.420        3315.503          42.000  
  24069999.218      107947.823       -2926.290          41.000  
  24809453.992      -89364.590        2860.003          35.000  
  24896598.233      -29577.3732       2597.681          35.000  
  21499483.726       77150.040       -2046.574          44.000  
  20239880.941       12302.182        -335.574          47.000  
 16 10 14 20 49 47.4000000  0 11G18G29G20G 4G21G24G 5G10G27G13G15
  22094361.142      -69504.319        1834.186          47.000  
  22817940.685      128266.037       -3390.567          44.000  
  20303588.422       33163.570        -880.467          46.000  
  23237049.231      114201.262       -3033.958          40.000  
  21323069.458      -55012.751        1449.729          45.000  
  23960755.864     -123514.572        3315.773          42.000  
  24070110.655      108533.065       -2926.139          41.000  
  24809345.225      -89936.244        2858.036          35.000  
  24896499.412      -30096.9062       2596.812          35.000  
  21499561.850       77559.266       -2046.758          44.000  
  20239893.923       12369.260        -335.946          47.000  
 16 10 14 20 49 47.6000000  0 11G18G29G20G 4G21G24G 5G10G27G13G15
  22094291.394      -69871.124        1833.937          47.000  
  22818069.485      128944.157       -3390.267          44.000  
  20303621.892       33339.723        -880.399          46.000  
  23237164.577      114808.332       -3035.884          40.000  
  21323014.001      -55302.696        1449.881          45.000  
  23960629.507     -124177.685        3315.437          42.000  
  24070221.883      109118.331       -2925.927          41.000  
  24809236.580      -90507.866        2857.811          35.000  
  24896400.731      -30616.3962       2597.237          35.000  
  21499639.608       77968.546       -2046.513          44.000  
  20239906.470       12436.398        -335.741          47.000  
 16 10 14 20 49 47.8000000  0 11G18G29G20G 4G21G24G 5G10G27G13G15
  22094221.750      -70237.962        1834.558          47.000  
  22818198.634      129622.242       -3390.357          44.000  
  20303655.483       33515.867        -880.738          46.000  
  23237279.783      115415.407       -3035.428          40.000  
  21322959.103      -55592.656        1449.740          45.000  
  23960503.516     -124840.827        3315.623          42.000  
  24070333.372      109703.562       -2926.180          41.000  
  24809128.144      -91079.528        2857.555          35.000  
  24896301.858      -31135.8662       2596.774          35.000  
  21499717.384       78377.830       -2046.249          44.000  
  20239919.069       12503.533        -335.656          47.000  
 16 10 14 20 49 48.0000000  0 11G18G29G20G 4G21G24G 5G10G27G13G15
  22094152.141      -70604.752        1833.389          47.000  
  22818327.749      130300.392       -3391.202          44.000  
  20303689.145       33692.065        -881.694          46.000  
  23237395.007      116022.531       -3036.293          40.000  
  21322904.065      -55882.549        1449.073          45.000  
  23960377.281     -125503.921        3315.347          42.000  
  24070444.896      110288.842       -2926.622          41.000  
  24809019.516      -91651.139        2856.810          35.000  
  24896202.933      -31655.2672       2597.659          35.000  
  21499795.177       78787.170       -2047.340          44.000  
  20239932.035       12570.731        -336.558          47.000  
 16 10 14 20 49 48.2000000  0 11G18G29G20G 4G21G24G 5G10G27G13G15
  22094082.392      -70971.511        1833.573          47.000  
  22818456.758      130978.565       -3390.779          44.000  
  20303722.492       33868.290        -881.599          46.000  
  23237510.597      116629.685       -3035.886          40.000  
  21322848.870      -56172.415        1448.868          45.000  
  23960251.047     -126166.996        3315.346          42.000  
  24070556.107      110874.160       -2926.637          41.000  
  24808910.627      -92222.702        2857.324          35.000  
  24896103.921      -32174.6642       2598.254          35.000  
  21499872.987       79196.550       -2046.868          44.000  
  20239944.651       12637.975        -336.304          47.000  
 16 10 14 20 49 48.4000000  0 11G18G29G20G 4G21G24G 5G10G27G13G15
  22094012.661      -71338.265        1833.418          47.000  
  22818585.889      131656.734       -3390.807          44.000  
  20303755.979       34044.539        -881.293          46.000  
  23237626.204      117236.851       -3035.712          40.000  
  21322793.692      -56462.263        1449.218          45.000  
  23960124.724     -126830.071        3314.875          42.000  
  24070667.526      111459.445       -2926.965          41.000  
  24808801.755      -92794.281        2858.220          35.000  
  24896004.995      -32694.0592       2597.080          35.000  
  21499950.815       79605.953       -2047.092          44.000  
  20239957.686       12705.234        -336.769          47.000  
 16 10 14 20 49 48.6000000  0 11G18G29G20G 4G21G24G 5G10G27G13G15
  22093942.808      -71704.973        1833.166          47.000  
  22818714.951      132334.973       -3390.967          44.000  
  20303789.570       34220.831        -881.371          46.000  
  23237742.021      117844.052       -3036.806          40.000  
  21322738.549      -56752.067        1449.049          45.000  
  23959998.367     -127493.098        3314.535          42.000  
  24070778.806      112044.805       -2926.930          41.000  
  24808693.022      -93365.819        2859.292          35.000  
  24895906.035      -33213.3542       2596.224          35.000  
  21500028.538       80015.388       -2047.787          44.000  
  20239970.547       12772.578        -336.819          47.000  
 16 10 14 20 49 48.8000000  0 11G18G29G20G 4G21G24G 5G10G27G13G15
  22093873.181      -72071.685        1833.997          47.000  
  22818844.013      133013.198       -3391.015          44.000  
  20303823.197       34397.128        -881.570          46.000  
  23237857.612      118451.289       -3035.084          40.000  
  21322683.319      -57041.854        1449.045          45.000  
  23959872.254     -128156.126        3314.912          42.000  
  24070889.876      112630.143       -2926.661          41.000  
  24808584.307      -93937.358        2855.987          35.000  
  24895807.057      -33732.6892       2597.409          35.000  
  21500106.192       80424.855       -2047.184          44.000  
  20239983.338       12839.921        -336.377          47.000  
 16 10 14 20 49 49.0000000  0 11G18G29G20G 4G21G24G 5G10G27G13G15
  22093803.572      -72438.377        1833.602          47.000  
  22818973.162      133691.448       -3391.795          44.000  
  20303856.614       34573.453        -881.646          46.000  
  23237973.237      119058.518       -3036.545          40.000  
  21322628.159      -57331.620        1448.557          45.000  
  23959746.037     -128819.129        3315.435          42.000  
  24071001.156      113215.508       -2926.784          41.000  
  24808475.348      -94508.887        2857.216          35.000  
  24895708.359      -34251.9972       2595.509          35.000  
  21500184.369       80834.357       -2047.628          44.000  
  20239996.024       12907.303        -336.653          47.000  
 16 10 14 20 49 49.2000000  0 11G18G29G20G 4G21G24G 5G10G27G13G15
  22093733.527      -72805.035        1833.565          47.000  
  22819102.224      134369.726       -3392.150          44.000  
  20303890.119       34749.819        -881.948          46.000  
  23238088.496      119665.798       -3036.283          40.000  
  21322572.981      -57621.345        1448.108          45.000  
  23959620.099     -129482.114        3314.329          42.000  
  24071112.559      113800.888       -2926.854          41.000  
  24808366.616      -95080.365        2857.901          35.000  
  24895609.922      -34771.2282       2595.859          35.000  
  21500262.301       81243.907       -2048.132          44.000  
  20240008.815       12974.741        -337.466          47.000  
 16 10 14 20 49 49.4000000  0 11G18G29G20G 4G21G24G 5G10G27G13G15
  22093663.604      -73171.675        1833.193          47.000  
  22819231.425      135048.052       -3391.450          44.000  
  20303923.535       34926.215        -882.359          46.000  
  23238203.859      120273.102       -3036.532          40.000  
  21322518.048      -57911.033        1448.181          45.000  
  23959494.108     -130145.070        3314.983          42.000  
  24071223.577      114386.288       -2926.673          41.000  
  24808257.534      -95651.836        2858.669          35.000  
  24895511.380      -35290.4032       2595.608          35.000  
  21500340.164       81653.491       -2047.989          44.000  
  20240021.501       13042.219        -337.220          47.000  
 16 10 14 20 49 49.6000000  0 11G18G29G20G 4G21G24G 5G10G27G13G15
  22093593.890      -73538.310        1833.179          47.000  
  22819360.330      135726.371       -3391.359          44.000  
  20303956.970       35102.611        -881.673          46.000  
  23238319.361      120880.419       -3036.616          40.000  
  21322462.818      -58200.726        1448.059          45.000  
  23959368.082     -130808.068        3314.103          42.000  
  24071335.223      114971.682       -2927.372          41.000  
  24808148.837      -96223.359        2857.265          36.000  
  24895412.368      -35809.6272       2596.291          35.000  
  21500418.079       82063.077       -2048.128          44.000  
  20240034.222       13109.696        -338.204          47.000  
 16 10 14 20 49 49.8000000  0 11G18G29G20G 4G21G24G 5G10G27G13G15
  22093524.037      -73904.940        1832.619          47.000  
  22819489.461      136404.688       -3392.391          44.000  
  20303990.719       35279.022        -882.193          46.000  
  23238434.917      121487.711       -3037.195          40.000  
  21322407.727      -58490.390        1448.332          45.000  
  23959241.900     -131471.019        3314.707          42.000  
  24071446.695      115557.076       -2927.088          41.000  
  24808040.157      -96794.825        2856.696          36.000  
  24895313.687      -36328.8152       2594.497          35.000  
  21500495.942       82472.703       -2048.247          44.000  
  20240046.961       13177.240        -337.829          47.000  
 16 10 14 20 49 50.0000000  0 11G18G29G20G 4G21G24G 5G10G27G13G15
  22093454.096      -74271.551        1832.979          47.000  
  22819618.697      137083.050       -3391.835          44.000  
  20304024.118       35455.467        -881.954          46.000  
  23238550.455      122095.063       -3036.713          40.000  
  21322352.951      -58780.038        1448.294          45.000  
  23959115.508     -132133.956        3314.349          42.000  
  24071558.237      116142.503       -2926.445          41.000  
  24807931.372      -97366.274        2856.741          36.000  
  24895214.831      -36847.9432       2595.748          35.000  
  21500573.875       82882.369       -2047.891          44.000  
  20240059.909       13244.803        -337.434          47.000  
 16 10 14 20 49 50.2000000  0 11G18G29G20G 4G21G24G 5G10G27G13G15
  22093384.296      -74638.105        1832.977          47.000  
  22819747.602      137761.458       -3391.433          44.000  
  20304057.954       35631.968        -881.996          46.000  
  23238666.132      122702.465       -3037.200          40.000  
  21322298.000      -59069.612        1448.201          45.000  
  23958989.552     -132796.855        3314.686          42.000  
  24071669.883      116727.960       -2927.054          41.000  
  24807822.622      -97937.709        2857.486          36.000  
  24895116.080      -37367.0562       2595.388          35.000  
  21500651.772       83292.081       -2048.244          44.000  
  20240072.979       13312.444        -337.812          47.000  
 16 10 14 20 49 50.4000000  0 11G18G29G20G 4G21G24G 5G10G27G13G15
  22093314.721      -75004.644        1832.576          47.000  
  22819876.611      138439.875       -3392.080          44.000  
  20304091.633       35808.477        -883.149          46.000  
  23238781.705      123309.892       -3036.927          40.000  
  21322242.910      -59359.197        1447.457          45.000  
  23958863.352     -133459.749        3314.631          42.000  
  24071781.180      117313.402       -2927.107          41.000  
  24807714.064      -98509.144        2856.557          36.000  
  24895017.591      -37886.0952       2595.511          35.000  
  21500729.809       83701.827       -2049.122          44.000  
  20240085.997       13380.085        -339.106          47.000  
 16 10 14 20 49 50.6000000  0 11G18G29G20G 4G21G24G 5G10G27G13G15
  22093245.042      -75371.124        1832.461          47.000  
  22820005.411      139118.367       -3392.713          44.000  
  20304125.382       35985.074        -883.208          46.000  
  23238897.400      123917.380       -3037.725          40.000  
  21322187.610      -59648.665        1447.483          45.000  
  23958736.977     -134122.585        3314.136          42.000  
  24071892.652      117898.938       -2928.266          41.000  
  24807605.419      -99080.471        2856.451          36.000  
  24894918.945      -38405.0832       2594.997          35.000  
  21500807.899       84111.639       -2048.853          44.000  
  20240098.613       13447.839        -338.839          47.000  
 16 10 14 20 49 50.8000000  0 11G18G29G20G 4G21G24G 5G10G27G13G15
  22093175.364      -75737.575        1831.865          47.000  
  22820134.578      139796.887       -3392.483          44.000  
  20304159.113       36161.710        -883.377          46.000  
  23239012.903      124524.904       -3037.308          40.000  
  21322132.572      -59938.120        1447.055          45.000  
  23958610.864     -134785.379        3313.941          42.000  
  24072003.863      118484.495       -2927.766          41.000  
  24807496.844      -99651.796        2856.123          36.000  
  24894820.072      -38924.0552       2594.320          35.000  
  21500885.936       84521.534       -2049.520          44.000  
  20240111.596       13515.634        -339.123          47.000  
 16 10 14 20 49 51.0000000  0 11G18G29G20G 4G21G24G 5G10G27G13G15
  22093105.615      -76104.002        1831.957          47.000  
  22820263.901      140475.439       -3392.802          44.000  
  20304192.722       36338.365        -883.950          46.000  
  23239128.685      125132.459       -3037.825          40.000  
  21322077.482      -60227.541        1446.783          45.000  
  23958484.664     -135448.154        3313.337          42.000  
  24072115.352      119070.069       -2928.112          41.000  
  24807388.216     -100223.084        2854.037          36.000  
  24894721.112      -39442.9492       2593.904          35.000  
  21500963.730       84931.436       -2049.758          44.000  
  20240124.509       13583.478        -339.623          47.000  
 16 10 14 20 49 51.2000000  0 11G18G29G20G 4G21G24G 5G10G27G13G15
  22093036.006      -76470.356        1831.790          47.000  
  22820393.085      141154.054       -3393.170          44.000  
  20304226.558       36515.100        -883.867          46.000  
  23239244.170      125740.073       -3038.095          40.000  
  21322022.426      -60516.882        1446.541          45.000  
  23958358.726     -136110.876        3313.688          42.000  
  24072226.789      119655.707       -2928.133          41.000  
  24807279.397     -100794.314        2856.723          36.000  
  24894622.326      -39961.7882       2594.782          35.000  
  21501041.994       85341.412       -2050.531          44.000  
  20240137.248       13651.404        -339.742          47.000  
 16 10 14 20 49 51.4000000  0 11G18G29G20G 4G21G24G 5G10G27G13G15
  22092966.292      -76836.700        1831.701          47.000  
  22820522.321      141832.683       -3393.153          44.000  
  20304260.097       36691.859        -883.540          46.000  
  23239359.847      126347.728       -3039.038          40.000  
  21321967.231      -60806.205        1447.094          45.000  
  23958232.456     -136773.579        3312.994          42.000  
  24072338.278      120241.349       -2928.144          41.000  
  24807170.542     -101365.558        2856.312          36.000  
  24894523.313      -40480.5792       2594.117          35.000  
  21501120.101       85751.459       -2049.904          44.000  
  20240150.231       13719.364        -339.902          47.000  
 16 10 14 20 49 51.6000000  0 11G18G29G20G 4G21G24G 5G10G27G13G15
  22092896.788      -77203.008        1831.323          47.000  
  22820651.296      142511.370       -3393.365          44.000  
  20304293.497       36868.657        -883.960          46.000  
  23239475.542      126955.385       -3038.658          40.000  
  21321912.053      -61095.495        1446.002          45.000  
  23958106.134     -137436.258        3313.111          42.000  
  24072449.628      120827.053       -2927.964          41.000  
  24807061.879     -101936.756        2856.175          36.000  
  24894424.737      -40999.3572       2593.556          35.000  
  21501198.120       86161.500       -2050.149          44.000  
  20240163.126       13787.367        -340.192          47.000  
 16 10 14 20 49 51.8000000  0 11G18G29G20G 4G21G24G 5G10G27G13G15
  22092827.057      -77569.280        1831.348          47.000  
  22820780.515      143190.070       -3393.336          44.000  
  20304327.018       37045.483        -884.447          46.000  
  23239591.621      127563.123       -3038.685          40.000  
  21321857.172      -61384.725        1446.082          45.000  
  23957980.318     -138098.890        3312.956          42.000  
  24072561.065      121412.762       -2928.479          40.000  
  24806953.496     -102507.915        2856.790          36.000  
  24894325.864      -41518.0622       2594.419          35.000  
  21501276.036       86571.622       -2050.935          44.000  
  20240176.057       13855.441        -340.505          47.000  
 16 10 14 20 49 52.0000000  0 11G18G29G20G 4G21G24G 5G10G27G13G15
  22092757.448      -77935.536        1831.154          47.000  
  22820910.083      143868.816       -3393.632          44.000  
  20304360.715       37222.347        -884.162          46.000  
  23239707.159      128170.868       -3039.393          40.000  
  21321802.117      -61673.931        1446.143          45.000  
  23957854.292     -138761.517        3313.041          42.000  
  24072672.397      121998.467       -2928.717          40.000  
  24806844.572     -103079.083        2854.942          36.000  
  24894227.392      -42036.7652       2593.899          35.000  
  21501354.038       86981.770       -2050.724          44.000  
  20240189.145       13923.534        -340.828          47.000  
 16 10 14 20 49 52.2000000  0 11G18G29G20G 4G21G24G 5G10G27G13G15
  22092687.612      -78301.804        1831.380          47.000  
  22821038.848      144547.536       -3393.606          44.000  
  20304394.115       37399.207        -884.300          46.000  
  23239822.784      128778.620       -3038.707          40.000  
  21321747.096      -61963.146        1446.323          45.000  
  23957728.389     -139424.144        3313.954          42.000  
  24072784.096      122584.171       -2928.100          41.000  
  24806736.014     -103650.254        2855.995          36.000  
  24894128.921      -42555.4882       2594.607          35.000  
  21501431.901       87391.913       -2050.901          44.000  
  20240202.075       13991.646        -340.382          47.000  
 16 10 14 20 49 52.4000000  0 11G18G29G20G 4G21G24G 5G10G27G13G15
  22092617.985      -78668.057        1831.106          47.000  
  22821168.223      145226.297       -3393.925          44.000  
  20304427.810       37576.101        -884.434          46.000  
  23239938.339      129386.376       -3039.705          40.000  
  21321692.093      -62252.334        1445.583          45.000  
  23957602.625     -140086.766        3312.811          42.000  
  24072895.463      123169.888       -2929.671          41.000  
  24806627.177     -104221.396        2855.524          36.000  
  24894030.117      -43074.1292       2592.371          35.000  
  21501509.973       87802.094       -2051.688          44.000  
  20240214.988       14059.806        -341.032          47.000  
 16 10 14 20 49 52.6000000  0 11G18G29G20G 4G21G24G 5G10G27G13G15
  22092547.975      -79034.229        1830.752          47.000  
  22821297.477      145905.117       -3394.254          44.000  
  20304461.472       37753.061        -885.418          46.000  
  23240054.174      129994.229       -3038.492          40.000  
  21321637.037      -62541.423        1445.184          44.000  
  23957476.634     -140749.340        3312.739          42.000  
  24073007.022      123755.660       -2929.120          41.000  
  24806518.532     -104792.489        2854.382          36.000  
  24893931.366      -43592.7142       2592.917          32.000  
  21501587.783       88212.376       -2050.708          44.000  
  20240228.267       14128.032        -341.430          47.000  
 16 10 14 20 49 52.8000000  0 11G18G29G20G 4G21G24G 5G10G27G13G15
  22092478.296      -79400.383        1830.990          47.000  
  22821426.574      146583.963       -3394.276          44.000  
  20304495.221       37930.049        -884.926          46.000  
  23240169.799      130602.062       -3038.725          41.000  
  21321582.156      -62830.509        1445.545          45.000  
  23957350.557     -141411.848        3312.899          41.000  
  24073118.494      124341.483       -2928.857          41.000  
  24806409.747     -105363.575        2855.175          36.000  
  24893832.424      -44111.2382       2593.731          35.000  
  21501665.873       88622.672       -2051.312          44.000  
  20240241.355       14196.311        -341.265          47.000  
 16 10 14 20 49 53.0000000  0 11G18G29G20G 4G21G24G 5G10G27G13G15
  22092408.583      -79766.524        1830.502          47.000  
  22821555.688      147262.832       -3394.686          44.000  
  20304528.812       38107.056        -885.644          46.000  
  23240285.494      131209.984       -3039.560          40.000  
  21321527.485      -63119.555        1445.047          45.000  
  23957224.234     -142074.365        3312.232          41.000  
  24073229.949      124927.316       -2929.609          41.000  
  24806301.102     -105934.599        2854.310          36.000  
  24893733.778      -44629.7972       2591.741          35.000  
  21501744.207       89033.013       -2052.142          44.000  
  20240254.041       14264.619        -342.049          47.000  
 16 10 14 20 49 53.2000000  0 11G18G29G20G 4G21G24G 5G10G27G13G15
  22092338.660      -80132.650        1830.362          47.000  
  22821684.976      147941.729       -3394.759          44.000  
  20304562.387       38284.111        -885.357          46.000  
  23240401.119      131817.903       -3039.722          40.000  
  21321472.639      -63408.579        1445.115          45.000  
  23957098.139     -142736.854        3312.734          41.000  
  24073341.473      125513.140       -2929.561          41.000  
  24806192.439     -106505.592        2855.020          36.000  
  24893634.939      -45148.2022       2590.486          32.000  
  21501822.192       89443.393       -2051.945          44.000  
  20240267.094       14332.980        -342.034          47.000  
 16 10 14 20 49 53.4000000  0 11G18G29G20G 4G21G24G 5G10G27G13G15
  22092268.911      -80498.765        1829.791          47.000  
  22821813.986      148620.634       -3394.856          44.000  
  20304595.925       38461.161        -885.743          46.000  
  23240516.796      132425.815       -3040.688          40.000  
  21321417.670      -63697.594        1444.989          45.000  
  23956971.869     -143399.366        3312.221          41.000  
  24073452.613      126098.982       -2929.207          41.000  
  24806083.759     -107076.663        2853.855          36.000  
  24893536.293      -45666.6942       2591.027          35.000  
  21501900.299       89853.779       -2052.236          44.000  
  20240280.112       14401.360        -342.379          47.000  
 16 10 14 20 49 53.6000000  0 11G18G29G20G 4G21G24G 5G10G27G13G15
  22092199.302      -80864.843        1830.582          47.000  
  22821943.327      149299.560       -3395.059          44.000  
  20304629.884       38638.240        -885.789          46.000  
  23240632.369      133033.774       -3039.516          41.000  
  21321362.562      -63986.563        1445.236          45.000  
  23956845.617     -144061.845        3312.483          41.000  
  24073564.242      126684.824       -2929.355          41.000  
  24805975.288     -107647.676        2854.964          36.000  
  24893437.525      -46185.1392       2591.979          35.000  
  21501978.389       90264.211       -2052.707          44.000  
  20240292.920       14469.777        -342.376          47.000  
 16 10 14 20 49 53.8000000  0 11G18G29G20G 4G21G24G 5G10G27G13G15
  22092129.745      -81230.913        1830.474          47.000  
  22822072.510      149978.507       -3394.265          44.000  
  20304663.737       38815.352        -885.717          46.000  
  23240748.413      133641.738       -3040.205          41.000  
  21321307.350      -64275.526        1444.279          45.000  
  23956719.417     -144724.305        3312.250          41.000  
  24073675.732      127270.695       -2929.212          41.000  
  24805866.748     -108218.669        2855.194          36.000  
  24893338.757      -46703.5682       2590.864          35.000  
  21502056.461       90674.677       -2052.547          44.000  
  20240306.060       14538.241        -342.369          47.000  
 16 10 14 20 49 54.0000000  0 11G18G29G20G 4G21G24G 5G10G27G13G15
  22092060.206      -81596.976        1830.515          47.000  
  22822201.625      150657.464       -3394.794          44.000  
  20304697.172       38992.478        -885.404          46.000  
  23240864.177      134249.714       -3040.153          41.000  
  21321252.347      -64564.469        1444.866          45.000  
  23956593.478     -145386.760        3311.925          42.000  
  24073787.082      127856.552       -2929.721          41.000  
  24805758.103     -108789.675        2854.643          37.000  
  24893239.901      -47221.9932       2591.869          35.000  
  21502134.411       91085.157       -2052.670          44.000  
  20240319.043       14606.720        -342.368          47.000  
 16 10 14 20 49 54.2000000  0 11G18G29G20G 4G21G24G 5G10G27G13G15
  22091990.632      -81962.967        1829.623          47.000  
  22822330.861      151336.492       -3395.226          44.000  
  20304730.903       39169.668        -885.962          46.000  
  23240979.907      134857.775       -3040.892          41.000  
  21321197.134      -64853.328        1444.140          45.000  
  23956467.436     -146049.163        3311.767          42.000  
  24073898.589      128442.481       -2929.026          41.000  
  24805649.249     -109360.634        2854.703          37.000  
  24893141.360      -47740.2982       2591.592          35.000  
  21502212.309       91495.716       -2052.447          44.000  
  20240332.131       14675.281        -342.829          47.000  
 16 10 14 20 49 54.4000000  0 11G18G29G20G 4G21G24G 5G10G27G13G15
  22091920.866      -82328.952        1829.632          47.000  
  22822459.870      152015.539       -3394.797          44.000  
  20304764.704       39346.890        -885.945          46.000  
  23241095.742      135465.869       -3039.568          41.000  
  21321141.904      -65142.172        1444.246          45.000  
  23956341.654     -146711.523        3312.031          42.000  
  24074009.903      129028.423       -2929.492          41.000  
  24805540.848     -109931.549        2853.600          37.000  
  24893042.609      -48258.5562       2592.776          35.000  
  21502290.381       91906.315       -2053.323          44.000  
  20240345.358       14743.894        -342.866          47.000  
 16 10 14 20 49 54.6000000  0 11G18G29G20G 4G21G24G 5G10G27G13G15
  22091851.082      -82694.899        1829.362          47.000  
  22822589.159      152694.617       -3395.908          44.000  
  20304798.382       39524.137        -886.876          46.000  
  23241211.768      136073.973       -3041.134          41.000  
  21321087.110      -65430.979        1443.966          45.000  
  23956215.628     -147373.892        3311.263          42.000  
  24074121.741      129614.384       -2929.661          40.000  
  24805432.324     -110502.462        2853.928          37.000  
  24892944.050      -48776.8202       2591.361          35.000  
  21502368.854       92316.952       -2053.220          44.000  
  20240358.375       14812.545        -343.095          47.000  
 16 10 14 20 49 54.8000000  0 11G18G29G20G 4G21G24G 5G10G27G13G15
  22091781.282      -83060.790        1830.015          46.000  
  22822718.535      153373.745       -3395.463          44.000  
  20304832.166       39701.467        -886.618          46.000  
  23241327.323      136682.138       -3040.713          41.000  
  21321032.090      -65719.703        1443.858          45.000  
  23956089.324     -148036.180        3311.614          42.000  
  24074233.283      130200.394       -2930.176          40.000  
  24805323.714     -111073.298        2854.618          37.000  
  24892845.421      -49295.0182       2591.219          35.000  
  21502447.136       92727.648       -2053.558          44.000  
  20240371.585       14881.268        -343.570          47.000  
 16 10 14 20 49 55.0000000  0 11G18G29G20G 4G21G24G 5G10G27G13G15
  22091711.620      -83426.683        1829.400          46.000  
  22822848.033      154052.906       -3395.809          44.000  
  20304866.020       39878.808        -886.650          46.000  
  23241443.140      137290.339       -3040.773          41.000  
  21320977.156      -66008.419        1443.287          45.000  
  23955963.228     -148698.478        3311.582          42.000  
  24074344.633      130786.436       -2929.858          40.000  
  24805215.069     -111644.133        2853.069          36.000  
  24892746.618      -49813.1772       2590.243          35.000  
  21502525.208       93138.390       -2053.524          44.000  
  20240384.917       14950.023        -343.885          47.000  
 16 10 14 20 49 55.2000000  0 11G18G29G20G 4G21G24G 5G10G27G13G15
  22091642.116      -83792.547        1829.104          46.000  
  22822977.496      154732.080       -3396.074          44.000  
  20304899.855       40056.160        -887.303          46.000  
  23241558.923      137898.556       -3041.093          41.000  
  21320922.258      -66297.120        1443.252          45.000  
  23955837.255     -149360.757        3311.439          42.000  
  24074456.349      131372.469       -2930.482          40.000  
  24805106.250     -112214.928        2855.506          36.000  
  24892648.321      -50331.3142       2588.788          35.000  
  21502603.368       93549.151       -2054.293          44.000  
  20240398.092       15018.813        -344.086          47.000  
 16 10 14 20 49 55.4000000  0 11G18G29G20G 4G21G24G 5G10G27G13G15
  22091572.542      -84158.338        1828.816          46.000  
  22823106.593      155411.335       -3396.073          44.000  
  20304933.674       40233.609        -887.073          46.000  
  23241674.530      138506.827       -3041.256          41.000  
  21320867.395      -66585.730        1443.288          45.000  
  23955711.143     -150022.950        3310.772          42.000  
  24074568.170      131958.579       -2930.518          40.000  
  24804997.640     -112785.705        2854.427          36.000  
  24892549.762      -50849.3152       2591.135          35.000  
  21502681.824       93960.008       -2054.476          44.000  
  20240411.127       15087.697        -344.468          47.000  
 16 10 14 20 49 55.6000000  0 11G18G29G20G 4G21G24G 5G10G27G13G15
  22091502.950      -84524.138        1828.805          46.000  
  22823235.724      156090.572       -3395.989          44.000  
  20304967.370       40411.047        -887.379          46.000  
  23241790.295      139115.129       -3041.350          40.000  
  21320812.443      -66874.340        1443.043          45.000  
  23955585.187     -150685.152        3311.512          42.000  
  24074679.502      132544.664       -2930.313          40.000  
  24804889.012     -113356.481        2855.456          36.000  
  24892451.133      -51367.3792       2589.129          35.000  
  21502760.158       94370.875       -2053.947          44.000  
  20240424.267       15156.592        -344.388          47.000  
 16 10 14 20 49 55.8000000  0 11G18G29G20G 4G21G24G 5G10G27G13G15
  22091433.306      -84889.944        1828.548          46.000  
  22823364.803      156769.821       -3396.325          44.000  
  20305001.276       40588.493        -887.688          46.000  
  23241906.077      139723.404       -3041.668          40.000  
  21320757.510      -67162.960        1442.527          45.000  
  23955459.370     -151347.378        3310.661          42.000  
  24074791.062      133130.764       -2931.189          40.000  
  24804780.681     -113927.271        2854.797          36.000  
  24892352.661      -51885.4132       2589.688          35.000  
  21502838.108       94781.738       -2054.925          44.000  
  20240436.988       15225.500        -344.917          47.000  
 16 10 14 20 49 56.0000000  0 11G18G29G20G 4G21G24G 5G10G27G13G15
  22091363.645      -85255.696        1828.406          46.000  
  22823493.935      157449.115       -3396.182          44.000  
  20305035.042       40766.006        -887.729          46.000  
  23242021.824      140331.751       -3042.086          40.000  
  21320702.647      -67451.492        1442.395          45.000  
  23955333.450     -152009.543        3310.775          42.000  
  24074902.516      133716.883       -2930.684          40.000  
  24804671.966     -114497.994        2854.251          36.000  
  24892254.015      -52403.3902       2589.303          35.000  
  21502916.337       95192.661       -2055.260          44.000  
  20240450.303       15294.486        -345.164          47.000  
 16 10 14 20 49 56.2000000  0 11G18G29G20G 4G21G24G 5G10G27G13G15
  22091294.158      -85621.399        1828.386          46.000  
  22823623.450      158128.459       -3397.256          45.000  
  20305068.948       40943.548        -888.130          46.000  
  23242137.641      140940.135       -3042.600          40.000  
  21320647.940      -67740.001        1441.815          45.000  
  23955207.511     -152671.669        3310.875          42.000  
  24075014.372      134303.036       -2931.402          40.000  
  24804563.356     -115068.673        2854.576          36.000  
  24892155.352      -52921.3052       2589.403          35.000  
  21502995.072       95603.661       -2055.549          44.000  
  20240463.443       15363.528        -345.511          47.000  
 16 10 14 20 49 56.4000000  0 11G18G29G20G 4G21G24G 5G10G27G13G15
  22091224.549      -85987.085        1828.436          46.000  
  22823752.791      158807.831       -3397.104          45.000  
  20305102.487       41121.146        -887.890          46.000  
  23242253.388      141548.569       -3042.657          40.000  
  21320592.955      -68028.452        1442.337          45.000  
  23955081.486     -153333.762        3310.632          42.000  
  24075126.071      134889.264       -2930.897          40.000  
  24804454.519     -115639.360        2852.042          36.000  
  24892056.566      -53439.1682       2590.364          35.000  
  21503072.970       96014.694       -2055.347          44.000  
  20240476.373       15432.622        -345.541          47.000  
 16 10 14 20 49 56.6000000  0 11G18G29G20G 4G21G24G 5G10G27G13G15
  22091154.923      -86352.742        1828.740          46.000  
  22823882.010      159487.234       -3396.785          45.000  
  20305136.602       41298.745        -888.187          46.000  
  23242368.961      142157.013       -3042.166          40.000  
  21320538.073      -68316.892        1442.377          45.000  
  23954955.268     -153995.859        3311.001          42.000  
  24075237.473      135475.465       -2930.760          40.000  
  24804345.995     -116210.038        2853.552          36.000  
  24891957.553      -53957.0342       2589.006          35.000  
  21503151.426       96425.762       -2055.434          44.000  
  20240489.356       15501.741        -345.388          47.000  
 16 10 14 20 49 56.8000000  0 11G18G29G20G 4G21G24G 5G10G27G13G15
  22091085.418      -86718.382        1827.945          46.000  
  22824011.455      160166.667       -3397.202          45.000  
  20305170.490       41476.401        -888.468          46.000  
  23242484.987      142765.497       -3042.229          40.000  
  21320483.210      -68605.283        1441.902          45.000  
  23954829.051     -154657.923        3310.053          42.000  
  24075349.032      136061.689       -2931.018          40.000  
  24804237.315     -116780.654        2852.413          36.000  
  24891858.924      -54474.8802       2589.145          35.000  
  21503229.551       96836.867       -2056.023          44.000  
  20240502.793       15570.927        -345.822          47.000  
 16 10 14 20 49 57.0000000  0 11G18G29G20G 4G21G24G 5G10G27G13G15
  22091015.600      -87083.962        1828.110          46.000  
  22824140.604      160846.152       -3397.200          44.000  
  20305204.134       41654.109        -888.292          46.000  
  23242600.787      143374.031       -3041.735          40.000  
  21320428.416      -68893.630        1441.896          45.000  
  23954703.113     -155319.916        3309.849          42.000  
  24075460.574      136647.969       -2931.509          40.000  
  24804128.478     -117351.236        2852.906          36.000  
  24891760.383      -54992.6182       2588.986          36.000  
  21503307.815       97248.049       -2055.886          44.000  
  20240515.950       15640.164        -346.115          47.000  
 16 10 14 20 49 57.2000000  0 11G18G29G20G 4G21G24G 5G10G27G13G15
  22090946.026      -87449.552        1828.284          46.000  
  22824269.701      161525.612       -3397.176          45.000  
  20305238.057       41831.808        -888.159          46.000  
  23242716.656      143982.544       -3042.246          40.000  
  21320373.675      -69181.969        1441.714          45.000  
  23954577.035     -155981.956        3310.705          42.000  
  24075572.098      137234.232       -2930.582          41.000  
  24804020.217     -117921.838        2852.881          36.000  
  24891661.789      -55510.3902       2589.037          36.000  
  21503385.852       97659.226       -2055.449          44.000  
  20240529.352       15709.410        -346.126          47.000  
 16 10 14 20 49 57.4000000  0 11G18G29G20G 4G21G24G 5G10G27G13G15
  22090876.574      -87815.142        1827.524          47.000  
  22824398.990      162205.101       -3398.196          45.000  
  20305271.911       42009.517        -889.040          46.000  
  23242832.561      144591.093       -3043.755          40.000  
  21320318.829      -69470.304        1441.189          45.000  
  23954451.306     -156643.987        3309.713          42.000  
  24075683.378      137820.489       -2931.335          41.000  
  24803911.834     -118492.404        2852.115          36.000  
  24891563.178      -56028.1332       2588.025          35.000  
  21503464.116       98070.415       -2056.818          44.000  
  20240542.614       15778.677        -346.718          47.000  
 16 10 14 20 49 57.6000000  0 11G18G29G20G 4G21G24G 5G10G27G13G15
  22090807.052      -88180.688        1827.954          47.000  
  22824528.348      162884.637       -3397.676          44.000  
  20305305.572       42187.292        -888.619          46.000  
  23242948.151      145199.687       -3042.565          40.000  
  21320264.227      -69758.565        1441.823          45.000  
  23954325.263     -157305.961        3310.590          42.000  
  24075794.954      138406.784       -2932.418          41.000  
  24803803.363     -119062.950        2850.579          36.000  
  24891464.427      -56545.7952       2589.289          35.000  
  21503541.839       98481.684       -2056.152          44.000  
  20240555.597       15848.028        -346.529          47.000  
 16 10 14 20 49 57.8000000  0 11G18G29G20G 4G21G24G 5G10G27G13G15
  22090737.687      -88546.230        1827.335          47.000  
  22824657.759      163564.183       -3397.922          44.000  
  20305339.268       42365.058        -889.589          46.000  
  23243063.915      145808.274       -3043.625          40.000  
  21320209.346      -70046.828        1441.186          45.000  
  23954199.307     -157967.958        3309.427          42.000  
  24075906.496      138993.094       -2932.034          40.000  
  24803694.910     -119633.495        2853.011          36.000  
  24891365.851      -57063.4522       2588.852          35.000  
  21503620.191       98892.955       -2056.837          44.000  
  20240568.894       15917.385        -347.061          47.000  
 16 10 14 20 49 58.0000000  0 11G18G29G20G 4G21G24G 5G10G27G13G15
  22090668.236      -88911.683        1827.576          47.000  
  22824787.222      164243.797       -3398.424          44.000  
  20305373.139       42542.923        -889.328          46.000  
  23243179.959      146416.963       -3043.282          40.000  
  21320154.360      -70334.996        1440.942          45.000  
  23954073.456     -158629.855        3309.726          42.000  
  24076018.195      139579.475       -2932.381          40.000  
  24803586.282     -120203.995        2853.025          36.000  
  24891267.449      -57581.0412       2588.374          35.000  
  21503698.525       99304.323       -2057.231          44.000  
  20240582.138       15986.843        -347.418          47.000  
 16 10 14 20 49 58.2000000  0 11G18G29G20G 4G21G24G 5G10G27G13G15
  22090598.592      -89277.152        1827.550          47.000  
  22824916.388      164923.419       -3398.261          44.000  
  20305406.992       42720.784        -889.589          46.000  
  23243295.933      147025.650       -3043.996          40.000  
  21320099.654      -70623.182        1440.462          45.000  
  23953947.518     -159291.781        3309.375          42.000  
  24076129.841      140165.847       -2931.405          40.000  
  24803477.689     -120774.489        2851.892          36.000  
  24891168.995      -58098.6042       2587.192          35.000  
  21503776.719       99715.695       -2057.219          44.000  
  20240595.278       16056.309        -347.463          47.000  
 16 10 14 20 49 58.4000000  0 11G18G29G20G 4G21G24G 5G10G27G13G15
  22090528.808      -89642.609        1827.549          46.000  
  22825045.799      165603.037       -3398.304          44.000  
  20305441.143       42898.665        -889.519          46.000  
  23243411.454      147634.324       -3044.115          40.000  
  21320044.790      -70911.338        1440.811          45.000  
  23953821.632     -159953.669        3309.803          42.000  
  24076241.418      140752.209       -2932.227          40.000  
  24803369.167     -121344.976        2851.913          36.000  
  24891070.541      -58616.1682       2587.869          35.000  
  21503855.106      100127.101       -2056.856          44.000  
  20240608.715       16125.808        -347.700          47.000  
 16 10 14 20 49 58.6000000  0 11G18G29G20G 4G21G24G 5G10G27G13G15
  22090459.339      -90008.016        1826.580          46.000  
  22825175.052      166282.731       -3398.966          44.000  
  20305474.786       43076.611        -890.078          46.000  
  23243527.096      148243.095       -3043.528          40.000  
  21319989.891      -71199.429        1440.153          45.000  
  23953695.536     -160615.528        3308.523          42.000  
  24076353.029      141338.656       -2932.175          41.000  
  24803260.626     -121915.388        2852.024          36.000  
  24890971.807      -59133.6482       2588.321          35.000  
  21503933.561      100538.569       -2057.281          44.000  
  20240621.890       16195.381        -348.481          47.000  
 16 10 14 20 49 58.8000000  0 11G18G29G20G 4G21G24G 5G10G27G13G15
  22090389.887      -90373.396        1827.062          46.000  
  22825304.359      166962.444       -3398.573          44.000  
  20305508.762       43254.582        -889.669          46.000  
  23243642.896      148851.877       -3043.820          40.000  
  21319934.783      -71487.501        1440.040          45.000  
  23953569.703     -161277.359        3309.110          42.000  
  24076464.554      141925.077       -2932.633          41.000  
  24803152.138     -122485.805        2852.417          36.000  
  24890873.266      -59651.1362       2587.493          35.000  
  21504011.948      100950.088       -2057.176          44.000  
  20240635.099       16264.999        -348.118          47.000  
 16 10 14 20 49 59.0000000  0 11G18G29G20G 4G21G24G 5G10G27G13G15
  22090320.278      -90738.773        1827.289          46.000  
  22825433.560      167642.166       -3398.670          44.000  
  20305542.685       43432.561        -890.235          46.000  
  23243758.486      149460.655       -3044.047          40.000  
  21319880.234      -71775.539        1440.758          45.000  
  23953443.904     -161939.189        3309.979          42.000  
  24076575.956      142511.523       -2932.362          41.000  
  24803043.440     -123056.208        2851.900          36.000  
  24890774.689      -60168.5602       2587.059          35.000  
  21504090.334      101361.594       -2057.725          44.000  
  20240648.100       16334.636        -348.046          47.000  
 16 10 14 20 49 59.2000000  0 11G18G29G20G 4G21G24G 5G10G27G13G15
  22090250.861      -91104.146        1826.649          46.000  
  22825562.918      168321.888       -3398.476          44.000  
  20305576.556       43610.546        -889.851          46.000  
  23243874.146      150069.466       -3043.748          40.000  
  21319825.371      -72063.586        1439.877          45.000  
  23953318.140     -162601.039        3308.638          42.000  
  24076687.515      143097.953       -2932.121          41.000  
  24802934.970     -123626.626        2851.139          36.000  
  24890676.200      -60685.9872       2587.938          35.000  
  21504168.354      101773.134       -2058.073          44.000  
  20240661.362       16404.288        -348.256          47.000  
 16 10 14 20 49 59.4000000  0 11G18G29G20G 4G21G24G 5G10G27G13G15
  22090181.479      -91469.495        1826.436          46.000  
  22825692.294      169001.645       -3399.343          44.000  
  20305610.566       43788.565        -890.496          46.000  
  23243990.155      150678.300       -3044.131          40.000  
  21319770.437      -72351.588        1439.715          45.000  
  23953192.185     -163262.836        3309.199          42.000  
  24076799.458      143684.439       -2932.634          41.000  
  24802826.185     -124197.001        2852.057          36.000  
  24890577.729      -61203.3902       2586.561          35.000  
  21504246.636      102184.720       -2058.324          44.000  
  20240674.589       16473.999        -348.884          47.000  
 16 10 14 20 49 59.6000000  0 11G18G29G20G 4G21G24G 5G10G27G13G15
  22090111.870      -91834.784        1826.427          46.000  
  22825821.862      169681.467       -3399.139          44.000  
  20305644.384       43966.660        -890.457          46.000  
  23244105.989      151287.192       -3043.125          40.000  
  21319715.556      -72639.530        1439.942          45.000  
  23953066.298     -163924.619        3308.028          42.000  
  24076910.755      144270.921       -2932.936          41.000  
  24802717.383     -124767.376        2851.499          36.000  
  24890479.309      -61720.6472       2587.065          35.000  
  21504325.056      102596.373       -2058.377          44.000  
  20240687.746       16543.771        -349.146          47.000  
 16 10 14 20 49 59.8000000  0 11G18G29G20G 4G21G24G 5G10G27G13G15
  22090042.400      -92200.060        1826.634          46.000  
  22825951.325      170361.290       -3399.202          44.000  
  20305678.360       44144.769        -890.643          46.000  
  23244222.068      151896.066       -3045.343          40.000  
  21319660.919      -72927.448        1439.514          45.000  
  23952940.116     -164586.354        3308.619          42.000  
  24077022.454      144857.455       -2932.836          41.000  
  24802609.052     -125337.709        2851.656          36.000  
  24890380.698      -62237.9672       2587.084          35.000  
  21504403.356      103008.048       -2058.431          44.000  
  20240700.712       16613.571        -349.097          47.000  
 16 10 14 20 50  0.0000000  0 11G18G29G20G 4G21G24G 5G10G27G13G15
  22089972.809      -92565.326        1826.376          46.000  
  22826080.561      171041.147       -3399.304          44.000  
  20305712.196       44322.899        -890.688          46.000  
  23244338.252      152505.008       -3043.897          40.000  
  21319605.951      -73215.344        1439.453          45.000  
  23952814.108     -165248.084        3308.852          42.000  
  24077134.380      145443.993       -2932.927          41.000  
  24802500.616     -125908.005        2850.972          36.000  
  24890282.104      -62755.2522       2586.291          35.000  
  21504481.690      103419.752       -2058.952          44.000  
  20240714.463       16683.424        -349.428          47.000  
 16 10 14 20 50  0.4000000  0 11G18G29G20G 4G21G24G 5G10G27G13G15
  22089833.800      -93295.802        1826.212          46.000  
  22826339.348      172400.897       -3399.155          44.000  
  20305779.955       44679.219        -890.400          46.000  
  23244570.008      153722.914       -3044.171          40.000  
  21319496.381      -73791.072        1439.109          45.000  
  23952562.388     -166571.517        3308.725          42.000  
  24077357.341      146617.071       -2931.598          41.000  
  24802283.588     -127048.634        2851.473          36.000  
  24890084.847      -63789.764        2584.172          35.000  
  21504638.724      104243.256       -2059.220          44.000  
  20240741.074       16823.210        -349.512          47.000  
 16 10 14 20 50  0.6000000  0 11G18G29G20G 4G21G24G 5G10G27G13G15
  22089764.121      -93660.996        1826.447          46.000  
  22826468.601      173080.813       -3399.225          44.000  
  20305813.983       44857.418        -890.940          46.000  
  23244685.790      154331.906       -3044.868          40.000  
  21319441.552      -74078.890        1438.905          45.000  
  23952436.694     -167233.214        3308.903          42.000  
  24077469.040      147203.637       -2933.048          41.000  
  24802175.134     -127618.909        2851.390          36.000  
  24889986.357      -64306.930        2585.427          35.000  
  21504717.180      104655.075       -2058.614          44.000  
  20240754.824       16893.166        -349.470          47.000  
 16 10 14 20 50  0.8000000  0 11G18G29G20G 4G21G24G 5G10G27G13G15
  22089694.373      -94026.244        1826.090          46.000  
  22826597.925      173760.703       -3399.564          44.000  
  20305847.731       45035.602        -891.157          46.000  
  23244801.694      154940.874       -3044.965          40.000  
  21319386.916      -74366.727        1439.043          45.000  
  23952310.791     -167894.930        3308.351          42.000  
  24077580.494      147790.182       -2932.286          41.000  
  24802066.664     -128189.206        2851.477          36.000  
  24889887.851      -64824.116        2586.984          35.000  
  21504795.566      105066.863       -2059.329          44.000  
  20240768.244       16963.110        -349.780          47.000  
 16 10 14 20 50  1.0000000  0 11G18G29G20G 4G21G24G 5G10G27G13G15
  22089624.991      -94391.404        1825.918          46.000  
  22826727.283      174440.667       -3399.571          44.000  
  20305881.759       45213.875        -891.241          46.000  
  23244917.563      155549.946       -3044.751          40.000  
  21319332.227      -74654.476        1438.954          45.000  
  23952185.201     -168556.565        3308.479          42.000  
  24077692.141      148376.800       -2933.082          41.000  
  24801957.949     -128759.431        2850.829          36.000  
  24889789.414      -65341.235        2585.892          35.000  
  21504874.145      105478.749       -2058.953          44.000  
  20240781.663       17033.144        -350.493          47.000  
 16 10 14 20 50  1.2000000  0 11G18G29G20G 4G21G24G 5G10G27G13G15
  22089555.347      -94756.573        1825.822          46.000  
  22826856.834      175120.629       -3399.729          44.000  
  20305915.735       45392.130        -891.468          46.000  
  23245033.468      156158.981       -3045.445          40.000  
  21319277.712      -74942.232        1439.066          45.000  
  23952059.176     -169218.238        3307.661          42.000  
  24077803.508      148963.383       -2932.668          41.000  
  24801849.600     -129329.656        2852.085          36.000  
  24889690.768      -65858.360        2585.539          35.000  
  21504952.636      105890.624       -2059.446          44.000  
  20240794.890       17103.192        -350.196          47.000  
 16 10 14 20 50  1.4000000  0 11G18G29G20G 4G21G24G 5G10G27G13G15
  22089486.104      -95121.718        1825.615          46.000  
  22826986.367      175800.620       -3400.226          44.000  
  20305949.553       45570.434        -891.649          46.000  
  23245149.424      156768.054       -3046.035          40.000  
  21319222.988      -75229.956        1438.692          45.000  
  23951933.063     -169879.882        3307.735          42.000  
  24077915.294      149550.016       -2933.091          41.000  
  24801741.095     -129899.925        2851.280          36.000  
  24889592.384      -66375.447        2584.869          35.000  
  21505031.040      106302.566       -2059.429          44.000  
  20240808.117       17173.279        -350.545          47.000  
 16 10 14 20 50  1.6000000  0 11G18G29G20G 4G21G24G 5G10G27G13G15
  22089416.774      -95486.817        1824.907          46.000  
  22827115.690      176480.662       -3400.317          44.000  
  20305983.424       45748.772        -892.268          46.000  
  23245265.032      157377.190       -3046.077          40.000  
  21319168.229      -75517.635        1438.325          45.000  
  23951807.264     -170541.460        3307.523          42.000  
  24078027.254      150136.659       -2933.695          41.000  
  24801632.397     -130470.112        2850.375          36.000  
  24889493.790      -66892.486        2583.781          35.000  
  21505109.164      106714.526       -2060.277          44.000  
  20240821.414       17243.428        -351.036          47.000  
 16 10 14 20 50  1.8000000  0 11G18G29G20G 4G21G24G 5G10G27G13G15
  22089347.270      -95851.876        1825.362          46.000  
  22827245.170      177160.730       -3400.327          44.000  
  20306017.399       45927.168        -892.011          46.000  
  23245381.041      157986.356       -3046.294          40.000  
  21319113.592      -75805.255        1438.105          45.000  
  23951681.361     -171203.028        3307.464          42.000  
  24078138.674      150723.347       -2933.884          41.000  
  24801523.874     -131040.288        2850.534          37.000  
  24889395.370      -67409.439        2584.308          35.000  
  21505187.323      107126.566       -2059.951          44.000  
  20240834.694       17313.643        -351.646          47.000  
 16 10 14 20 50  2.0000000  0 11G18G29G20G 4G21G24G 5G10G27G13G15
  22089277.661      -96216.947        1825.218          46.000  
  22827374.616      177840.800       -3400.577          44.000  
  20306051.567       46105.548        -892.336          46.000  
  23245496.980      158595.493       -3046.619          40.000  
  21319058.799      -76092.884        1437.789          45.000  
  23951555.440     -171864.601        3307.743          42.000  
  24078250.390      151310.028       -2933.358          41.000  
  24801415.194     -131610.434        2850.887          36.000  
  24889296.899      -67926.436        2584.469          35.000  
  21505265.919      107538.606       -2060.386          44.000  
  20240848.287       17383.858        -351.432          47.000  
 16 10 14 20 50  2.2000000  0 11G18G29G20G 4G21G24G 5G10G27G13G15
  22089208.523      -96581.994        1825.361          46.000  
  22827504.044      178520.892       -3400.249          44.000  
  20306085.665       46283.963        -892.253          46.000  
  23245612.884      159204.699       -3045.976          40.000  
  21319004.145      -76380.478        1438.130          45.000  
  23951429.816     -172526.151        3307.878          42.000  
  24078362.054      151896.732       -2934.404          41.000  
  24801306.741     -132180.580        2850.802          36.000  
  24889198.270      -68443.335        2587.035          34.000  
  21505344.271      107950.683       -2060.424          44.000  
  20240861.707       17454.116        -351.603          47.000  
 16 10 14 20 50  2.4000000  0 11G18G29G20G 4G21G24G 5G10G27G13G15
  22089138.932      -96947.022        1824.984          46.000  
  22827633.420      179201.002       -3400.316          44.000  
  20306119.832       46462.400        -892.373          46.000  
  23245728.649      159813.931       -3045.994          40.000  
  21318949.421      -76668.048        1438.082          45.000  
  23951303.721     -173187.719        3307.934          41.000  
  24078473.404      152483.448       -2933.732          41.000  
  24801198.654     -132750.752        2850.219          36.000  
  24889099.799      -68960.362        2585.208          31.000  
  21505422.465      108362.790       -2060.268          44.000  
  20240875.161       17524.412        -351.474          47.000  
 16 10 14 20 50  2.6000000  0 11G18G29G20G 4G21G24G 5G10G27G13G15
  22089069.567      -97312.014        1825.082          47.000  
  22827762.796      179881.116       -3400.926          44.000  
  20306153.581       46640.872        -892.352          46.000  
  23245844.780      160423.166       -3046.036          40.000  
  21318894.679      -76955.601        1437.653          45.000  
  23951177.678     -173849.254        3307.940          41.000  
  24078584.876      153070.183       -2933.299          41.000  
  24801089.800     -133320.871        2850.624          36.000  
  24889001.379      -69477.198        2584.018          31.000  
  21505501.183      108774.925       -2060.874          44.000  
  20240888.423       17594.749        -351.534          47.000  
 16 10 14 20 50  2.8000000  0 11G18G29G20G 4G21G24G 5G10G27G13G15
  22088999.993      -97677.032        1824.826          47.000  
  22827892.102      180561.257       -3400.822          43.000  
  20306187.347       46819.344        -892.532          46.000  
  23245960.580      161032.404       -3046.657          40.000  
  21318840.130      -77243.134        1436.754          45.000  
  23951051.949     -174510.741        3307.407          42.000  
  24078696.662      153656.909       -2931.594          41.000  
  24800981.294     -133891.014        2849.865          36.000  
  24888902.907      -69994.062        2584.952          32.000  
  21505579.551      109187.093       -2061.425          44.000  
  20240901.493       17665.114        -352.307          47.000  
 16 10 14 20 50  3.0000000  0 11G18G29G20G 4G21G24G 5G10G27G13G15
  22088930.558      -98041.989        1824.827          46.000  
  22828021.408      181241.452       -3401.593          42.000  
  20306221.218       46997.885        -892.860          46.000  
  23246076.432      161641.687       -3046.610          40.000  
  21318785.598      -77530.599        1437.658          45.000  
  23950926.028     -175172.271        3307.397          41.000  
  24078808.273      154243.642       -2933.782          41.000  
  24800872.841     -134461.058        2849.589          36.000  
  24888804.907      -70510.880        2583.779          32.000  
  21505657.990      109599.299       -2061.125          44.000  
  20240915.453       17735.529        -352.206          47.000  
 16 10 14 20 50  3.2000000  0 11G18G29G20G 4G21G24G 5G10G27G13G15
  22088861.159      -98406.948        1824.400          47.000  
  22828151.063      181921.655       -3400.217          42.000  
  20306254.984       47176.399        -892.612          46.000  
  23246192.475      162250.982       -3046.822          40.000  
  21318730.926      -77818.070        1437.037          45.000  
  23950800.142     -175833.768        3307.045          41.000  
  24078920.129      154830.380       -2933.674          41.000  
  24800764.353     -135031.131        2849.259          36.000  
  24888706.697      -71027.637        2580.913          35.000  
  21505735.923      110011.512       -2061.259          44.000  
  20240928.837       17805.972        -352.366          47.000  
 16 10 14 20 50  3.4000000  0 11G18G29G20G 4G21G24G 5G10G27G13G15
  22088791.899      -98771.913        1824.099          47.000  
  22828280.387      182601.847       -3401.188          43.000  
  20306288.959       47354.952        -893.015          46.000  
  23246308.589      162860.319       -3046.969          40.000  
  21318676.063      -78105.513        1437.097          45.000  
  23950674.064     -176495.222        3307.092          42.000  
  24079031.776      155417.139       -2934.080          41.000  
  24800656.039     -135601.233        2849.764          36.000  
  24888608.051      -71544.5343       2582.330          32.000  
  21505814.641      110423.794       -2061.241          45.000  
  20240942.309       17876.431        -352.808          47.000  
 16 10 14 20 50  3.6000000  0 11G18G29G20G 4G21G24G 5G10G27G13G15
  22088722.552      -99136.815        1825.071          47.000  
  22828409.815      183282.091       -3400.258          43.000  
  20306322.865       47533.547        -892.839          46.000  
  23246424.686      163469.663       -3046.089          41.000  
  21318621.147      -78392.925        1437.155          45.000  
  23950548.074     -177156.647        3307.668          41.000  
  24079143.195      156003.925       -2934.807          41.000  
  24800547.639     -136171.241        2851.091          36.000  
  24888509.510      -72061.2012       2583.191          33.000  
  21505893.184      110836.087       -2061.256          45.000  
  20240955.728       17946.951        -352.681          47.000  
 16 10 14 20 50  3.8000000  0 11G18G29G20G 4G21G24G 5G10G27G13G15
  22088653.431      -99501.738        1824.341          47.000  
  22828539.365      183962.360       -3401.852          44.000  
  20306357.119       47712.157        -893.002          46.000  
  23246540.642      164079.031       -3047.948          40.000  
  21318566.457      -78680.342        1437.084          45.000  
  23950422.536     -177818.077        3306.951          41.000  
  24079254.964      156590.702       -2933.281          41.000  
  24800439.360     -136741.299        2850.154          37.000  
  24888411.247      -72577.9622       2583.987          35.000  
  21505971.605      111248.409       -2061.430          45.000  
  20240969.042       18017.495        -352.806          47.000  
 16 10 14 20 50  4.0000000  0 11G18G29G20G 4G21G24G 5G10G27G13G15
  22088583.892      -99866.625        1824.509          47.000  
  22828668.636      184642.697       -3401.020          44.000  
  20306391.008       47890.794        -893.143          46.000  
  23246656.895      164688.404       -3047.504          40.000  
  21318511.821      -78967.705        1436.671          45.000  
  23950296.738     -178479.497        3307.030          42.000  
  24079366.558      157177.542       -2933.899          41.000  
  24800330.907     -137311.373        2848.023          37.000  
  24888313.020      -73094.6192       2584.153          35.000  
  21506050.044      111660.769       -2061.662          44.000  
  20240982.461       18088.073        -352.929          47.000  
 16 10 14 20 50  4.2000000  0 11G18G29G20G 4G21G24G 5G10G27G13G15
  22088514.213     -100231.518        1824.471          47.000  
  22828798.134      185322.921       -3402.282          43.000  
  20306425.018       48069.433        -893.165          46.000  
  23246772.677      165297.819       -3045.846          39.000  
  21318457.359      -79255.088        1436.588          45.000  
  23950170.869     -179140.951        3307.533          42.000  
  24079478.501      157764.342       -2933.301          41.000  
  24800222.558     -137881.418        2850.480          37.000  
  24888214.653      -73611.3892       2581.942          35.000  
  21506128.482      112073.146       -2061.771          44.000  
  20240995.968       18158.667        -352.836          48.000  
 16 10 14 20 50  4.4000000  0 11G18G29G20G 4G21G24G 5G10G27G13G15
  22088444.866     -100596.390        1824.177          47.000  
  22828927.702      186003.254       -3401.443          43.000  
  20306459.011       48248.089        -892.975          46.000  
  23246888.355      165907.174       -3048.135          41.000  
  21318402.635      -79542.403        1436.250          45.000  
  23950044.879     -179802.343        3307.254          42.000  
  24079590.165      158351.148       -2933.642          41.000  
  24800114.419     -138451.437        2850.203          36.000  
  24888116.408      -74127.9062       2583.667          34.000  
  21506207.218      112485.554       -2062.360          44.000  
  20241009.544       18229.317        -353.056          47.000  
 16 10 14 20 50  4.6000000  0 11G18G29G20G 4G21G24G 5G10G27G13G15
  22088375.362     -100961.226        1824.446          47.000  
  22829057.340      186683.572       -3401.877          42.000  
  20306492.900       48426.809        -893.455          46.000  
  23247004.312      166516.665       -3046.693          40.000  
  21318348.138      -79829.692        1436.406          45.000  
  23949918.871     -180463.730        3306.590          42.000  
  24079701.933      158938.025       -2934.489          41.000  
  24800006.280     -139021.393        2849.081          37.000  
  24888017.814      -74644.5503       2583.085          31.000  
  21506285.482      112897.998       -2062.255          43.000  
  20241023.050       18299.990        -353.615          47.000  
 16 10 14 20 50  4.8000000  0 11G18G29G20G 4G21G24G 5G10G27G13G15
  22088306.189     -101326.046        1823.686          47.000  
  22829186.349      187363.927       -3401.841          42.000  
  20306526.945       48605.530        -894.008          46.000  
  23247120.582      167126.145       -3048.137          41.000  
  21318293.256      -80116.981        1436.320          45.000  
  23949792.688     -181125.112        3307.481          42.000  
  24079813.475      159524.821       -2934.261          39.000  
  24799897.600     -139591.437        2848.110          34.000  
  24887919.709      -75161.1792       2584.048          32.000  
  21506364.025      113310.473       -2063.257          44.000  
  20241036.452       18370.711        -354.296          48.000  
 16 10 14 20 50  5.0000000  0 11G18G29G20G 4G21G24G 5G10G27G13G15
  22088236.894     -101690.854        1823.794          47.000  
  22829315.655      188044.314       -3401.702          42.000  
  20306560.972       48784.280        -893.570          46.000  
  23247236.713      167735.652       -3048.013          41.000  
  21318238.724      -80404.213        1436.072          45.000  
  23949666.802     -181786.471        3306.656          42.000  
  24079924.999      160111.712       -2934.621          39.000  
  24799789.059     -140161.337        2849.261          37.000  
  24887821.272      -75677.6942       2583.640          32.000  
  21506442.691      113723.018       -2062.624          44.000  
  20241050.133       18441.485        -354.000          48.000  
 16 10 14 20 50  5.2000000  0 11G18G29G20G 4G21G24G 5G10G27G13G15
  22088167.634     -102055.660        1823.702          47.000  
  22829445.223      188724.684       -3402.024          42.000  
  20306595.053       48963.025        -894.316          45.000  
  23247353.001      168345.153       -3047.222          41.000  
  21318184.053      -80691.437        1436.150          45.000  
  23949540.811     -182447.820        3307.117          42.000  
  24080036.785      160698.605       -2934.217          40.000  
  24799680.571     -140731.294        2849.296          37.000  
  24887722.888      -76194.2612       2582.976          32.000  
  21506521.112      114135.530       -2062.509          44.000  
  20241063.465       18512.270        -353.903          48.000  
 16 10 14 20 50  5.4000000  0 11G18G29G20G 4G21G24G 5G10G27G13G15
  22088098.374     -102420.447        1823.510          47.000  
  22829574.686      189405.084       -3402.194          43.000  
  20306629.325       49141.824        -894.321          46.000  
  23247469.063      168954.691       -3047.781          41.000  
  21318129.329      -80978.649        1436.149          45.000  
  23949415.187     -183109.140        3306.628          42.000  
  24080148.746      161285.472       -2934.650          40.000  
  24799572.223     -141301.260        2849.475          36.000  
  24887624.364      -76710.7582       2582.159          33.000  
  21506599.533      114548.094       -2063.155          44.000  
  20241077.041       18583.078        -354.469          48.000  
 16 10 14 20 50  5.6000000  0 11G18G29G20G 4G21G24G 5G10G27G13G15
  22088029.079     -102785.182        1823.487          47.000  
  22829704.184      190085.569       -3401.540          43.000  
  20306663.266       49320.667        -894.230          46.000  
  23247585.054      169564.263       -3047.602          41.000  
  21318074.535      -81265.806        1435.964          45.000  
  23949289.127     -183770.470        3306.936          43.000  
  24080260.357      161872.419       -2935.216          40.000  
  24799463.648     -141871.194        2849.373          36.000  
  24887526.241      -77227.1772       2582.482          35.000  
  21506678.304      114960.712       -2063.131          44.000  
  20241090.722       18653.950        -354.513          48.000  
 16 10 14 20 50  5.8000000  0 11G18G29G20G 4G21G24G 5G10G27G13G15
  22087959.697     -103149.933        1823.467          47.000  
  22829833.612      190766.019       -3402.911          43.000  
  20306697.171       49499.506        -894.051          46.000  
  23247701.063      170173.829       -3047.909          41.000  
  21318019.881      -81552.957        1435.286          45.000  
  23949163.589     -184431.809        3306.690          43.000  
  24080372.108      162459.307       -2934.735          41.000  
  24799355.212     -142441.073        2849.540          36.000  
  24887428.101      -77743.7292       2582.509          32.000  
  21506756.829      115373.346       -2063.744          44.000  
  20241104.298       18724.852        -354.919          48.000  
 16 10 14 20 50  6.0000000  0 11G18G29G20G 4G21G24G 5G10G27G13G15
  22087890.384     -103514.642        1823.342          47.000  
  22829963.023      191446.496       -3401.623          43.000  
  20306731.112       49678.373        -893.990          46.000  
  23247817.090      170783.428       -3048.618          41.000  
  21317965.227      -81840.074        1435.830          45.000  
  23949037.651     -185093.106        3306.868          42.000  
  24080483.877      163046.237       -2935.045          41.000  
  24799246.706     -143010.995        2848.466          37.000  
  24887329.629      -78260.1612       2581.621          33.000  
  21506835.442      115786.001       -2063.808          44.000  
  20241117.577       18795.786        -354.686          48.000  
 16 10 14 20 50  6.2000000  0 11G18G29G20G 4G21G24G 5G10G27G13G15
  22087820.880     -103879.341        1823.742          47.000  
  22830092.556      192126.975       -3402.299          43.000  
  20306765.541       49857.269        -894.552          46.000  
  23247933.168      171393.036       -3048.142          41.000  
  21317910.852      -82127.178        1435.633          45.000  
  23948912.027     -185754.354        3306.391          39.000  
  24080595.628      163633.162       -2934.496          41.000  
  24799138.009     -143580.923        2850.223          36.000  
  24887231.402      -78776.5162       2582.164          33.000  
  21506913.794      116198.717       -2063.508          44.000  
  20241131.084       18866.759        -354.891          48.000  
 16 10 14 20 50  6.4000000  0 11G18G29G20G 4G21G24G 5G10G27G13G15
  22087751.271     -104244.061        1823.422          47.000  
  22830222.071      192807.497       -3402.709          43.000  
  20306799.516       50036.164        -894.400          46.000  
  23248048.828      172002.688       -3048.789          41.000  
  21317856.372      -82414.262        1435.135          45.000  
  23948786.316     -186415.575        3305.942          37.000  
  24080707.624      164220.111       -2935.026          41.000  
  24799029.556     -144150.773        2849.050          36.000  
  24887133.210      -79292.9362       2580.383          33.000  
  21506992.302      116611.421       -2063.477          44.000  
  20241144.678       18937.743        -355.278          47.000  
 16 10 14 20 50  6.6000000  0 11G18G29G20G 4G21G24G 5G10G27G13G15
  22087681.802     -104608.739        1823.834          47.000  
  22830351.552      193487.986       -3402.299          43.000  
  20306833.579       50215.093        -894.209          46.000  
  23248164.907      172612.316       -3048.350          41.000  
  21317801.456      -82701.327        1435.531          45.000  
  23948660.535     -187076.790        3306.167          37.000  
  24080819.479      164807.069       -2934.671          41.000  
  24798921.277     -144720.722        2849.007          36.000  
  24887035.000      -79809.2662       2581.482          33.000  
  21507071.073      117024.162       -2063.950          44.000  
  20241157.957       19008.774        -354.959          47.000  
 16 10 14 20 50  6.8000000  0 11G18G29G20G 4G21G24G 5G10G27G13G15
  22087612.611     -104973.443        1823.723          47.000  
  22830481.102      194168.499       -3402.556          43.000  
  20306867.397       50393.999        -894.789          46.000  
  23248280.968      173221.994       -3047.539          41.000  
  21317746.593      -82988.403        1435.065          45.000  
  23948534.753     -187738.015        3306.856          37.000  
  24080930.777      165393.999       -2934.171          41.000  
  24798812.649     -145290.630        2848.719          36.000  
  24886936.825      -80325.6232       2580.129          33.000  
  21507149.808      117436.894       -2064.092          44.000  
  20241171.743       19079.799        -355.423          47.000  
 16 10 14 20 50  7.0000000  0 11G18G29G20G 4G21G24G 5G10G27G13G15
  22087543.421     -105338.120        1823.237          47.000  
  22830610.722      194849.068       -3402.598          43.000  
  20306901.617       50572.957        -895.289          46.000  
  23248397.169      173831.675       -3048.340          41.000  
  21317691.956      -83275.435        1434.562          45.000  
  23948408.850     -188399.245        3306.447          38.000  
  24081042.598      165980.981       -2934.367          41.000  
  24798704.039     -145860.465        2847.854          36.000  
  24886838.423      -80841.9432       2580.005          33.000  
  21507228.054      117849.702       -2063.817          44.000  
  20241185.232       19150.881        -355.550          47.000  
 16 10 14 20 50  7.2000000  0 11G18G29G20G 4G21G24G 5G10G27G13G15
  22087474.196     -105702.781        1823.337          47.000  
  22830740.185      195529.595       -3402.084          43.000  
  20306935.872       50751.928        -894.636          46.000  
  23248513.161      174441.341       -3049.042          41.000  
  21317637.337      -83562.447        1434.505          45.000  
  23948282.807     -189060.489        3306.002          40.000  
  24081154.296      166567.944       -2934.388          41.000  
  24798595.568     -146430.333        2848.624          36.000  
  24886740.056      -81358.2302       2579.719          34.000  
  21507306.580      118262.504       -2064.055          44.000  
  20241198.773       19221.988        -355.751          47.000  
 16 10 14 20 50  7.4000000  0 11G18G29G20G 4G21G24G 5G10G27G13G15
  22087404.849     -106067.434        1823.511          47.000  
  22830869.456      196210.180       -3402.480          44.000  
  20306970.127       50930.909        -894.886          46.000  
  23248629.048      175051.042       -3048.675          41.000  
  21317582.840      -83849.442        1434.699          45.000  
  23948156.799     -189721.728        3306.490          40.000  
  24081266.397      167154.907       -2934.798          41.000  
  24798487.098     -147000.201        2849.806          36.000  
  24886642.021      -81874.4952       2579.675          33.000  
  21507385.019      118675.340       -2064.111          44.000  
  20241212.454       19293.123        -355.682          47.000  
 16 10 14 20 50  7.6000000  0 11G18G29G20G 4G21G24G 5G10G27G13G15
  22087335.397     -106432.086        1823.186          47.000  
  22830998.832      196890.740       -3402.824          43.000  
  20307003.980       51109.899        -895.031          46.000  
  23248745.074      175660.771       -3048.651          41.000  
  21317528.622      -84136.419        1435.106          45.000  
  23948030.895     -190382.977        3306.250          40.000  
  24081377.834      167741.879       -2934.497          41.000  
  24798378.819     -147570.057        2849.102          36.000  
  24886543.462      -82390.7882       2581.173          34.000  
  21507463.754      119088.191       -2064.099          44.000  
  20241225.664       19364.277        -355.716          47.000  
 16 10 14 20 50  7.8000000  0 11G18G29G20G 4G21G24G 5G10G27G13G15
  22087265.893     -106796.725        1822.663          47.000  
  22831128.243      197571.333       -3402.987          43.000  
  20307038.043       51288.920        -895.076          46.000  
  23248861.083      176270.499       -3048.472          41.000  
  21317473.758      -84423.377        1435.008          45.000  
  23947904.922     -191044.192        3306.037          40.000  
  24081489.515      168328.838       -2934.908          41.000  
  24798270.383     -148139.917        2848.503          36.000  
  24886444.972      -82907.0842       2579.619          33.000  
  21507542.071      119501.070       -2064.407          44.000  
  20241239.274       19435.465        -356.152          47.000  
 16 10 14 20 50  8.0000000  0 11G18G29G20G 4G21G24G 5G10G27G13G15
  22087196.546     -107161.362        1823.137          47.000  
  22831257.671      198251.924       -3403.168          43.000  
  20307072.018       51467.944        -894.936          46.000  
  23248977.109      176880.229       -3048.325          41.000  
  21317419.366      -84710.345        1434.874          45.000  
  23947779.158     -191705.436        3306.443          40.000  
  24081601.161      168915.815       -2934.752          41.000  
  24798162.052     -148709.758        2847.510          36.000  
  24886346.972      -83423.2382       2579.266          33.000  
  21507620.631      119913.962       -2065.060          44.000  
  20241252.641       19506.671        -356.158          47.000  
 16 10 14 20 50  8.2000000  0 11G18G29G20G 4G21G24G 5G10G27G13G15
  22087127.233     -107525.985        1822.737          47.000  
  22831387.291      198932.538       -3403.572          43.000  
  20307106.168       51646.982        -895.421          46.000  
  23249093.223      177489.976       -3048.896          41.000  
  21317364.677      -84997.272        1434.978          45.000  
  23947653.429     -192366.656        3306.266          40.000  
  24081712.895      169502.811       -2934.868          41.000  
  24798053.756     -149279.602        2851.165          36.000  
  24886248.919      -83939.4402       2580.765          33.000  
  21507699.524      120326.885       -2064.906          44.000  
  20241266.026       19577.907        -356.544          47.000  
 16 10 14 20 50  8.4000000  0 11G18G29G20G 4G21G24G 5G10G27G13G15
  22087057.537     -107890.577        1822.939          47.000  
  22831516.842      199613.182       -3403.414          43.000  
  20307140.301       51826.068        -895.450          46.000  
  23249209.407      178099.784       -3048.958          41.000  
  21317310.162      -85284.157        1434.156          45.000  
  23947527.526     -193027.862        3306.095          40.000  
  24081824.751      170089.813       -2935.496          41.000  
  24797945.233     -149849.422        2850.169          36.000  
  24886150.797      -84455.6382       2579.279          33.000  
  21507778.120      120739.864       -2064.430          44.000  
  20241279.602       19649.213        -356.280          47.000  
 16 10 14 20 50  8.6000000  0 11G18G29G20G 4G21G24G 5G10G27G13G15
  22086988.312     -108255.127        1822.324          47.000  
  22831646.322      200293.874       -3403.095          44.000  
  20307174.277       52005.199        -896.077          46.000  
  23249325.520      178709.599       -3049.460          41.000  
  21317255.334      -85571.003        1434.127          45.000  
  23947401.797     -193689.015        3305.478          40.000  
  24081936.450      170676.846       -2935.295          41.000  
  24797836.658     -150419.227        2848.622          36.000  
  24886052.238      -84971.7702       2578.851          33.000  
  21507856.628      121152.890       -2065.285          44.000  
  20241293.318       19720.554        -356.962          47.000  
 16 10 14 20 50  8.8000000  0 11G18G29G20G 4G21G24G 5G10G27G13G15
  22086919.244     -108619.648        1822.871          47.000  
  22831775.890      200974.580       -3403.910          44.000  
  20307208.112       52184.356        -895.629          46.000  
  23249441.773      179319.474       -3048.906          41.000  
  21317200.487      -85857.816        1434.338          45.000  
  23947276.051     -194350.150        3306.219          40.000  
  24082047.991      171263.890       -2935.963          41.000  
  24797728.292     -150988.984        2847.966          36.000  
  24885953.888      -85487.7672       2581.140          33.000  
  21507935.363      121565.933       -2065.020          44.000  
  20241306.806       19791.947        -356.639          47.000  
 16 10 14 20 50  9.0000000  0 11G18G29G20G 4G21G24G 5G10G27G13G15
  22086849.827     -108984.174        1822.570          47.000  
  22831905.475      201655.296       -3403.927          44.000  
  20307242.018       52363.524        -896.368          46.000  
  23249557.730      179929.325       -3049.639          41.000  
  21317146.095      -86144.624        1433.856          45.000  
  23947150.392     -195011.289        3306.207          40.000  
  24082159.917      171850.977       -2935.206          41.000  
  24797619.926     -151558.746        2847.719          36.000  
  24885855.434      -86003.8872       2579.457          33.000  
  21508013.837      121979.007       -2065.250          44.000  
  20241320.470       19863.359        -357.103          47.000  
 16 10 14 20 50  9.2000000  0 11G18G29G20G 4G21G24G 5G10G27G13G15
  22086780.480     -109348.677        1822.072          47.000  
  22832035.165      202336.046       -3403.433          44.000  
  20307276.203       52542.719        -895.877          46.000  
  23249674.001      180539.245       -3049.018          41.000  
  21317091.266      -86431.385        1433.850          45.000  
  23947024.506     -195672.419        3305.545          40.000  
  24082271.319      172438.027       -2935.492          41.000  
  24797511.263     -152128.501        2849.307          36.000  
  24885757.015      -86519.9122       2580.580          33.000  
  21508092.450      122392.124       -2064.996          44.000  
  20241334.011       19934.810        -357.105          47.000  
 16 10 14 20 50  9.4000000  0 11G18G29G20G 4G21G24G 5G10G27G13G15
  22086710.836     -109713.190        1822.524          47.000  
  22832164.489      203016.771       -3403.601          44.000  
  20307310.423       52721.919        -895.997          46.000  
  23249790.027      181149.130       -3049.881          41.000  
  21317036.856      -86718.165        1433.468          45.000  
  23946898.690     -196333.543        3305.165          40.000  
  24082382.930      173025.114       -2935.497          41.000  
  24797402.932     -152698.252        2849.194          37.000  
  24885658.979      -87035.9632       2580.907          33.000  
  21508171.046      122805.238       -2065.798          44.000  
  20241347.710       20006.274        -357.479          47.000  
 16 10 14 20 50  9.6000000  0 11G18G29G20G 4G21G24G 5G10G27G13G15
  22086641.698     -110077.694        1822.541          47.000  
  22832294.004      203697.525       -3403.896          44.000  
  20307344.416       52901.112        -896.792          46.000  
  23249906.159      181759.038       -3049.630          41.000  
  21316982.359      -87004.914        1433.733          45.000  
  23946772.821     -196994.663        3305.248          40.000  
  24082494.437      173612.172       -2935.591          41.000  
  24797294.846     -153268.022        2848.375          37.000  
  24885560.630      -87551.9372       2581.393          33.000  
  21508249.676      123218.388       -2065.542          44.000  
  20241361.460       20077.752        -357.349          47.000  
 16 10 14 20 50  9.8000000  0 11G18G29G20G 4G21G24G 5G10G27G13G15
  22086572.106     -110442.200        1822.750          47.000  
  22832423.554      204378.284       -3403.259          43.000  
  20307378.705       53080.343        -895.863          46.000  
  23250022.289      182368.942       -3049.918          41.000  
  21316927.827      -87291.665        1433.654          45.000  
  23946646.743     -197655.802        3305.725          40.000  
  24082606.153      174199.221       -2935.207          41.000  
  24797186.200     -153837.766        2849.331          37.000  
  24885462.350      -88067.9982       2578.982          33.000  
  21508328.446      123631.544       -2065.314          44.000  
  20241374.618       20149.254        -357.882          47.000  
 16 10 14 20 50 10.0000000  0 11G18G29G20G 4G21G24G 5G10G27G13G15
  22086502.776     -110806.696        1822.153          47.000  
  22832553.122      205059.039       -3403.839          43.000  
  20307413.012       53259.573        -896.281          46.000  
  23250138.386      182978.855       -3050.240          41.000  
  21316872.946      -87578.409        1433.746          45.000  
  23946520.840     -198316.918        3305.859          40.000  
  24082717.782      174786.288       -2935.534          41.000  
  24797078.114     -154407.513        2849.440          37.000  
  24885364.192      -88583.9702       2580.821          33.000  
  21508406.833      124044.701       -2066.085          44.000  
  20241388.421       20220.789        -357.278          47.000  
 16 10 14 20 50 10.2000000  0 11G18G29G20G 4G21G24G 5G10G27G13G15
  22086433.604     -111171.190        1822.459          47.000  
  22832682.463      205739.804       -3404.203          43.000  
  20307446.866       53438.805        -896.134          46.000  
  23250254.185      183588.791       -3049.098          41.000  
  21316818.484      -87865.132        1433.323          45.000  
  23946395.128     -198978.038        3305.365          40.000  
  24082829.708      175373.361       -2935.674          41.000  
  24796969.765     -154977.268        2848.937          36.000  
  24885266.105      -89099.9582       2580.407          33.000  
  21508485.568      124457.898       -2066.228          44.000  
  20241402.067       20292.350        -358.183          47.000  
 16 10 14 20 50 10.4000000  0 11G18G29G20G 4G21G24G 5G10G27G13G15
  22086364.274     -111535.636        1821.918          47.000  
  22832812.537      206420.615       -3404.991          43.000  
  20307480.981       53618.105        -896.789          46.000  
  23250370.212      184198.767       -3050.056          41.000  
  21316763.795      -88151.792        1433.154          45.000  
  23946269.487     -199639.110        3304.712          41.000  
  24082941.442      175960.472       -2935.609          41.000  
  24796861.225     -155547.016        2849.397          36.000  
  24885167.947      -89615.8172       2579.339          33.000  
  21508564.391      124871.148       -2067.006          44.000  
  20241415.538       20363.972        -358.338          47.000  
 16 10 14 20 50 10.6000000  0 11G18G29G20G 4G21G24G 5G10G27G13G15
  22086294.822     -111900.047        1822.005          47.000  
  22832942.000      207101.481       -3404.032          43.000  
  20307515.131       53797.448        -896.825          46.000  
  23250485.994      184808.796       -3051.296          41.000  
  21316709.350      -88438.418        1433.185          45.000  
  23946143.653     -200300.154        3305.006          41.000  
  24083053.228      176547.612       -2935.694          41.000  
  24796752.894     -156116.701        2847.275          36.000  
  24885069.894      -90131.6862       2580.277          33.000  
  21508643.074      125284.453       -2066.130          44.000  
  20241428.940       20435.645        -358.447          47.000  
 16 10 14 20 50 10.8000000  0 11G18G29G20G 4G21G24G 5G10G27G13G15
  22086225.213     -112264.450        1822.162          47.000  
  22833071.760      207782.362       -3403.780          43.000  
  20307549.194       53976.797        -896.712          46.000  
  23250602.492      185418.828       -3050.641          41.000  
  21316654.522      -88725.031        1433.189          45.000  
  23946017.907     -200961.178        3305.477          42.000  
  24083164.962      177134.761       -2935.250          41.000  
  24796644.162     -156686.373        2849.506          36.000  
  24884971.650      -90647.5322       2578.628          33.000  
  21508721.338      125697.779       -2066.228          44.000  
  20241442.621       20507.339        -358.542          47.000  
 16 10 14 20 50 11.0000000  0 11G18G29G20G 4G21G24G 5G10G27G13G15
  22086155.552     -112628.851        1822.105          47.000  
  22833201.380      208463.227       -3404.221          43.000  
  20307583.326       54156.161        -896.682          46.000  
  23250718.204      186028.865       -3050.687          41.000  
  21316600.059      -89011.616        1432.957          45.000  
  23945891.916     -201622.203        3305.054          42.000  
  24083276.730      177721.886       -2935.858          41.000  
  24796535.586     -157256.040        2848.218          36.000  
  24884873.596      -91163.3882       2578.798          33.000  
  21508799.916      126111.121       -2066.681          44.000  
  20241456.162       20579.060        -358.902          47.000  
 16 10 14 20 50 11.2000000  0 11G18G29G20G 4G21G24G 5G10G27G13G15
  22086086.082     -112993.295        1822.346          47.000  
  22833330.895      209144.064       -3403.816          43.000  
  20307617.284       54335.489        -896.314          46.000  
  23250834.370      186638.901       -3049.624          41.000  
  21316545.632      -89298.250        1433.728          45.000  
  23945766.152     -202283.271        3305.370          42.000  
  24083388.167      178308.978       -2935.892          41.000  
  24796427.098     -157825.772        2848.906          36.000  
  24884775.666      -91679.2522       2577.664          33.000  
  21508878.477      126524.426       -2066.149          44.000  
  20241470.035       20650.762        -358.318          47.000  
 16 10 14 20 50 11.4000000  0 11G18G29G20G 4G21G24G 5G10G27G13G15
  22086016.630     -113357.679        1822.016          47.000  
  22833460.673      209824.943       -3404.491          43.000  
  20307651.521       54514.871        -897.400          46.000  
  23250950.710      187248.948       -3049.506          41.000  
  21316490.943      -89584.827        1432.602          45.000  
  23945640.423     -202944.300        3304.713          42.000  
  24083500.023      178896.118       -2935.828          41.000  
  24796318.627     -158395.461        2849.644          36.000  
  24884677.124      -92195.0462       2577.287          33.000  
  21508956.985      126937.818       -2067.002          44.000  
  20241483.297       20722.533        -358.829          47.000  
 16 10 14 20 50 11.6000000  0 11G18G29G20G 4G21G24G 5G10G27G13G15
  22085947.458     -113722.022        1821.548          47.000  
  22833590.031      210505.897       -3404.436          43.000  
  20307685.671       54694.312        -897.583          46.000  
  23251066.929      187859.059       -3050.560          41.000  
  21316436.376      -89871.343        1432.450          45.000  
  23945514.677     -203605.282        3304.785          42.000  
  24083611.826      179483.309       -2936.014          41.000  
  24796210.314     -158965.092        2848.485          36.000  
  24884578.984      -92710.7822       2577.692          33.000  
  21509035.860      127351.251       -2067.513          44.000  
  20241497.048       20794.374        -359.448          47.000  
 16 10 14 20 50 11.8000000  0 11G18G29G20G 4G21G24G 5G10G27G13G15
  22085878.215     -114086.349        1821.433          47.000  
  22833719.651      211186.859       -3405.097          43.000  
  20307719.804       54873.783        -897.315          46.000  
  23251182.693      188469.183       -3051.930          41.000  
  21316382.123      -90157.831        1432.320          45.000  
  23945388.913     -204266.245        3304.587          42.000  
  24083723.647      180070.525       -2935.142          41.000  
  24796102.105     -159534.726        2847.022          36.000  
  24884481.071      -93226.4892       2578.393          33.000  
  21509114.159      127764.739       -2067.617          44.000  
  20241510.746       20866.249        -359.371          47.000  
 16 10 14 20 50 12.0000000  0 11G18G29G20G 4G21G24G 5G10G27G13G15
  22085808.990     -114450.646        1821.516          47.000  
  22833849.393      211867.841       -3405.107          43.000  
  20307753.901       55053.276        -897.541          46.000  
  23251298.789      189079.373       -3049.898          41.000  
  21316327.923      -90444.295        1432.308          45.000  
  23945263.236     -204927.198        3305.261          42.000  
  24083835.241      180657.722       -2935.691          41.000  
  24795993.425     -160104.328        2847.592          36.000  
  24884382.931      -93742.1592       2578.348          33.000  
  21509192.912      128178.241       -2067.291          44.000  
  20241524.148       20938.160        -359.369          47.000  
 16 10 14 20 50 12.4000000  0 11G18G29G20G 4G21G24G 5G10G27G13G15
  22085670.261     -115179.285        1821.651          47.000  
  22834108.529      213229.793       -3404.672          43.000  
  20307822.271       55412.243        -897.347          46.000  
  23251531.034      190299.657       -3050.484          41.000  
  21316218.684      -91017.229        1431.931          45.000  
  23945011.447     -206249.152        3305.534          42.000  
  24084058.586      181832.087       -2935.981          41.000  
  24795776.745     -161243.576        2848.353          36.000  
  24884186.843      -94773.548        2577.916          34.000  
  21509349.964      129005.272       -2067.295          44.000  
  20241552.016       21081.995        -359.748          47.000  
 16 10 14 20 50 12.6000000  0 11G18G29G20G 4G21G24G 5G10G27G13G15
  22085601.158     -115543.595        1821.402          47.000  
  22834237.940      213910.778       -3405.334          43.000  
  20307856.474       55591.750        -897.871          46.000  
  23251647.183      190909.831       -3051.135          41.000  
  21316164.170      -91303.670        1431.668          45.000  
  23944885.666     -206910.124        3304.680          42.000  
  24084170.704      182419.292       -2934.810          41.000  
  24795668.170     -161813.177        2848.132          36.000  
  24884088.877      -95289.173        2579.632          33.000  
  21509428.839      129418.808       -2068.118          44.000  
  20241565.609       21153.966        -359.919          47.000  
 16 10 14 20 50 12.8000000  0 11G18G29G20G 4G21G24G 5G10G27G13G15
  22085531.619     -115907.922        1821.595          47.000  
  22834367.769      214591.755       -3405.076          43.000  
  20307890.746       55771.242        -897.955          46.000  
  23251763.349      191519.976       -3051.514          41.000  
  21316110.057      -91590.116        1432.195          45.000  
  23944759.798     -207571.096        3304.556          42.000  
  24084282.717      183006.457       -2935.982          41.000  
  24795559.612     -162382.831        2849.700          36.000  
  24883990.929      -95804.873        2576.940          34.000  
  21509507.504      129832.355       -2067.596          44.000  
  20241579.308       21225.929        -359.877          47.000  
 16 10 14 20 50 13.0000000  0 11G18G29G20G 4G21G24G 5G10G27G13G15
  22085462.288     -116272.211        1821.413          47.000  
  22834497.215      215272.761       -3405.231          43.000  
  20307925.140       55950.799        -897.720          46.000  
  23251879.672      192130.203       -3050.554          41.000  
  21316055.716      -91876.504        1432.268          45.000  
  23944634.348     -208232.035        3305.038          42.000  
  24084394.363      183593.677       -2935.616          41.000  
  24795451.159     -162952.435        2847.904          36.000  
  24883893.033      -96320.467        2578.327          34.000  
  21509586.361      130245.939       -2067.754          44.000  
  20241593.093       21297.947        -359.847          47.000  
 16 10 14 20 50 13.2000000  0 11G18G29G20G 4G21G24G 5G10G27G13G15
  22085392.819     -116636.508        1821.417          47.000  
  22834626.625      215953.779       -3405.606          43.000  
  20307959.238       56130.343        -897.670          46.000  
  23251995.786      192740.402       -3051.344          41.000  
  21316001.115      -92162.921        1431.605          45.000  
  23944508.811     -208893.007        3304.648          42.000  
  24084506.184      184180.874       -2936.484          41.000  
  24795342.828     -163522.063        2846.976          36.000  
  24883794.980      -96836.051        2578.249          34.000  
  21509665.202      130659.543       -2068.239          44.000  
  20241606.722       21369.984        -360.501          47.000  
 16 10 14 20 50 13.4000000  0 11G18G29G20G 4G21G24G 5G10G27G13G15
  22085323.437     -117000.780        1821.178          47.000  
  22834756.019      216634.814       -3405.129          43.000  
  20307993.457       56309.911        -897.674          46.000  
  23252111.847      193350.622       -3050.607          41.000  
  21315946.635      -92449.293        1432.093          45.000  
  23944382.855     -209553.936        3305.292          42.000  
  24084617.778      184768.085       -2935.169          41.000  
  24795234.654     -164091.648        2848.000          36.000  
  24883696.823      -97351.649        2576.652          34.000  
  21509744.129      131073.186       -2067.715          44.000  
  20241620.490       21442.062        -360.278          47.000  
 16 10 14 20 50 13.6000000  0 11G18G29G20G 4G21G24G 5G10G27G13G15
  22085254.264     -117365.045        1821.633          47.000  
  22834885.936      217315.860       -3405.155          43.000  
  20308027.625       56489.484        -897.873          46.000  
  23252228.222      193960.854       -3050.895          41.000  
  21315892.208      -92735.654        1431.794          45.000  
  23944257.214     -210214.880        3305.166          42.000  
  24084729.512      185355.296       -2936.375          41.000  
  24795126.218     -164661.256        2847.664          36.000  
  24883598.927      -97867.211        2578.645          34.000  
  21509822.882      131486.838       -2067.863          44.000  
  20241634.049       21514.151        -360.367          47.000  
 16 10 14 20 50 13.8000000  0 11G18G29G20G 4G21G24G 5G10G27G13G15
  22085184.952     -117729.300        1821.364          47.000  
  22835015.573      217996.913       -3405.415          43.000  
  20308061.810       56669.095        -897.702          46.000  
  23252344.668      194571.089       -3051.553          41.000  
  21315837.658      -93021.990        1431.780          45.000  
  23944131.467     -210875.814        3304.678          42.000  
  24084841.368      185942.502       -2935.644          41.000  
  24795017.783     -165230.837        2848.631          36.000  
  24883500.595      -98382.758        2579.597          34.000  
  21509901.530      131900.531       -2068.201          44.000  
  20241647.869       21586.274        -361.000          47.000  
 16 10 14 20 50 14.0000000  0 11G18G29G20G 4G21G24G 5G10G27G13G15
  22085115.413     -118093.510        1820.588          47.000  
  22835145.385      218678.016       -3405.590          43.000  
  20308095.925       56848.739        -898.898          46.000  
  23252460.868      195181.414       -3051.219          41.000  
  21315782.986      -93308.277        1431.096          45.000  
  23944005.721     -211536.696        3303.834          42.000  
  24084953.119      186529.774       -2937.137          41.000  
  24794909.382     -165800.397        2846.978          36.000  
  24883402.577      -98898.264        2575.852          34.000  
  21509980.265      132314.263       -2069.155          44.000  
  20241661.602       21658.469        -361.206          47.000  
 16 10 14 20 50 14.2000000  0 11G18G29G20G 4G21G24G 5G10G27G13G15
  22085046.222     -118457.692        1821.338          47.000  
  22835274.936      219359.162       -3405.371          43.000  
  20308130.092       57028.431        -898.290          46.000  
  23252577.191      195791.733       -3051.508          41.000  
  21315728.542      -93594.528        1431.578          45.000  
  23943880.062     -212197.554        3304.657          42.000  
  24085064.660      187117.072       -2936.142          41.000  
  24794800.998     -166369.930        2848.502          36.000  
  24883304.175      -99413.673        2578.037          34.000  
  21510059.245      132728.044       -2068.679          44.000  
  20241675.074       21730.699        -361.028          47.000  
 16 10 14 20 50 14.4000000  0 11G18G29G20G 4G21G24G 5G10G27G13G15
  22084976.875     -118821.883        1820.919          47.000  
  22835404.364      220040.291       -3405.588          43.000  
  20308163.946       57208.118        -898.197          46.000  
  23252693.201      196402.071       -3051.485          41.000  
  21315674.167      -93880.787        1431.430          45.000  
  23943754.437     -212858.435        3303.527          42.000  
  24085176.307      187704.325       -2936.695          41.000  
  24794692.231     -166939.454        2847.979          36.000  
  24883206.105      -99929.150        2578.620          34.000  
  21510138.067      133141.821       -2068.715          44.000  
  20241688.877       21802.942        -361.175          47.000  
 16 10 14 20 50 14.6000000  0 11G18G29G20G 4G21G24G 5G10G27G13G15
  22084907.423     -119186.069        1820.520          47.000  
  22835533.932      220721.428       -3406.084          43.000  
  20308198.532       57387.811        -898.682          46.000  
  23252809.384      197012.390       -3051.593          41.000  
  21315619.618      -94167.033        1430.585          45.000  
  23943628.534     -213519.293        3304.233          42.000  
  24085288.093      188291.584       -2936.584          41.000  
  24794583.952     -167509.000        2848.466          36.000  
  24883107.912     -100444.576        2577.532          34.000  
  21510216.645      133555.630       -2069.280          44.000  
  20241702.785       21875.212        -361.442          47.000  
 16 10 14 20 50 14.8000000  0 11G18G29G20G 4G21G24G 5G10G27G13G15
  22084838.076     -119550.217        1820.664          47.000  
  22835663.569      221402.608       -3406.282          43.000  
  20308232.647       57567.545        -898.852          46.000  
  23252925.515      197622.776       -3052.083          41.000  
  21315564.649      -94453.226        1431.009          45.000  
  23943502.736     -214180.127        3304.354          42.000  
  24085399.739      188878.891       -2936.037          41.000  
  24794475.761     -168078.539        2847.862          36.000  
  24883009.772     -100959.948        2576.942          34.000  
  21510295.329      133969.490       -2069.401          44.000  
  20241716.710       21947.535        -361.668          47.000  
 16 10 14 20 50 15.0000000  0 11G18G29G20G 4G21G24G 5G10G27G13G15
  22084768.694     -119914.355        1820.817          47.000  
  22835792.997      222083.797       -3406.126          43.000  
  20308267.076       57747.309        -898.831          46.000  
  23253041.733      198233.170       -3052.115          41.000  
  21315510.222      -94739.404        1430.709          45.000  
  23943377.059     -214840.956        3304.243          42.000  
  24085511.560      189466.201       -2936.498          41.000  
  24794367.482     -168648.027        2846.798          36.000  
  24882911.859     -101475.328        2576.268          34.000  
  21510374.098      134383.384       -2069.589          44.000  
  20241730.548       22019.892        -361.687          47.000  
 16 10 14 20 50 15.2000000  0 11G18G29G20G 4G21G24G 5G10G27G13G15
  22084699.521     -120278.495        1820.824          47.000  
  22835922.827      222764.988       -3405.304          44.000  
  20308301.331       57927.056        -898.722          46.000  
  23253157.585      198843.574       -3051.495          41.000  
  21315455.655      -95025.575        1431.196          45.000  
  23943251.312     -215501.799        3304.565          42.000  
  24085623.433      190053.499       -2936.723          41.000  
  24794259.256     -169217.527        2846.290          36.000  
  24882813.771     -101990.715        2575.830          34.000  
  21510452.589      134797.266       -2068.830          44.000  
  20241744.176       22092.256        -361.336          47.000  
 16 10 14 20 50 15.4000000  0 11G18G29G20G 4G21G24G 5G10G27G13G15
  22084630.261     -120642.669        1820.936          47.000  
  22836052.552      223446.148       -3405.949          43.000  
  20308335.254       58106.806        -898.642          46.000  
  23253273.786      199453.945       -3052.010          41.000  
  21315401.437      -95311.774        1430.661          45.000  
  23943125.584     -216162.662        3304.300          42.000  
  24085735.446      190640.758       -2936.263          41.000  
  24794150.785     -169787.125        2848.242          36.000  
  24882715.265     -102506.052        2577.131          34.000  
  21510531.517      135211.138       -2069.066          44.000  
  20241757.857       22164.606        -361.895          47.000  
 16 10 14 20 50 15.6000000  0 11G18G29G20G 4G21G24G 5G10G27G13G15
  22084560.984     -121006.855        1820.762          47.000  
  22836182.224      224127.296       -3405.914          43.000  
  20308369.212       58286.531        -898.516          46.000  
  23253390.127      200064.300       -3052.559          41.000  
  21315347.167      -95597.977        1430.695          45.000  
  23942999.715     -216823.553        3303.861          42.000  
  24085847.302      191228.007       -2936.386          41.000  
  24794042.350     -170356.676        2846.693          36.000  
  24882617.386     -103021.442        2577.628          34.000  
  21510610.392      135625.022       -2069.153          44.000  
  20241771.643       22236.972        -362.038          47.000  
 16 10 14 20 50 15.8000000  0 11G18G29G20G 4G21G24G 5G10G27G13G15
  22084491.776     -121370.984        1820.342          47.000  
  22836312.036      224808.517       -3406.603          43.000  
  20308403.467       58466.324        -899.050          46.000  
  23253506.014      200674.726       -3052.137          41.000  
  21315292.565      -95884.095        1430.439          45.000  
  23942873.934     -217484.373        3303.948          42.000  
  24085959.053      191815.308       -2935.990          41.000  
  24793934.193     -170926.166        2847.116          36.000  
  24882519.229     -103536.752        2575.089          34.000  
  21510689.232      136038.972       -2069.840          44.000  
  20241785.271       22309.414        -361.877          47.000  
 16 10 14 20 50 16.0000000  0 11G18G29G20G 4G21G24G 5G10G27G13G15
  22084422.516     -121735.133        1821.028          47.000  
  22836441.761      225489.710       -3405.864          43.000  
  20308437.634       58646.106        -898.658          46.000  
  23253622.249      201285.122       -3052.583          41.000  
  21315237.946      -96170.252        1430.675          45.000  
  23942748.240     -218145.226        3304.630          42.000  
  24086070.734      192402.582       -2935.739          41.000  
  24793825.914     -171495.672        2848.711          36.000  
  24882420.792     -104052.084        2578.361          34.000  
  21510767.862      136452.903       -2069.639          44.000  
  20241799.214       22381.845        -362.270          47.000  
 16 10 14 20 50 16.2000000  0 11G18G29G20G 4G21G24G 5G10G27G13G15
  22084353.518     -122099.238        1820.599          47.000  
  22836571.346      226170.945       -3406.012          43.000  
  20308471.714       58825.936        -898.951          46.000  
  23253738.468      201895.593       -3051.513          41.000  
  21315183.326      -96456.340        1430.399          45.000  
  23942622.406     -218806.022        3304.177          42.000  
  24086182.573      192989.888       -2935.991          41.000  
  24793717.601     -172065.159        2849.643          36.000  
  24882322.774     -104567.314        2574.302          34.000  
  21510846.650      136866.912       -2069.582          44.000  
  20241812.790       22454.349        -362.145          47.000  
 16 10 14 20 50 16.4000000  0 11G18G29G20G 4G21G24G 5G10G27G13G15
  22084284.223     -122463.375        1820.429          47.000  
  22836700.914      226852.181       -3405.927          43.000  
  20308505.812       59005.739        -899.599          46.000  
  23253854.529      202506.014       -3052.523          41.000  
  21315129.056      -96742.451        1430.751          45.000  
  23942496.660     -219466.865        3303.609          42.000  
  24086294.499      193577.179       -2936.142          41.000  
  24793609.025     -172634.721        2846.861          36.000  
  24882224.686     -105082.608        2576.156          33.000  
  21510925.490      137280.902       -2070.092          44.000  
  20241826.471       22526.831        -362.436          47.000  
 16 10 14 20 50 16.6000000  0 11G18G29G20G 4G21G24G 5G10G27G13G15
  22084214.701     -122827.516        1820.408          47.000  
  22836830.569      227533.394       -3406.092          43.000  
  20308539.997       59185.553        -898.943          46.000  
  23253970.416      203116.449       -3053.058          41.000  
  21315074.646      -97028.572        1430.030          45.000  
  23942370.983     -220127.704        3304.077          42.000  
  24086406.232      194164.471       -2936.440          41.000  
  24793500.502     -173204.199        2849.115          36.000  
  24882126.773     -105597.879        2577.572          33.000  
  21511003.981      137694.888       -2070.244          44.000  
  20241840.257       22599.330        -362.685          47.000  
 16 10 14 20 50 16.8000000  0 11G18G29G20G 4G21G24G 5G10G27G13G15
  22084145.389     -123191.620        1820.386          47.000  
  22836959.997      228214.632       -3406.482          43.000  
  20308574.444       59365.413        -899.334          46.000  
  23254086.530      203726.929       -3051.181          41.000  
  21315020.097      -97314.641        1430.590          45.000  
  23942245.377     -220788.528        3303.052          42.000  
  24086517.949      194751.759       -2936.037          41.000  
  24793392.171     -173773.735        2848.248          36.000  
  24882028.546     -106113.106        2575.869          33.000  
  21511082.612      138108.925       -2070.426          44.000  
  20241853.938       22671.881        -363.162          47.000  
 16 10 14 20 50 17.0000000  0 11G18G29G20G 4G21G24G 5G10G27G13G15
  22084076.286     -123555.661        1819.904          47.000  
  22837089.425      228895.950       -3406.697          43.000  
  20308608.855       59545.334        -899.695          46.000  
  23254202.957      204337.467       -3052.479          41.000  
  21314965.826      -97600.643        1430.001          45.000  
  23942119.892     -221449.286        3303.240          42.000  
  24086629.612      195339.113       -2936.152          41.000  
  24793283.735     -174343.161        2846.735          36.000  
  24881930.074     -106628.292        2574.389          33.000  
  21511161.416      138523.044       -2071.014          44.000  
  20241867.723       22744.518        -363.318          47.000  
 16 10 14 20 50 17.2000000  0 11G18G29G20G 4G21G24G 5G10G27G13G15
  22084006.991     -123919.720        1820.638          47.000  
  22837219.272      229577.275       -3405.806          43.000  
  20308642.918       59725.244        -899.372          46.000  
  23254319.228      204947.975       -3052.481          41.000  
  21314911.347      -97886.639        1430.610          45.000  
  23941994.041     -222110.048        3304.334          42.000  
  24086741.032      195926.448       -2935.159          41.000  
  24793175.247     -174912.631        2848.250          36.000  
  24881832.353     -107143.458        2573.737          33.000  
  21511240.344      138937.172       -2070.132          44.000  
  20241881.666       22817.150        -363.237          47.000  
 16 10 14 20 50 17.4000000  0 11G18G29G20G 4G21G24G 5G10G27G13G15
  22083937.888     -124283.775        1820.375          47.000  
  22837348.718      230258.569       -3406.658          43.000  
  20308677.016       59905.175        -899.445          46.000  
  23254435.412      205558.531       -3052.887          41.000  
  21314856.815      -98172.643        1429.819          45.000  
  23941868.033     -222770.825        3304.114          42.000  
  24086852.923      196513.778       -2936.761          41.000  
  24793066.934     -175482.109        2847.126          36.000  
  24881734.247     -107658.549        2576.602          33.000  
  21511319.044      139351.296       -2070.294          44.000  
  20241895.504       22889.820        -363.211          47.000  
 16 10 14 20 50 17.6000000  0 11G18G29G20G 4G21G24G 5G10G27G13G15
  22083868.715     -124647.837        1820.389          47.000  
  22837478.338      230939.888       -3406.651          43.000  
  20308711.602       60085.100        -899.646          46.000  
  23254551.543      206169.060       -3053.200          41.000  
  21314802.161      -98458.626        1429.641          45.000  
  23941742.164     -223431.602        3304.078          42.000  
  24086964.656      197101.099       -2937.361          41.000  
  24792958.394     -176051.581        2846.342          36.000  
  24881636.160     -108173.739        2574.544          33.000  
  21511397.658      139765.453       -2070.213          44.000  
  20241909.272       22962.481        -363.287          47.000  
 16 10 14 20 50 17.8000000  0 11G18G29G20G 4G21G24G 5G10G27G13G15
  22083799.194     -125011.878        1820.649          47.000  
  22837608.220      231621.224       -3406.049          43.000  
  20308745.944       60265.035        -899.464          46.000  
  23254667.377      206779.621       -3052.396          41.000  
  21314747.768      -98744.603        1429.777          45.000  
  23941616.244     -224092.364        3304.311          42.000  
  24087076.181      197688.457       -2936.243          41.000  
  24792850.045     -176621.042        2848.287          36.000  
  24881538.247     -108688.851        2575.797          33.000  
  21511476.445      140179.624       -2071.035          44.000  
  20241923.302       23035.195        -363.332          47.000  
 16 10 14 20 50 18.0000000  0 11G18G29G20G 4G21G24G 5G10G27G13G15
  22083729.794     -125375.947        1820.338          47.000  
  22837737.927      232302.518       -3406.228          43.000  
  20308780.373       60444.981        -899.695          46.000  
  23254783.543      207390.138       -3052.668          41.000  
  21314693.219      -99030.585        1429.988          45.000  
  23941490.113     -224753.184        3304.375          42.000  
  24087187.931      198275.746       -2936.044          41.000  
  24792741.679     -177190.546        2847.578          36.000  
  24881440.158     -109203.948        2576.422          33.000  
  21511555.250      140593.782       -2070.703          44.000  
  20241937.279       23107.890        -363.384          47.000  
 16 10 14 20 50 18.2000000  0 11G18G29G20G 4G21G24G 5G10G27G13G15
  22083660.429     -125740.034        1820.681          47.000  
  22837867.321      232983.804       -3406.620          43.000  
  20308814.383       60624.889        -899.402          46.000  
  23254899.517      208000.644       -3052.903          41.000  
  21314638.983      -99316.587        1430.084          45.000  
  23941364.524     -225413.989        3304.599          42.000  
  24087299.979      198863.042       -2936.805          41.000  
  24792633.104     -177760.020        2849.490          36.000  
  24881342.245     -109719.119        2576.119          33.000  
  21511634.125      141007.940       -2070.257          44.000  
  20241951.292       23180.597        -363.165          47.000  
 16 10 14 20 50 18.4000000  0 11G18G29G20G 4G21G24G 5G10G27G13G15
  22083591.431     -126104.086        1820.251          47.000  
  22837996.801      233665.133       -3406.361          43.000  
  20308848.708       60804.858        -899.165          46.000  
  23255015.701      208611.224       -3052.647          41.000  
  21314584.469      -99602.537        1430.078          45.000  
  23941238.987     -226074.775        3304.322          42.000  
  24087411.626      199450.344       -2936.747          41.000  
  24792524.598     -178329.548        2846.946          36.000  
  24881244.175     -110234.240        2575.991          33.000  
  21511713.052      141422.153       -2070.693          44.000  
  20241964.850       23253.346        -363.946          47.000  
 16 10 14 20 50 18.6000000  0 11G18G29G20G 4G21G24G 5G10G27G13G15
  22083522.119     -126468.148        1820.091          47.000  
  22838126.474      234346.467       -3406.927          43.000  
  20308883.033       60984.809        -900.208          46.000  
  23255131.919      209221.778       -3053.118          41.000  
  21314530.007      -99888.469        1429.507          45.000  
  23941113.607     -226735.571        3303.237          42.000  
  24087523.272      200037.674       -2936.718          41.000  
  24792416.110     -178899.022        2847.322          36.000  
  24881145.913     -110749.300        2577.187          33.000  
  21511792.084      141836.367       -2071.803          44.000  
  20241978.514       23326.132        -364.065          47.000  
 16 10 14 20 50 18.8000000  0 11G18G29G20G 4G21G24G 5G10G27G13G15
  22083452.841     -126832.163        1820.165          47.000  
  22838256.356      235027.830       -3406.826          43.000  
  20308917.183       61164.815        -899.590          46.000  
  23255248.330      209832.369       -3054.010          41.000  
  21314475.265     -100174.385        1429.197          45.000  
  23940987.686     -227396.329        3303.649          42.000  
  24087635.023      200624.999       -2936.527          41.000  
  24792307.849     -179468.493        2847.028          36.000  
  24881047.808     -111264.364        2574.906          33.000  
  21511870.750      142250.620       -2071.634          44.000  
  20241992.561       23398.949        -364.079          47.000  
 16 10 14 20 50 19.0000000  0 11G18G29G20G 4G21G24G 5G10G27G13G15
  22083383.198     -127196.161        1820.235          47.000  
  22838385.819      235709.212       -3406.981          43.000  
  20308951.752       61344.850        -900.150          46.000  
  23255364.269      210443.015       -3053.772          41.000  
  21314420.978     -100460.253        1429.475          45.000  
  23940861.556     -228057.058        3303.581          42.000  
  24087746.879      201212.344       -2936.791          41.000  
  24792199.344     -180037.919        2846.538          36.000  
  24880949.842     -111779.364        2575.648          33.000  
  21511949.887      142664.933       -2071.853          44.000  
  20242006.504       23471.806        -364.048          47.000  
 16 10 14 20 50 19.2000000  0 11G18G29G20G 4G21G24G 5G10G27G13G15
  22083313.536     -127560.179        1820.078          47.000  
  22838515.578      236390.607       -3406.844          43.000  
  20308985.727       61524.880        -900.093          46.000  
  23255480.434      211053.633       -3052.918          41.000  
  21314366.445     -100746.144        1429.609          45.000  
  23940735.792     -228717.806        3303.617          42.000  
  24087858.979      201799.693       -2936.827          41.000  
  24792090.977     -180607.414        2846.717          36.000  
  24880851.615     -112294.344        2574.740          33.000  
  21512028.691      143079.235       -2071.554          44.000  
  20242020.132       23544.676        -364.530          47.000  
 16 10 14 20 50 19.4000000  0 11G18G29G20G 4G21G24G 5G10G27G13G15
  22083244.189     -127924.158        1820.198          47.000  
  22838645.513      237072.010       -3407.023          43.000  
  20309020.034       61704.936        -900.245          46.000  
  23255596.775      211664.273       -3053.126          41.000  
  21314312.367     -101031.976        1428.791          45.000  
  23940610.150     -229378.540        3303.815          42.000  
  24087970.940      202387.057       -2936.568          41.000  
  24791982.559     -181176.797        2846.773          36.000  
  24880753.544     -112809.344        2574.218          33.000  
  21512107.654      143493.583       -2071.377          44.000  
  20242034.110       23617.597        -364.624          47.000  
 16 10 14 20 50 19.6000000  0 11G18G29G20G 4G21G24G 5G10G27G13G15
  22083175.051     -128288.160        1819.805          47.000  
  22838775.325      237753.395       -3407.570          43.000  
  20309054.044       61884.985        -900.594          46.000  
  23255713.081      212274.921       -3054.380          41.000  
  21314258.149     -101317.849        1429.035          45.000  
  23940484.073     -230039.278        3303.092          42.000  
  24088082.621      202974.392       -2937.136          41.000  
  24791874.141     -181746.294        2845.338          36.000  
  24880655.666     -113324.307        2575.111          33.000  
  21512186.110      143907.930       -2071.991          44.000  
  20242047.948       23690.500        -364.893          47.000  
 16 10 14 20 50 19.8000000  0 11G18G29G20G 4G21G24G 5G10G27G13G15
  22083106.070     -128652.103        1819.342          47.000  
  22838904.928      238434.865       -3407.830          43.000  
  20309088.212       62065.116        -900.727          46.000  
  23255829.317      212885.637       -3053.479          41.000  
  21314203.757     -101603.612        1428.465          45.000  
  23940358.257     -230699.964        3302.967          42.000  
  24088194.268      203561.807       -2937.035          41.000  
  24791765.810     -182315.661        2846.772          36.000  
  24880557.334     -113839.218        2574.512          33.000  
  21512265.194      144322.367       -2072.350          44.000  
  20242061.978       23763.523        -365.013          47.000  
 16 10 14 20 50 20.0000000  0 11G18G29G20G 4G21G24G 5G10G27G13G15
  22083036.915     -129016.046        1819.805          47.000  
  22839034.548      239116.325       -3407.178          43.000  
  20309122.310       62245.230        -900.672          46.000  
  23255945.622      213496.335       -3053.336          41.000  
  21314149.347     -101889.404        1428.798          45.000  
  23940232.475     -231360.674        3303.873          42.000  
  24088306.106      204149.172       -2937.000          41.000  
  24791657.427     -182885.092        2846.880          36.000  
  24880459.054     -114354.090        2576.248          33.000  
  21512344.139      144736.778       -2072.317          44.000  
  20242075.763       23836.517        -365.055          47.000  
 16 10 14 20 50 20.2000000  0 11G18G29G20G 4G21G24G 5G10G27G13G15
  22082967.410     -129379.999        1819.722          47.000  
  22839164.133      239797.792       -3407.208          43.000  
  20309156.477       62425.347        -900.668          46.000  
  23256061.631      214107.029       -3053.248          41.000  
  21314095.094     -102175.186        1429.044          45.000  
  23940106.833     -232021.384        3303.735          42.000  
  24088417.735      204736.548       -2936.974          41.000  
  24791549.008     -183454.492        2847.600          36.000  
  24880360.809     -114869.071        2573.760          33.000  
  21512422.857      145151.198       -2072.510          44.000  
  20242089.392       23909.528        -365.273          47.000  
 16 10 14 20 50 20.4000000  0 11G18G29G20G 4G21G24G 5G10G27G13G15
  22082898.081     -129743.945        1819.820          47.000  
  22839293.736      240479.237       -3407.187          43.000  
  20309190.958       62605.482        -900.628          46.000  
  23256177.902      214717.742       -3053.733          41.000  
  21314040.737     -102460.950        1429.409          45.000  
  23939981.419     -232682.089        3303.305          42.000  
  24088529.503      205323.907       -2937.639          41.000  
  24791440.660     -184023.932        2846.891          36.000  
  24880263.036     -115383.940        2573.579          33.000  
  21512501.871      145565.660       -2072.033          44.000  
  20242103.404       23982.579        -365.258          47.000  
 16 10 14 20 50 20.6000000  0 11G18G29G20G 4G21G24G 5G10G27G13G15
  22082828.838     -130107.924        1820.394          47.000  
  22839423.513      241160.674       -3406.883          43.000  
  20309225.143       62785.589        -900.469          46.000  
  23256294.085      215328.422       -3053.241          41.000  
  21313986.205     -102746.747        1429.061          45.000  
  23939855.568     -233342.828        3304.221          42.000  
  24088641.499      205911.262       -2936.604          41.000  
  24791332.433     -184593.395        2846.626          36.000  
  24880165.088     -115898.779        2573.398          33.000  
  21512580.711      145980.090       -2072.073          44.000  
  20242117.120       24055.607        -365.084          47.000  
 16 10 14 20 50 20.8000000  0 11G18G29G20G 4G21G24G 5G10G27G13G15
  22082759.474     -130471.883        1819.909          47.000  
  22839552.976      241842.142       -3406.428          43.000  
  20309259.607       62965.733        -900.641          46.000  
  23256410.513      215939.141       -3053.566          41.000  
  21313931.847     -103032.500        1428.882          45.000  
  23939729.839     -234003.552        3303.762          42.000  
  24088753.302      206498.631       -2936.425          41.000  
  24791224.277     -185162.807        2847.417          36.000  
  24880066.843     -116413.702        2572.258          33.000  
  21512659.377      146394.571       -2071.726          44.000  
  20242131.185       24128.682        -365.317          47.000  
 16 10 14 20 50 21.0000000  0 11G18G29G20G 4G21G24G 5G10G27G13G15
  22082690.406     -130835.802        1819.659          47.000  
  22839682.701      242523.627       -3407.418          43.000  
  20309293.862       63145.908        -900.811          46.000  
  23256526.941      216549.888       -3052.931          41.000  
  21313877.298     -103318.231        1428.836          45.000  
  23939603.918     -234664.238        3303.956          42.000  
  24088864.984      207086.008       -2936.895          41.000  
  24791115.981     -185732.205        2847.601          36.000  
  24879969.122     -116928.500        2571.849          33.000  
  21512738.461      146809.084       -2072.496          44.000  
  20242145.215       24201.811        -365.609          47.000  
 16 10 14 20 50 21.2000000  0 11G18G29G20G 4G21G24G 5G10G27G13G15
  22082621.215     -131199.724        1819.226          47.000  
  22839812.460      243205.148       -3407.152          43.000  
  20309327.820       63326.095        -901.079          46.000  
  23256643.089      217160.640       -3054.078          41.000  
  21313822.958     -103603.924        1428.631          45.000  
  23939478.311     -235324.929        3303.640          42.000  
  24088976.926      207673.400       -2936.730          41.000  
  24791007.492     -186301.620        2846.749          36.000  
  24879871.156     -117443.322        2574.732          33.000  
  21512817.406      147223.624       -2072.947          44.000  
  20242158.843       24274.954        -365.870          47.000  
 16 10 14 20 50 21.4000000  0 11G18G29G20G 4G21G24G 5G10G27G13G15
  22082551.938     -131563.625        1819.742          47.000  
  22839942.273      243886.660       -3407.026          43.000  
  20309362.284       63506.311        -900.702          46.000  
  23256759.395      217771.406       -3053.347          41.000  
  21313768.583     -103889.600        1428.711          45.000  
  23939352.652     -235985.615        3304.104          42.000  
  24089088.835      208260.788       -2936.569          41.000  
  24790899.109     -186871.007        2846.093          36.000  
  24879772.946     -117958.095        2574.270          33.000  
  21512896.368      147638.173       -2072.752          44.000  
  20242172.995       24348.131        -365.732          47.000  
 16 10 14 20 50 21.6000000  0 11G18G29G20G 4G21G24G 5G10G27G13G15
  22082482.556     -131927.544        1819.376          47.000  
  22840072.085      244568.156       -3407.584          44.000  
  20309396.748       63686.515        -901.183          46.000  
  23256875.962      218382.198       -3053.761          41.000  
  21313714.278     -104175.303        1427.981          45.000  
  23939226.836     -236646.306        3302.878          42.000  
  24089200.795      208848.162       -2936.464          41.000  
  24790790.883     -187440.421        2846.823          36.000  
  24879674.963     -118472.901        2573.718          32.000  
  21512975.243      148052.753       -2073.202          44.000  
  20242186.606       24421.325        -366.244          47.000  
 16 10 14 20 50 21.8000000  0 11G18G29G20G 4G21G24G 5G10G27G13G15
  22082413.313     -132291.432        1819.433          47.000  
  22840201.810      245249.690       -3407.971          43.000  
  20309431.038       63866.749        -900.800          46.000  
  23256992.425      218992.989       -3054.644          41.000  
  21313659.938     -104460.956        1428.251          45.000  
  23939101.107     -237306.968        3304.166          42.000  
  24089312.477      209435.558       -2937.199          41.000  
  24790682.412     -188009.797        2847.734          36.000  
  24879577.224     -118987.640        2574.816          32.000  
  21513054.432      148467.359       -2072.557          44.000  
  20242200.479       24494.554        -365.928          47.000  
 16 10 14 20 50 22.0000000  0 11G18G29G20G 4G21G24G 5G10G27G13G15
  22082344.228     -132655.330        1819.271          47.000  
  22840331.482      245931.242       -3407.654          43.000  
  20309465.712       64046.985        -901.418          46.000  
  23257108.766      219603.777       -3054.490          41.000  
  21313605.318     -104746.615        1428.180          45.000  
  23938975.169     -237967.669        3302.474          42.000  
  24089424.158      210022.945       -2936.500          41.000  
  24790574.012     -188579.232        2846.100          36.000  
  24879479.189     -119502.431        2573.257          32.000  
  21513133.255      148881.977       -2073.311          44.000  
  20242214.317       24567.792        -366.413          47.000  
 16 10 14 20 50 22.2000000  0 11G18G29G20G 4G21G24G 5G10G27G13G15
  22082275.020     -133019.204        1819.519          47.000  
  22840460.997      246612.805       -3407.470          43.000  
  20309499.948       64227.254        -900.978          46.000  
  23257224.809      220214.617       -3053.509          41.000  
  21313551.222     -105032.236        1428.329          45.000  
  23938849.632     -238628.322        3303.119          42.000  
  24089535.787      210610.343       -2937.280          41.000  
  24790465.750     -189148.598        2846.267          36.000  
  24879380.996     -120017.094        2572.248          32.000  
  21513212.059      149296.630       -2073.596          44.000  
  20242228.260       24641.083        -366.432          47.000  
 16 10 14 20 50 22.4000000  0 11G18G29G20G 4G21G24G 5G10G27G13G15
  22082205.742     -133383.068        1819.570          47.000  
  22840590.617      247294.374       -3407.692          43.000  
  20309534.151       64407.518        -901.617          46.000  
  23257340.836      220825.454       -3054.283          41.000  
  21313497.074     -105317.856        1427.550          45.000  
  23938723.955     -239288.970        3302.690          41.000  
  24089647.468      211197.758       -2937.313          41.000  
  24790357.297     -189717.998        2845.795          36.000  
  24879283.100     -120531.816        2575.026          32.000  
  21513290.812      149711.285       -2073.407          44.000  
  20242242.342       24714.388        -366.703          47.000  
 16 10 14 20 50 22.6000000  0 11G18G29G20G 4G21G24G 5G10G27G13G15
  22082136.762     -133746.928        1819.357          47.000  
  22840720.255      247975.959       -3407.802          43.000  
  20309568.406       64587.833        -901.121          46.000  
  23257457.159      221436.300       -3053.951          41.000  
  21313442.891     -105603.433        1427.625          45.000  
  23938598.296     -239949.613        3303.647          41.000  
  24089759.115      211785.170       -2937.372          41.000  
  24790249.071     -190287.356        2847.131          36.000  
  24879184.873     -121046.504        2574.423          32.000  
  21513369.600      150125.994       -2073.164          44.000  
  20242256.564       24787.721        -366.779          47.000  
 16 10 14 20 50 22.8000000  0 11G18G29G20G 4G21G24G 5G10G27G13G15
  22082067.240     -134110.818        1819.218          47.000  
  22840849.875      248657.498       -3408.197          43.000  
  20309602.992       64768.085        -901.606          46.000  
  23257573.325      222047.115       -3054.168          41.000  
  21313388.237     -105889.049        1427.879          45.000  
  23938472.637     -240610.304        3303.012          42.000  
  24089870.761      212372.548       -2936.744          41.000  
  24790140.530     -190856.743        2846.736          36.000  
  24879086.873     -121561.192        2574.420          32.000  
  21513448.318      150540.672       -2073.681          44.000  
  20242270.280       24861.045        -366.576          47.000  
 16 10 14 20 50 23.0000000  0 11G18G29G20G 4G21G24G 5G10G27G13G15
  22081997.771     -134474.676        1819.700          47.000  
  22840979.757      249339.091       -3407.908          43.000  
  20309637.247       64948.390        -901.275          46.000  
  23257689.421      222657.972       -3054.080          41.000  
  21313334.124     -106174.627        1427.957          45.000  
  23938347.310     -241270.956        3303.330          42.000  
  24089982.547      212959.945       -2937.394          41.000  
  24790032.112     -191426.168        2846.450          36.000  
  24878988.977     -122075.855        2575.099          32.000  
  21513527.315      150955.391       -2073.113          44.000  
  20242284.397       24934.412        -366.812          47.000  
 16 10 14 20 50 23.2000000  0 11G18G29G20G 4G21G24G 5G10G27G13G15
  22081928.842     -134838.576        1819.129          47.000  
  22841109.429      250020.651       -3407.566          43.000  
  20309671.327       65128.670        -901.678          46.000  
  23257805.517      223268.796       -3054.198          41.000  
  21313279.522     -106460.229        1428.074          45.000  
  23938221.528     -241931.657        3302.957          42.000  
  24090094.472      213547.312       -2937.624          41.000  
  24789924.060     -191995.573        2846.883          36.000  
  24878890.924     -122590.519        2574.651          32.000  
  21513606.137      151370.083       -2073.257          44.000  
  20242298.182       25007.777        -366.925          47.000  
 16 10 14 20 50 23.4000000  0 11G18G29G20G 4G21G24G 5G10G27G13G15
  22081859.512     -135202.420        1818.950          47.000  
  22841239.050      250702.247       -3408.369          43.000  
  20309705.669       65309.000        -901.995          46.000  
  23257921.893      223879.663       -3054.939          41.000  
  21313225.095     -106745.777        1427.590          45.000  
  23938095.747     -242592.286        3303.177          42.000  
  24090206.259      214134.720       -2937.069          41.000  
  24789815.554     -192564.953        2846.636          36.000  
  24878792.749     -123105.202        2569.965          32.000  
  21513684.820      151784.850       -2073.510          44.000  
  20242312.230       25081.189        -367.637          47.000  
 16 10 14 20 50 23.6000000  0 11G18G29G20G 4G21G24G 5G10G27G13G15
  22081790.444     -135566.251        1819.262          47.000  
  22841368.949      251383.878       -3408.272          43.000  
  20309739.801       65489.360        -901.624          46.000  
  23258038.198      224490.575       -3055.290          41.000  
  21313170.598     -107031.307        1427.308          45.000  
  23937969.809     -243252.924        3303.229          42.000  
  24090318.062      214722.126       -2937.293          41.000  
  24789707.171     -193134.318        2846.953          36.000  
  24878694.906     -123619.774        2571.823          32.000  
  21513764.236      152199.636       -2074.104          44.000  
  20242326.452       25154.650        -367.473          47.000  
 16 10 14 20 50 23.8000000  0 11G18G29G20G 4G21G24G 5G10G27G13G15
  22081721.202     -135930.079        1818.993          47.000  
  22841498.744      252065.502       -3408.626          44.000  
  20309774.283       65669.737        -901.633          46.000  
  23258154.120      225101.485       -3054.594          41.000  
  21313116.485     -107316.817        1427.855          45.000  
  23937844.237     -243913.558        3303.009          42.000  
  24090429.848      215309.547       -2936.117          41.000  
  24789599.050     -193703.681        2847.175          36.000  
  24878596.818     -124134.344        2570.575          32.000  
  21513843.129      152614.456       -2074.233          44.000  
  20242340.325       25228.131        -367.445          47.000  
 16 10 14 20 50 24.0000000  0 11G18G29G20G 4G21G24G 5G10G27G13G15
  22081652.116     -136293.856        1819.173          47.000  
  22841628.573      252747.205       -3407.951          44.000  
  20309808.782       65850.158        -902.052          46.000  
  23258270.496      225712.445       -3054.915          41.000  
  21313062.145     -107602.262        1427.489          45.000  
  23937718.526     -244574.134        3303.090          42.000  
  24090541.617      215897.006       -2937.602          41.000  
  24789490.911     -194273.022        2847.206          36.000  
  24878499.132     -124648.869        2573.004          32.000  
  21513921.777      153029.336       -2074.313          44.000  
  20242354.075       25301.684        -367.367          47.000  
 16 10 14 20 50 24.2000000  0 11G18G29G20G 4G21G24G 5G10G27G13G15
  22081582.682     -136657.638        1818.879          47.000  
  22841758.246      253428.877       -3408.131          44.000  
  20309843.333       66030.566        -902.284          46.000  
  23258386.609      226323.408       -3054.579          41.000  
  21313007.752     -107887.729        1427.407          45.000  
  23937592.604     -245234.763        3303.124          42.000  
  24090653.385      216484.451       -2936.705          41.000  
  24789382.579     -194842.342        2846.492          36.000  
  24878401.201     -125163.434        2571.899          32.000  
  21514000.826      153444.201       -2073.914          44.000  
  20242368.140       25375.236        -367.556          47.000  
 16 10 14 20 50 24.4000000  0 11G18G29G20G 4G21G24G 5G10G27G13G15
  22081513.579     -137021.461        1818.865          47.000  
  22841888.162      254110.515       -3408.547          44.000  
  20309877.448       66210.964        -902.419          46.000  
  23258502.723      226934.323       -3055.457          41.000  
  21312953.290     -108173.221        1426.852          45.000  
  23937467.120     -245895.387        3303.210          42.000  
  24090765.136      217071.857       -2936.754          41.000  
  24789274.056     -195411.704        2847.822          36.000  
  24878303.340     -125677.968        2572.222          32.000  
  21514079.962      153859.058       -2074.316          44.000  
  20242382.519       25448.771        -367.713          47.000  
 16 10 14 20 50 24.6000000  0 11G18G29G20G 4G21G24G 5G10G27G13G15
  22081444.528     -137385.230        1818.991          47.000  
  22842017.800      254792.226       -3408.357          43.000  
  20309911.930       66391.414        -902.463          46.000  
  23258619.186      227545.327       -3054.070          41.000  
  21312898.793     -108458.627        1427.425          45.000  
  23937341.548     -246555.973        3303.435          42.000  
  24090876.800      217659.316       -2937.039          41.000  
  24789165.760     -195981.045        2846.428          36.000  
  24878205.584     -126192.420        2573.608          32.000  
  21514158.960      154273.984       -2074.260          44.000  
  20242396.653       25522.391        -367.970          47.000  
 16 10 14 20 50 24.8000000  0 11G18G29G20G 4G21G24G 5G10G27G13G15
  22081375.024     -137749.030        1819.146          47.000  
  22842147.455      255473.898       -3407.544          43.000  
  20309946.150       66571.839        -902.470          46.000  
  23258735.648      228156.274       -3054.437          41.000  
  21312844.418     -108744.080        1427.598          45.000  
  23937215.610     -247216.583        3302.745          42.000  
  24090988.499      218246.723       -2936.205          41.000  
  24789057.377     -196550.417        2846.902          36.000  
  24878107.496     -126706.895        2572.282          32.000  
  21514237.869      154688.880       -2074.141          44.000  
  20242410.753       25595.981        -368.271          47.000  
 16 10 14 20 50 25.0000000  0 11G18G29G20G 4G21G24G 5G10G27G13G15
  22081305.677     -138112.837        1818.946          47.000  
  22842276.988      256155.566       -3408.477          43.000  
  20309980.387       66752.281        -902.607          46.000  
  23258851.919      228767.248       -3054.971          41.000  
  21312790.165     -109029.515        1426.896          45.000  
  23937089.881     -247877.207        3302.875          42.000  
  24091099.989      218834.148       -2937.132          41.000  
  24788949.221     -197119.766        2846.017          36.000  
  24878009.740     -127221.402        2572.206          32.000  
  21514316.832      155103.809       -2074.398          44.000  
  20242424.748       25669.607        -368.410          47.000  
 16 10 14 20 50 25.2000000  0 11G18G29G20G 4G21G24G 5G10G27G13G15
  22081236.818     -138476.620        1818.954          47.000  
  22842406.695      256837.260       -3408.472          43.000  
  20310014.641       66932.732        -902.310          46.000  
  23258968.277      229378.206       -3055.647          41.000  
  21312735.947     -109314.926        1427.007          45.000  
  23936963.942     -248537.817        3303.956          42.000  
  24091211.565      219421.578       -2937.293          41.000  
  24788840.767     -197689.080        2850.196          36.000  
  24877911.582     -127735.916        2571.944          32.000  
  21514395.811      155518.758       -2074.706          44.000  
  20242438.883       25743.258        -368.252          47.000  
 16 10 14 20 50 25.4000000  0 11G18G29G20G 4G21G24G 5G10G27G13G15
  22081167.541     -138840.412        1819.056          47.000  
  22842536.385      257518.959       -3408.670          43.000  
  20310048.791       67113.200        -902.127          46.000  
  23259084.792      229989.202       -3054.888          41.000  
  21312681.572     -109600.335        1427.390          45.000  
  23936838.074     -249198.446        3302.199          42.000  
  24091323.211      220009.008       -2937.092          41.000  
  24788732.541     -198258.486        2845.603          36.000  
  24877813.634     -128250.327        2574.432          32.000  
  21514474.738      155933.735       -2074.774          44.000  
  20242452.598       25816.930        -368.311          47.000  
 16 10 14 20 50 25.6000000  0 11G18G29G20G 4G21G24G 5G10G27G13G15
  22081098.316     -139204.199        1818.602          47.000  
  22842665.883      258200.660       -3408.360          43.000  
  20310083.291       67293.667        -902.109          46.000  
  23259200.766      230600.196       -3055.031          41.000  
  21312627.180     -109885.733        1427.308          45.000  
  23936712.275     -249859.060        3302.722          42.000  
  24091435.137      220596.402       -2936.981          41.000  
  24788624.070     -198827.831        2847.206          36.000  
  24877715.598     -128764.810        2570.880          32.000  
  21514553.893      156348.694       -2075.200          44.000  
  20242466.559       25890.602        -368.832          47.000  
 16 10 14 20 50 25.8000000  0 11G18G29G20G 4G21G24G 5G10G27G13G15
  22081029.108     -139567.963        1818.843          47.000  
  22842795.451      258882.386       -3408.406          43.000  
  20310117.842       67474.162        -902.666          46.000  
  23259316.618      231211.202       -3055.484          41.000  
  21312572.770     -110171.111        1426.420          45.000  
  23936586.512     -250519.656        3302.854          42.000  
  24091546.975      221183.837       -2937.366          41.000  
  24788515.443     -199397.174        2846.001          36.000  
  24877617.406     -129279.194        2571.632          32.000  
  21514632.977      156763.704       -2075.145          44.000  
  20242480.309       25964.337        -368.643          47.000  
 16 10 14 20 50 26.0000000  0 11G18G29G20G 4G21G24G 5G10G27G13G15
  22080960.023     -139931.697        1818.967          47.000  
  22842925.281      259564.127       -3408.845          43.000  
  20310152.097       67654.692        -902.758          46.000  
  23259432.819      231822.255       -3055.355          41.000  
  21312518.360     -110456.435        1426.514          45.000  
  23936461.045     -251180.251        3302.935          42.000  
  24091658.709      221771.286       -2937.318          41.000  
  24788406.955     -199966.529        2846.618          36.000  
  24877519.528     -129793.601        2571.044          32.000  
  21514712.026      157178.757       -2075.339          44.000  
  20242494.409       26038.108        -369.122          47.000  
 16 10 14 20 50 26.2000000  0 11G18G29G20G 4G21G24G 5G10G27G13G15
  22080890.710     -140295.449        1818.599          47.000  
  22843055.110      260245.885       -3408.754          43.000  
  20310186.508       67835.219        -902.850          46.000  
  23259549.281      232433.291       -3055.333          41.000  
  21312463.880     -110741.784        1426.106          45.000  
  23936335.472     -251840.833        3302.901          42.000  
  24091770.687      222358.731       -2937.234          41.000  
  24788298.641     -200535.839        2848.510          36.000  
  24877421.754     -130307.995        2571.104          32.000  
  21514790.849      157593.815       -2075.771          44.000  
  20242508.648       26111.895        -368.984          47.000  
 16 10 14 20 50 26.4000000  0 11G18G29G20G 4G21G24G 5G10G27G13G15
  22080821.572     -140659.185        1818.673          47.000  
  22843184.835      260927.642       -3408.759          43.000  
  20310220.658       68015.760        -902.862          46.000  
  23259665.692      233044.354       -3055.750          41.000  
  21312409.540     -111027.089        1426.776          45.000  
  23936209.883     -252501.423        3302.641          42.000  
  24091882.438      222946.161       -2937.708          41.000  
  24788190.414     -201105.175        2846.972          36.000  
  24877323.806     -130822.267        2572.229          32.000  
  21514869.933      158008.903       -2075.161          44.000  
  20242522.678       26185.710        -368.647          47.000  
 16 10 14 20 50 26.6000000  0 11G18G29G20G 4G21G24G 5G10G27G13G15
  22080752.155     -141022.927        1818.366          47.000  
  22843314.665      261609.383       -3408.819          44.000  
  20310254.913       68196.301        -902.896          46.000  
  23259781.788      233655.415       -3055.134          41.000  
  21312355.287     -111312.419        1426.627          45.000  
  23936084.346     -253162.014        3302.858          42.000  
  24091994.294      223533.615       -2937.846          41.000  
  24788081.769     -201674.519        2847.423          36.000  
  24877226.119     -131336.648        2571.267          32.000  
  21514949.105      158423.985       -2075.629          44.000  
  20242536.568       26259.530        -369.270          47.000  
 16 10 14 20 50 26.8000000  0 11G18G29G20G 4G21G24G 5G10G27G13G15
  22080683.052     -141386.675        1818.400          47.000  
  22843444.599      262291.154       -3408.883          44.000  
  20310289.255       68376.864        -902.498          46.000  
  23259898.181      234266.468       -3055.630          41.000  
  21312301.262     -111597.729        1426.462          45.000  
  23935958.617     -253822.610        3302.952          42.000  
  24092105.975      224121.045       -2937.377          41.000  
  24787973.264     -202243.848        2848.465          36.000  
  24877128.259     -131851.006        2572.454          32.000  
  21515028.015      158839.085       -2075.887          44.000  
  20242550.703       26333.367        -369.275          47.000  
 16 10 14 20 50 27.0000000  0 11G18G29G20G 4G21G24G 5G10G27G13G15
  22080613.775     -141750.454        1818.856          47.000  
  22843574.586      262972.871       -3408.473          44.000  
  20310323.353       68557.372        -902.912          46.000  
  23260014.312      234877.482       -3055.316          41.000  
  21312246.834     -111883.059        1426.472          45.000  
  23935833.046     -254483.243        3303.319          42.000  
  24092217.744      224708.429       -2936.845          41.000  
  24787865.003     -202813.257        2847.751          36.000  
  24877030.293     -132365.393        2571.474          32.000  
  21515107.081      159254.164       -2075.622          44.000  
  20242564.524       26407.183        -369.594          47.000  
 16 10 14 20 50 27.2000000  0 11G18G29G20G 4G21G24G 5G10G27G13G15
  22080544.602     -142114.200        1818.934          47.000  
  22843704.293      263654.637       -3408.912          44.000  
  20310357.834       68737.935        -902.636          46.000  
  23260130.373      235488.554       -3055.850          41.000  
  21312192.494     -112168.369        1425.998          45.000  
  23935707.456     -255143.848        3302.552          42.000  
  24092329.407      225295.850       -2936.847          41.000  
  24787756.514     -203382.620        2846.665          36.000  
  24876932.275     -132879.692        2573.408          32.000  
  21515186.131      159669.294       -2075.798          44.000  
  20242578.449       26481.069        -369.453          47.000  
 16 10 14 20 50 27.4000000  0 11G18G29G20G 4G21G24G 5G10G27G13G15
  22080475.324     -142477.950        1818.179          47.000  
  22843833.948      264336.397       -3408.772          44.000  
  20310392.298       68918.501        -903.193          45.000  
  23260246.155      236099.625       -3055.748          41.000  
  21312138.119     -112453.646        1426.166          45.000  
  23935581.814     -255804.449        3302.946          42.000  
  24092441.420      225883.260       -2937.451          41.000  
  24787648.201     -203951.949        2847.922          36.000  
  24876834.536     -133394.018        2570.577          32.000  
  21515265.163      160084.437       -2075.967          44.000  
  20242592.618       26554.965        -369.424          47.000  
 16 10 14 20 50 27.6000000  0 11G18G29G20G 4G21G24G 5G10G27G13G15
  22080406.152     -142841.661        1818.365          47.000  
  22843963.603      265018.203       -3408.912          44.000  
  20310426.693       69099.108        -903.418          45.000  
  23260362.828      236710.741       -3055.804          41.000  
  21312083.779     -112738.895        1425.895          45.000  
  23935456.208     -256465.020        3302.474          42.000  
  24092553.503      226470.695       -2937.590          41.000  
  24787539.957     -204521.284        2846.468          36.000  
  24876736.483     -133908.288        2570.637          32.000  
  21515344.526      160499.625       -2075.863          44.000  
  20242606.648       26628.905        -370.033          47.000  
 16 10 14 20 50 27.8000000  0 11G18G29G20G 4G21G24G 5G10G27G13G15
  22080337.119     -143205.395        1818.379          47.000  
  22844093.363      265699.983       -3409.256          43.000  
  20310460.912       69279.715        -902.632          45.000  
  23260479.046      237321.823       -3055.494          41.000  
  21312029.369     -113024.143        1426.720          45.000  
  23935330.496     -257125.611        3302.981          42.000  
  24092665.237      227058.131       -2935.677          41.000  
  24787431.539     -205090.627        2847.591          36.000  
  24876638.780     -134422.564        2570.313          32.000  
  21515423.244      160914.826       -2075.821          44.000  
  20242620.870       26702.858        -369.877          47.000  
 16 10 14 20 50 28.0000000  0 11G18G29G20G 4G21G24G 5G10G27G13G15
  22080268.033     -143569.079        1818.315          47.000  
  22844223.175      266381.824       -3408.574          44.000  
  20310495.185       69460.351        -902.946          45.000  
  23260595.195      237932.962       -3055.529          41.000  
  21311975.518     -113309.348        1426.206          45.000  
  23935204.820     -257786.168        3303.111          42.000  
  24092777.023      227645.585       -2936.774          41.000  
  24787323.400     -205659.967        2847.339          36.000  
  24876540.727     -134936.804        2572.357          32.000  
  21515502.311      161330.052       -2075.825          44.000  
  20242635.144       26776.859        -369.656          47.000  
 16 10 14 20 50 28.2000000  0 11G18G29G20G 4G21G24G 5G10G27G13G15
  22080198.721     -143932.769        1818.288          47.000  
  22844353.127      267063.648       -3408.914          43.000  
  20310529.562       69641.006        -903.193          45.000  
  23260711.308      238544.106       -3056.231          41.000  
  21311920.759     -113594.555        1426.060          45.000  
  23935078.864     -258446.726        3303.055          42.000  
  24092889.071      228233.025       -2937.416          41.000  
  24787214.476     -206229.278        2846.403          36.000  
  24876442.500     -135450.965        2570.081          32.000  
  21515581.343      161745.309       -2076.533          44.000  
  20242649.157       26850.884        -370.596          47.000  
 16 10 14 20 50 28.4000000  0 11G18G29G20G 4G21G24G 5G10G27G13G15
  22080129.565     -144296.468        1818.473          47.000  
  22844482.607      267745.484       -3409.167          43.000  
  20310563.833       69821.657        -903.318          45.000  
  23260827.788      239155.273       -3055.571          41.000  
  21311866.803     -113879.752        1425.963          45.000  
  23934953.153     -259107.288        3302.459          42.000  
  24093000.699      228820.484       -2937.127          41.000  
  24787105.987     -206798.606        2847.669          36.000  
  24876344.429     -135965.203        2571.273          32.000  
  21515660.270      162160.578       -2076.167          44.000  
  20242663.343       26924.923        -370.473          47.000  
 16 10 14 20 50 28.6000000  0 11G18G29G20G 4G21G24G 5G10G27G13G15
  22080060.044     -144660.150        1818.241          47.000  
  22844612.227      268427.320       -3409.483          43.000  
  20310598.420       70002.331        -903.787          45.000  
  23260944.199      239766.419       -3055.263          41.000  
  21311812.707     -114164.928        1425.822          45.000  
  23934827.232     -259767.850        3302.667          42.000  
  24093112.451      229407.924       -2937.864          41.000  
  24786997.936     -207367.931        2845.363          36.000  
  24876246.202     -136479.389        2570.192          32.000  
  21515739.476      162575.864       -2076.915          44.000  
  20242677.583       26998.992        -370.672          47.000  
 16 10 14 20 50 28.8000000  0 11G18G29G20G 4G21G24G 5G10G27G13G15
  22079990.871     -145023.814        1818.075          47.000  
  22844742.074      269109.197       -3409.382          43.000  
  20310632.640       70183.033        -903.687          45.000  
  23261060.644      240377.614       -3055.573          41.000  
  21311758.262     -114450.080        1425.591          45.000  
  23934701.538     -260428.374        3303.218          42.000  
  24093224.149      229995.393       -2937.345          41.000  
  24786889.814     -207937.231        2846.227          36.000  
  24876148.393     -136993.531        2570.360          32.000  
  21515817.933      162991.181       -2076.916          44.000  
  20242691.578       27073.106        -370.391          47.000  
 16 10 14 20 50 29.0000000  0 11G18G29G20G 4G21G24G 5G10G27G13G15
  22079921.664     -145387.497        1818.274          47.000  
  22844871.415      269791.037       -3409.844          43.000  
  20310667.016       70363.717        -903.223          45.000  
  23261177.002      240988.767       -3056.174          41.000  
  21311704.132     -114735.239        1425.594          45.000  
  23934576.001     -261088.960        3302.333          42.000  
  24093335.936      230582.847       -2936.618          41.000  
  24786781.797     -208506.544        2845.794          36.000  
  24876050.689     -137507.711        2569.520          32.000  
  21515896.755      163406.506       -2076.773          44.000  
  20242705.503       27147.209        -370.857          47.000  
 16 10 14 20 50 29.2000000  0 11G18G29G20G 4G21G24G 5G10G27G13G15
  22079852.439     -145751.138        1818.525          47.000  
  22845001.367      270472.929       -3409.415          43.000  
  20310701.481       70544.444        -903.713          46.000  
  23261293.430      241599.996       -3056.503          41.000  
  21311650.193     -115020.341        1425.577          45.000  
  23934450.290     -261749.479        3302.940          42.000  
  24093447.774      231170.311       -2937.363          41.000  
  24786673.449     -209075.845        2846.598          36.000  
  24875952.776     -138021.795        2570.526          32.000  
  21515975.752      163821.883       -2077.039          44.000  
  20242719.690       27221.380        -370.533          47.000  
 16 10 14 20 50 29.4000000  0 11G18G29G20G 4G21G24G 5G10G27G13G15
  22079783.335     -146114.833        1818.625          47.000  
  22845131.301      271154.787       -3409.228          43.000  
  20310735.944       70725.141        -903.739          46.000  
  23261410.084      242211.153       -3056.091          41.000  
  21311596.097     -115305.494        1425.436          45.000  
  23934324.386     -262410.060        3302.175          42.000  
  24093559.874      231757.731       -2937.232          41.000  
  24786565.240     -209645.178        2845.949          36.000  
  24875855.002     -138535.944        2572.853          32.000  
  21516054.714      164237.219       -2076.742          44.000  
  20242733.685       27295.510        -371.049          47.000  
 16 10 14 20 50 29.6000000  0 11G18G29G20G 4G21G24G 5G10G27G13G15
  22079714.180     -146478.477        1818.143          47.000  
  22845260.904      271836.682       -3409.451          43.000  
  20310770.426       70905.892        -903.981          46.000  
  23261526.634      242822.384       -3056.892          41.000  
  21311541.827     -115590.599        1425.051          45.000  
  23934198.797     -263070.580        3302.729          42.000  
  24093671.608      232345.191       -2937.593          41.000  
  24786457.031     -210214.483        2846.668          36.000  
  24875756.775     -139050.0863       2567.549          32.000  
  21516133.991      164652.605       -2077.861          44.000  
  20242748.029       27369.716        -371.481          47.000  
 16 10 14 20 50 29.8000000  0 11G18G29G20G 4G21G24G 5G10G27G13G15
  22079645.182     -146842.127        1817.752          47.000  
  22845390.576      272518.585       -3409.309          43.000  
  20310804.786       71086.639        -904.021          46.000  
  23261642.800      243433.608       -3055.866          41.000  
  21311487.400     -115875.686        1424.795          45.000  
  23934073.399     -263731.127        3302.648          42.000  
  24093783.603      232932.649       -2937.661          41.000  
  24786348.804     -210783.795        2845.217          36.000  
  24875658.827     -139564.1342       2571.083          32.000  
  21516213.092      165068.021       -2077.140          44.000  
  20242761.902       27443.928        -371.339          47.000  
 16 10 14 20 50 30.0000000  0 11G18G29G20G 4G21G24G 5G10G27G13G15
  22079575.992     -147205.734        1818.289          47.000  
  22845520.249      273200.518       -3409.542          43.000  
  20310839.442       71267.426        -904.194          46.000  
  23261758.896      244044.868       -3056.089          41.000  
  21311433.007     -116160.732        1425.476          45.000  
  23933947.932     -264391.609        3303.337          42.000  
  24093895.250      233520.142       -2937.080          41.000  
  24786240.369     -211353.050        2848.578          36.000  
  24875561.071     -140078.1522       2570.498          32.000  
  21516292.299      165483.481       -2077.022          44.000  
  20242776.263       27518.204        -371.558          47.000  
 16 10 14 20 50 30.4000000  0 11G18G29G20G 4G21G24G 5G10G27G13G15
  22079437.454     -147932.990        1818.515          47.000  
  22845779.576      274564.351       -3409.619          43.000  
  20310908.021       71628.997        -904.068          46.000  
  23261991.996      245267.378       -3056.104          41.000  
  21311324.728     -116730.843        1425.709          45.000  
  23933696.806     -265712.657        3303.226          42.000  
  24094118.664      234695.069       -2937.654          41.000  
  24786023.654     -212491.694        2845.904          36.000  
  24875365.279     -141106.2782       2567.708          32.000  
  21516450.310      166314.407       -2077.304          44.000  
  20242804.026       27666.765        -371.404          47.000  
 16 10 14 20 50 30.6000000  0 11G18G29G20G 4G21G24G 5G10G27G13G15
  22079368.264     -148296.611        1817.971          47.000  
  22845909.545      275246.308       -3409.694          43.000  
  20310942.310       71809.806        -904.001          45.000  
  23262108.354      245878.659       -3056.648          41.000  
  21311270.702     -117015.877        1425.216          45.000  
  23933571.217     -266373.171        3302.608          42.000  
  24094230.433      235282.537       -2936.987          41.000  
  24785915.096     -213060.970        2845.385          36.000  
  24875267.278     -141620.2712       2569.728          32.000  
  21516529.290      166729.910       -2077.236          44.000  
  20242818.301       27741.090        -371.316          47.000  
 16 10 14 20 50 30.8000000  0 11G18G29G20G 4G21G24G 5G10G27G13G15
  22079299.126     -148660.229        1817.912          47.000  
  22846039.567      275928.246       -3409.743          43.000  
  20310976.809       71990.609        -903.859          46.000  
  23262224.834      246489.916       -3056.872          41.000  
  21311216.432     -117300.897        1425.199          45.000  
  23933445.453     -267033.695        3302.185          42.000  
  24094342.010      235869.997       -2937.047          41.000  
  24785806.504     -213630.280        2846.687          36.000  
  24875169.453     -142134.2582       2570.151          32.000  
  21516608.339      167145.406       -2077.761          44.000  
  20242832.418       27815.423        -371.837          47.000  
 16 10 14 20 50 31.0000000  0 11G18G29G20G 4G21G24G 5G10G27G13G15
  22079230.006     -149023.846        1818.146          47.000  
  22846169.292      276610.181       -3409.995          43.000  
  20311011.326       72171.441        -903.732          46.000  
  23262341.018      247101.203       -3056.126          41.000  
  21311162.232     -117585.912        1425.143          45.000  
  23933319.637     -267694.214        3302.945          42.000  
  24094453.831      236457.479       -2937.079          41.000  
  24785698.085     -214199.595        2845.146          36.000  
  24875071.627     -142648.2412       2568.866          32.000  
  21516687.406      167560.928       -2077.422          44.000  
  20242846.919       27889.788        -372.174          47.000  
 16 10 14 20 50 31.2000000  0 11G18G29G20G 4G21G24G 5G10G27G13G15
  22079160.920     -149387.453        1817.972          47.000  
  22846299.104      277292.143       -3409.814          43.000  
  20311045.528       72352.273        -904.560          45.000  
  23262457.463      247712.506       -3056.818          41.000  
  21311107.997     -117870.903        1424.854          45.000  
  23933194.170     -268354.710        3303.248          42.000  
  24094565.739      237044.929       -2937.708          41.000  
  24785589.964     -214768.885        2846.748          36.000  
  24874973.923     -143162.2162       2568.772          32.000  
  21516766.840      167976.476       -2078.173          44.000  
  20242861.193       27964.167        -372.375          47.000  
 16 10 14 20 50 31.4000000  0 11G18G29G20G 4G21G24G 5G10G27G13G15
  22079091.451     -149751.055        1817.899          47.000  
  22846428.863      277974.109       -3409.805          44.000  
  20311079.992       72533.132        -904.332          45.000  
  23262573.873      248323.815       -3056.422          41.000  
  21311053.656     -118155.885        1424.589          45.000  
  23933068.458     -269015.234        3302.608          42.000  
  24094677.525      237632.393       -2937.145          41.000  
  24785481.737     -215338.149        2846.792          36.000  
  24874875.992     -143676.1662       2566.412          32.000  
  21516845.994      168392.041       -2078.649          44.000  
  20242875.135       28038.582        -372.285          47.000  
 16 10 14 20 50 31.6000000  0 11G18G29G20G 4G21G24G 5G10G27G13G15
  22079022.313     -150114.679        1818.791          47.000  
  22846558.832      278656.064       -3409.200          44.000  
  20311114.544       72713.976        -904.316          45.000  
  23262690.318      248935.086       -3056.710          41.000  
  21310999.561     -118440.880        1425.447          45.000  
  23932942.729     -269675.758        3303.121          42.000  
  24094789.241      238219.861       -2937.306          41.000  
  24785373.127     -215907.479        2844.829          36.000  
  24874777.974     -144190.1202       2569.992          32.000  
  21516924.834      168807.615       -2077.748          44.000  
  20242889.392       28113.002        -372.237          47.000  
 16 10 14 20 50 31.8000000  0 11G18G29G20G 4G21G24G 5G10G27G13G15
  22078953.070     -150478.322        1817.934          47.000  
  22846688.662      279337.991       -3409.945          44.000  
  20311148.938       72894.785        -904.722          46.000  
  23262806.519      249546.364       -3056.624          41.000  
  21310945.482     -118725.885        1425.059          45.000  
  23932816.948     -270336.315        3303.146          42.000  
  24094900.765      238807.259       -2936.603          41.000  
  24785264.901     -216476.833        2846.849          36.000  
  24874680.061     -144704.1142       2569.061          32.000  
  21517004.058      169223.164       -2077.645          44.000  
  20242903.614       28187.399        -372.800          47.000  
 16 10 14 20 50 32.0000000  0 11G18G29G20G 4G21G24G 5G10G27G13G15
  22078883.915     -150841.938        1818.325          47.000  
  22846818.370      280019.943       -3409.964          44.000  
  20311183.507       73075.645        -904.417          45.000  
  23262922.755      250157.683       -3056.794          41.000  
  21310891.195     -119010.863        1424.984          45.000  
  23932691.219     -270996.848        3302.452          42.000  
  24095012.377      239394.703       -2937.219          41.000  
  24785156.273     -217046.149        2847.306          36.000  
  24874582.287     -145218.0182       2569.860          32.000  
  21517083.072      169638.756       -2078.374          44.000  
  20242917.784       28261.858        -372.387          47.000  
 16 10 14 20 50 32.2000000  0 11G18G29G20G 4G21G24G 5G10G27G13G15
  22078814.586     -151205.521        1818.226          47.000  
  22846948.234      280701.945       -3409.036          44.000  
  20311217.884       73256.524        -904.378          45.000  
  23263039.061      250769.013       -3056.589          41.000  
  21310836.942     -119295.801        1424.933          45.000  
  23932565.403     -271657.353        3302.879          42.000  
  24095124.285      239982.152       -2937.604          41.000  
  24785048.187     -217615.454        2846.490          36.000  
  24874484.252     -145731.9572       2569.688          32.000  
  21517162.087      170054.386       -2078.505          44.000  
  20242931.796       28336.348        -372.225          47.000  
 16 10 14 20 50 32.4000000  0 11G18G29G20G 4G21G24G 5G10G27G13G15
  22078745.430     -151569.140        1818.196          47.000  
  22847078.046      281383.908       -3409.081          44.000  
  20311252.086       73437.403        -904.284          46.000  
  23263155.349      251380.345       -3055.715          41.000  
  21310782.654     -119580.752        1425.155          45.000  
  23932439.709     -272317.887        3303.691          42.000  
  24095236.140      240569.579       -2937.991          41.000  
  24784939.908     -218184.765        2847.448          36.000  
  24874386.565     -146245.8802       2570.976          32.000  
  21517241.118      170470.022       -2077.760          44.000  
  20242946.035       28410.845        -371.816          47.000  
 16 10 14 20 50 32.6000000  0 11G18G29G20G 4G21G24G 5G10G27G13G15
  22078676.100     -151932.755        1817.309          47.000  
  22847207.684      282065.884       -3410.667          44.000  
  20311286.463       73618.298        -904.901          46.000  
  23263271.777      251991.655       -3058.022          41.000  
  21310728.436     -119865.693        1424.293          45.000  
  23932314.172     -272978.416        3302.326          42.000  
  24095347.839      241157.008       -2937.601          41.000  
  24784831.454     -218754.084        2845.749          36.000  
  24874288.861     -146759.7482       2570.656          32.000  
  21517320.255      170885.661       -2079.233          44.000  
  20242960.554       28485.354        -373.452          47.000  
 16 10 14 20 50 32.8000000  0 11G18G29G20G 4G21G24G 5G10G27G13G15
  22078606.910     -152296.304        1817.990          47.000  
  22847337.356      282747.919       -3410.140          44.000  
  20311320.909       73799.234        -904.583          46.000  
  23263387.890      252603.045       -3056.949          41.000  
  21310674.061     -120150.565        1424.342          45.000  
  23932188.705     -273638.887        3303.125          42.000  
  24095459.521      241744.482       -2937.378          41.000  
  24784723.350     -219323.385        2846.864          36.000  
  24874190.861     -147273.6032       2568.491          32.000  
  21517399.514      171301.367       -2078.935          44.000  
  20242974.828       28559.944        -372.920          47.000  
 16 10 14 20 50 33.0000000  0 11G18G29G20G 4G21G24G 5G10G27G13G15
  22078537.842     -152659.911        1817.824          47.000  
  22847466.889      283429.908       -3410.319          44.000  
  20311355.478       73980.135        -904.895          46.000  
  23263504.510      253214.371       -3057.293          41.000  
  21310619.966     -120435.497        1424.421          45.000  
  23932062.801     -274299.425        3302.565          42.000  
  24095571.237      242331.931       -2937.393          41.000  
  24784615.124     -219892.678        2846.526          36.000  
  24874092.878     -147787.4422       2569.079          32.000  
  21517478.546      171717.043       -2078.453          44.000  
  20242988.684       28634.509        -372.841          47.000  
 16 10 14 20 50 33.2000000  0 11G18G29G20G 4G21G24G 5G10G27G13G15
  22078468.635     -153023.480        1817.588          47.000  
  22847596.893      284111.920       -3410.312          44.000  
  20311389.960       74161.073        -904.848          45.000  
  23263620.868      253825.756       -3056.998          41.000  
  21310565.852     -120720.380        1424.039          45.000  
  23931937.090     -274959.935        3302.693          42.000  
  24095683.006      242919.371       -2937.053          41.000  
  24784506.566     -220462.001        2845.998          36.000  
  24873994.947     -148301.3102       2569.359          32.000  
  21517557.596      172132.758       -2079.051          44.000  
  20243002.783       28709.115        -372.869          47.000  
 16 10 14 20 50 33.4000000  0 11G18G29G20G 4G21G24G 5G10G27G13G15
  22078399.287     -153387.063        1818.339          47.000  
  22847726.740      284793.935       -3409.622          44.000  
  20311424.127       74342.013        -904.436          46.000  
  23263737.278      254437.130       -3056.761          41.000  
  21310511.652     -121005.260        1424.621          45.000  
  23931811.291     -275620.450        3302.909          42.000  
  24095794.983      243506.807       -2937.077          41.000  
  24784398.619     -221031.287        2846.856          36.000  
  24873897.208     -148815.1052       2568.443          32.000  
  21517636.871      172548.485       -2078.820          44.000  
  20243017.005       28783.726        -372.934          47.000  
 16 10 14 20 50 33.6000000  0 11G18G29G20G 4G21G24G 5G10G27G13G15
  22078330.236     -153750.637        1817.693          47.000  
  22847856.500      285475.939       -3410.186          44.000  
  20311458.696       74522.958        -904.413          46.000  
  23263853.636      255048.511       -3056.966          41.000  
  21310457.294     -121290.127        1424.310          45.000  
  23931685.527     -276280.954        3302.766          42.000  
  24095906.926      244094.246       -2937.773          41.000  
  24784290.358     -221600.649        2847.734          36.000  
  24873799.417     -149328.9192       2569.555          32.000  
  21517715.799      172964.239       -2078.887          44.000  
  20243031.070       28858.370        -373.289          47.000  
 16 10 14 20 50 33.8000000  0 11G18G29G20G 4G21G24G 5G10G27G13G15
  22078260.942     -154114.223        1818.233          47.000  
  22847986.277      286157.981       -3409.871          44.000  
  20311493.265       74703.919        -904.474          46.000  
  23263970.029      255659.875       -3056.979          41.000  
  21310403.024     -121574.994        1424.290          45.000  
  23931559.851     -276941.483        3302.745          42.000  
  24096018.468      244681.686       -2936.698          41.000  
  24784182.236     -222169.961        2847.391          36.000  
  24873701.591     -149842.7342       2569.809          32.000  
  21517794.901      173379.994       -2078.728          44.000  
  20243045.344       28933.025        -373.224          47.000  
 16 10 14 20 50 34.0000000  0 11G18G29G20G 4G21G24G 5G10G27G13G15
  22078191.664     -154477.837        1818.010          47.000  
  22848115.949      286839.973       -3409.822          44.000  
  20311527.502       74884.836        -904.492          46.000  
  23264086.352      256271.240       -3056.613          41.000  
  21310348.859     -121859.881        1424.375          45.000  
  23931434.017     -277602.036        3302.454          42.000  
  24096130.167      245269.083       -2937.062          41.000  
  24784074.219     -222739.334        2846.049          36.000  
  24873603.608     -150356.5952       2567.938          32.000  
  21517874.072      173795.730       -2078.959          44.000  
  20243059.514       29007.660        -372.968          47.000  
 16 10 14 20 50 34.2000000  0 11G18G29G20G 4G21G24G 5G10G27G13G15
  22078122.614     -154841.422        1817.904          47.000  
  22848245.831      287521.989       -3410.156          44.000  
  20311562.141       75065.802        -905.198          46.000  
  23264202.396      256882.634       -3056.573          41.000  
  21310294.606     -122144.748        1424.003          45.000  
  23931308.358     -278262.569        3302.165          42.000  
  24096241.814      245856.475       -2937.590          41.000  
  24783966.028     -223308.668        2846.036          36.000  
  24873505.870     -150870.3322       2567.614          32.000  
  21517953.453      174211.502       -2079.058          44.000  
  20243074.137       29082.348        -373.238          47.000  
 16 10 14 20 50 34.4000000  0 11G18G29G20G 4G21G24G 5G10G27G13G15
  22078053.510     -155204.998        1818.146          47.000  
  22848375.556      288204.025       -3410.144          44.000  
  20311596.535       75246.775        -904.944          46.000  
  23264318.632      257493.995       -3057.079          41.000  
  21310240.370     -122429.580        1424.369          45.000  
  23931182.821     -278923.069        3303.132          42.000  
  24096353.634      246443.906       -2937.186          41.000  
  24783857.365     -223878.006        2845.910          36.000  
  24873407.817     -151384.1362       2567.057          32.000  
  21518032.485      174627.310       -2078.816          44.000  
  20243088.184       29157.050        -373.926          47.000  
 16 10 14 20 50 34.6000000  0 11G18G29G20G 4G21G24G 5G10G27G13G15
  22077984.565     -155568.561        1818.244          47.000  
  22848505.316      288886.077       -3409.674          44.000  
  20311630.981       75427.765        -904.597          46.000  
  23264434.728      258105.426       -3056.313          41.000  
  21310186.309     -122714.399        1424.380          45.000  
  23931056.935     -279583.598        3303.000          42.000  
  24096465.699      247031.346       -2937.251          41.000  
  24783748.772     -224447.335        2846.028          36.000  
  24873310.008     -151897.8812       2568.167          32.000  
  21518111.831      175043.137       -2078.429          44.000  
  20243102.039       29231.799        -373.554          47.000  
 16 10 14 20 50 34.8000000  0 11G18G29G20G 4G21G24G 5G10G27G13G15
  22077915.427     -155932.108        1818.022          47.000  
  22848635.041      289568.123       -3410.578          43.000  
  20311665.393       75608.782        -905.037          46.000  
  23264551.156      258716.849       -3057.350          41.000  
  21310132.161     -122999.191        1423.883          45.000  
  23930931.241     -280244.113        3302.280          42.000  
  24096577.503      247618.777       -2937.160          41.000  
  24783640.476     -225016.628        2845.409          36.000  
  24873212.252     -152411.5992       2569.831          32.000  
  21518190.793      175458.976       -2079.284          44.000  
  20243116.418       29306.563        -373.973          47.000  
 16 10 14 20 50 35.0000000  0 11G18G29G20G 4G21G24G 5G10G27G13G15
  22077846.464     -156295.672        1817.935          47.000  
  22848764.713      290250.188       -3410.558          43.000  
  20311699.770       75789.790        -904.707          46.000  
  23264667.409      259328.276       -3057.460          41.000  
  21310078.048     -123283.991        1423.955          45.000  
  23930805.722     -280904.637        3302.361          42.000  
  24096689.272      248206.193       -2936.870          41.000  
  24783532.320     -225585.915        2846.263          36.000  
  24873114.356     -152925.2872       2569.415          32.000  
  21518269.738      175874.836       -2079.426          44.000  
  20243130.780       29381.357        -374.053          47.000  
 16 10 14 20 50 35.2000000  0 11G18G29G20G 4G21G24G 5G10G27G13G15
  22077777.047     -156659.226        1817.785          47.000  
  22848894.386      290932.266       -3410.483          43.000  
  20311734.252       75970.821        -905.139          46.000  
  23264783.733      259939.728       -3056.797          41.000  
  21310023.970     -123568.754        1424.116          45.000  
  23930679.993     -281565.127        3302.702          42.000  
  24096801.110      248793.642       -2936.956          41.000  
  24783424.128     -226155.263        2848.030          36.000  
  24873016.618     -153439.0012       2569.035          32.000  
  21518348.770      176290.723       -2079.894          44.000  
  20243144.880       29456.168        -374.553          47.000  
 16 10 14 20 50 35.4000000  0 11G18G29G20G 4G21G24G 5G10G27G13G15
  22077708.118     -157022.716        1817.870          47.000  
  22849024.215      291614.391       -3410.303          44.000  
  20311769.030       76151.926        -905.826          46.000  
  23264899.916      260551.242       -3057.934          41.000  
  21309969.612     -123853.460        1423.660          45.000  
  23930554.351     -282225.580        3302.165          42.000  
  24096912.878      249381.119       -2937.426          41.000  
  24783315.692     -226724.539        2846.600          36.000  
  24872918.826     -153952.6192       2571.622          32.000  
  21518428.133      176706.688       -2079.999          44.000  
  20243159.223       29531.075        -374.527          47.000  
 16 10 14 20 50 35.6000000  0 11G18G29G20G 4G21G24G 5G10G27G13G15
  22077639.120     -157386.187        1817.382          47.000  
  22849153.748      292296.541       -3410.434          44.000  
  20311803.529       76333.049        -905.427          46.000  
  23265016.256      261162.786       -3057.939          41.000  
  21309915.464     -124138.163        1423.158          45.000  
  23930428.587     -282886.004        3302.386          42.000  
  24097024.752      249968.617       -2937.052          41.000  
  24783207.484     -227293.770        2847.383          36.000  
  24872820.895     -154466.2412       2567.559          32.000  
  21518507.148      177122.675       -2079.746          44.000  
  20243173.288       29605.997        -374.960          47.000  
 16 10 14 20 50 35.8000000  0 11G18G29G20G 4G21G24G 5G10G27G13G15
  22077569.807     -157749.701        1817.398          47.000  
  22849283.700      292978.661       -3410.576          44.000  
  20311837.818       76514.141        -905.085          46.000  
  23265132.806      261774.271       -3056.714          41.000  
  21309861.438     -124422.867        1423.626          45.000  
  23930303.173     -283546.475        3302.327          42.000  
  24097136.834      250556.081       -2937.209          41.000  
  24783098.873     -227863.041        2847.265          36.000  
  24872723.244     -154979.8782       2568.617          32.000  
  21518586.337      177538.636       -2079.586          44.000  
  20243187.877       29680.912        -374.715          47.000  
