     2.10           OBSERVATION DATA    G (GPS)             RINEX VERSION / TYPE
RTKCONV 2.4.2                           20160928 172545 UTC PGM / RUN BY / DATE 
log: C:\Users\macshen\Desktop\exp_924\multipath effect\hp_  COMMENT             
format: u-blox                                              COMMENT             
                                                            MARKER NAME         
                                                            MARKER NUMBER       
                                                            OBSERVER / AGENCY   
                                                            REC # / TYPE / VERS 
                                                            ANT # / TYPE        
   518036.9818 -4696385.1740  4270451.5989                  APPROX POSITION XYZ 
        0.0000        0.0000        0.0000                  ANTENNA: DELTA H/E/N
     1     1                                                WAVELENGTH FACT L1/2
     4    C1    L1    D1    S1                              # / TYPES OF OBSERV 
  2016     9    24    21    39   21.2000000     GPS         TIME OF FIRST OBS   
  2016     9    24    21    54   44.9990000     GPS         TIME OF LAST OBS    
                                                            END OF HEADER       
 16  9 24 21 39 21.2000000  0 10G30G 4G 5G 2G20G24G13G29G15G21
  24898400.651       57525.156        -476.124          39.000  
  22049046.943     1661506.787       -1874.591          48.000  
  22816699.472     2370823.170       -2368.390          43.000  
  24721501.966      116393.504       -2891.150          34.000  
  19952806.626     -409663.462         246.357          47.000  
  25021637.928     -885789.8172       3688.158          29.000  
  20804432.011      204335.154        -510.334          50.000  
  21561142.764     1272755.1212      -2348.280          31.000  
  20200854.875    -1702230.232        1323.764          51.000  
  21747839.328    -2562092.537        2380.057          49.000  
 16  9 24 21 39 21.4000000  0 10G30G 4G 5G 2G20G24G13G29G15G21
  24898418.416       57620.364        -476.084          39.000  
  22049118.490     1661881.700       -1874.624          48.000  
  22816789.690     2371296.767       -2368.250          43.000  
  24721611.659      116971.732       -2890.775          34.000  
  19952797.378     -409712.715         246.220          47.000  
  25021502.620     -886527.5162       3686.746          29.000  
  20804451.486      204437.221        -510.625          50.000  
  21561232.180     1273224.8882      -2347.772          31.000  
  20200804.445    -1702494.931        1323.304          51.000  
  21747748.727    -2562568.576        2380.403          49.000  
 16  9 24 21 39 21.6000000  0 10G30G 4G 5G 2G20G24G13G29G15G21
  24898436.251       57715.596        -476.188          39.000  
  22049189.791     1662256.628       -1874.701          47.000  
  22816879.768     2371770.351       -2367.928          43.000  
  24721721.735      117549.924       -2891.067          34.000  
  19952787.990     -409761.979         245.849          47.000  
  25021357.085     -887265.1862       3687.069          28.000  
  20804470.716      204539.308        -510.828          50.000  
  21561321.281     1273694.6262      -2349.463          31.000  
  20200754.014    -1702759.600        1323.184          51.000  
  21747658.196    -2563044.621        2379.858          49.000  
 16  9 24 21 39 21.8000000  0 10G30G 4G 5G 2G20G24G13G29G15G21
  24898454.015       57810.877        -476.346          39.000  
  22049261.233     1662631.588       -1874.987          47.000  
  22816969.916     2372243.947       -2368.333          43.000  
  24721831.636      118128.173       -2891.583          34.000  
  19952778.776     -409811.202         245.880          47.000  
  25021215.459     -888002.8882       3688.020          29.000  
  20804490.016      204641.442        -510.661          50.000  
  21561410.661     1274164.4452      -2350.825          31.000  
  20200703.652    -1703024.234        1323.098          51.000  
  21747567.524    -2563520.633        2379.961          49.000  
 16  9 24 21 39 22.0000000  0 10G30G 4G 5G 2G20G24G13G29G15G21
  24898471.780       57906.164        -476.297          39.000  
  22049332.570     1663006.557       -1874.607          48.000  
  22817060.169     2372717.538       -2368.474          43.000  
  24721941.678      118706.406       -2891.026          34.000  
  19952769.424     -409860.421         246.177          48.000  
  25021075.579     -888740.5892       3690.008          29.000  
  20804509.491      204743.581        -510.882          50.000  
  21561500.007     1274634.2192      -2348.894          31.000  
  20200653.327    -1703288.859        1323.054          51.000  
  21747477.028    -2563996.640        2380.031          49.000  
 16  9 24 21 39 22.2000000  0 10G30G 4G 5G 2G20G24G13G29G15G21
  24898489.335       58001.463        -476.585          39.000  
  22049403.802     1663381.539       -1875.066          48.000  
  22817150.527     2373191.147       -2367.802          43.000  
  24722051.684      119284.645       -2891.711          34.000  
  19952759.931     -409909.627         246.153          48.000  
  25020939.712     -889478.3612       3688.428          29.000  
  20804528.931      204845.748        -510.722          50.000  
  21561589.352     1275104.0132      -2350.027          31.000  
  20200603.175    -1703553.456        1322.914          51.000  
  21747386.392    -2564472.651        2379.953          49.000  
 16  9 24 21 39 22.4000000  0 10G30G 4G 5G 2G20G24G13G29G15G21
  24898507.100       58096.774        -476.815          39.000  
  22049475.279     1663756.532       -1875.196          48.000  
  22817240.815     2373664.742       -2367.818          43.000  
  24722161.831      119862.892       -2891.724          34.000  
  19952750.578     -409958.833         245.834          48.000  
  25020796.446     -890216.0412       3688.461          29.000  
  20804548.476      204947.935        -510.930          50.000  
  21561678.837     1275573.8612      -2349.271          31.000  
  20200552.779    -1703818.033        1322.455          51.000  
  21747295.547    -2564948.656        2379.651          49.000  
 16  9 24 21 39 22.6000000  0 10G30G 4G 5G 2G20G24G13G29G15G21
  24898524.830       58192.091        -476.717          39.000  
  22049546.720     1664131.538       -1875.049          48.000  
  22817331.067     2374138.339       -2367.662          44.000  
  24722271.593      120441.133       -2890.154          35.000  
  19952741.400     -410008.025         245.981          48.000  
  25020655.064     -890953.8602       3688.667          29.000  
  20804567.915      205050.131        -511.109          50.000  
  21561768.078     1276043.7062      -2348.922          31.000  
  20200502.383    -1704082.593        1323.177          51.000  
  21747205.015    -2565424.660        2380.200          49.000  
 16  9 24 21 39 22.8000000  0 10G30G 4G 5G 2G20G24G13G29G15G21
  24898542.280       58287.457        -476.570          39.000  
  22049617.987     1664506.566       -1875.059          48.000  
  22817421.111     2374611.936       -2367.529          44.000  
  24722381.634      121019.357       -2891.339          34.000  
  19952732.011     -410057.197         245.990          48.000  
  25020517.103     -891691.5563       3687.080          28.000  
  20804587.634      205152.375        -511.048          50.000  
  21561857.213     1276513.5132      -2350.188          31.000  
  20200452.057    -1704347.117        1322.873          51.000  
  21747114.169    -2565900.641        2379.829          49.000  
 16  9 24 21 39 23.0000000  0 10G30G 4G 5G 2G20G24G13G29G15G21
  24898559.975       58382.833        -476.798          39.000  
  22049689.359     1664881.603       -1875.181          48.000  
  22817511.294     2375085.515       -2367.352          44.000  
  24722491.606      121597.626       -2889.979          34.000  
  19952722.589     -410106.377         246.155          48.000  
  25020377.223     -892429.3022       3691.716          28.000  
  20804607.109      205254.619        -510.896          50.000  
  21561946.629     1276983.3782      -2349.060          31.000  
  20200401.766    -1704611.631        1322.647          51.000  
  21747023.638    -2566376.633        2380.249          49.000  
 16  9 24 21 39 23.2000000  0 10G30G 4G 5G 2G20G24G13G29G15G21
  24898577.844       58478.210        -477.675          39.000  
  22049760.695     1665256.636       -1875.224          48.000  
  22817601.512     2375559.088       -2367.914          44.000  
  24722601.647      122175.842       -2889.912          34.000  
  19952713.306     -410155.552         245.803          48.000  
  25020236.749     -893167.0683       3688.952          28.000  
  20804626.444      205356.877        -511.401          50.000  
  21562036.044     1277453.2322      -2350.317          31.000  
  20200351.300    -1704876.133        1322.583          51.000  
  21746932.932    -2566852.630        2380.052          49.000  
 16  9 24 21 39 23.4000000  0 10G30G 4G 5G 2G20G24G13G29G15G21
  24898595.434       58573.613        -476.849          39.000  
  22049832.102     1665631.712       -1875.200          48.000  
  22817691.869     2376032.687       -2367.608          44.000  
  24722711.618      122754.080       -2891.489          34.000  
  19952704.127     -410204.695         245.829          48.000  
  25020094.774     -893904.8872       3686.874          28.000  
  20804645.884      205459.168        -511.266          50.000  
  21562125.424     1277923.1332      -2348.458          31.000  
  20200300.904    -1705140.600        1322.418          51.000  
  21746842.400    -2567328.605        2379.775          49.000  
 16  9 24 21 39 23.6000000  0 10G30G 4G 5G 2G20G24G13G29G15G21
  24898613.025       58669.010        -477.605          39.000  
  22049903.579     1666006.762       -1875.704          47.000  
  22817782.157     2376506.247       -2368.671          44.000  
  24722821.555      123332.323       -2890.566          34.000  
  19952694.879     -410253.864         245.539          48.000  
  25019955.278     -894642.6203       3691.361          28.000  
  20804665.568      205561.465        -511.807          50.000  
  21562214.805     1278392.9972      -2349.039          32.000  
  20200250.543    -1705405.076        1321.865          51.000  
  21746751.800    -2567804.598        2379.854          49.000  
 16  9 24 21 39 23.8000000  0 10G30G 4G 5G 2G20G24G13G29G15G21
  24898630.405       58764.474        -477.140          39.000  
  22049974.636     1666381.868       -1875.517          47.000  
  22817872.549     2376979.868       -2368.048          44.000  
  24722931.562      123910.555       -2891.174          34.000  
  19952685.526     -410302.978         245.765          48.000  
  25019816.583     -895380.4663       3688.239          28.000  
  20804685.008      205663.809        -511.767          50.000  
  21562304.010     1278862.9192      -2349.211          32.000  
  20200200.322    -1705669.488        1321.996          51.000  
  21746661.303    -2568280.561        2379.840          49.000  
 16  9 24 21 39 24.0000000  0 10G30G 4G 5G 2G20G24G13G29G15G21
  24898648.031       58859.956        -477.412          38.000  
  22050045.868     1666756.999       -1875.722          47.000  
  22817962.977     2377453.472       -2368.322          44.000  
  24723041.464      124488.837       -2891.789          34.000  
  19952676.278     -410352.087         245.632          48.000  
  25019678.727     -896118.2442       3688.172          28.000  
  20804704.693      205766.191        -511.909          50.000  
  21562393.356     1279332.8422      -2351.876          32.000  
  20200150.066    -1705933.869        1321.937          51.000  
  21746570.807    -2568756.498        2380.196          49.000  
 16  9 24 21 39 24.2000000  0 10G30G 4G 5G 2G20G24G13G29G15G21
  24898665.481       58955.453        -477.469          38.000  
  22050117.240     1667132.146       -1875.470          47.000  
  22818053.195     2377927.087       -2368.195          44.000  
  24723151.400      125067.115       -2891.558          34.000  
  19952666.994     -410401.173         245.460          48.000  
  25019536.438     -896855.9392       3687.744          28.000  
  20804723.993      205868.597        -511.702          50.000  
  21562483.085     1279802.8172      -2349.548          32.000  
  20200099.670    -1706198.218        1322.061          51.000  
  21746480.066    -2569232.433        2379.298          49.000  
 16  9 24 21 39 24.4000000  0 10G30G 4G 5G 2G20G24G13G29G15G21
  24898683.140       59050.947        -477.542          39.000  
  22050188.507     1667507.272       -1875.532          47.000  
  22818143.343     2378400.678       -2367.626          44.000  
  24723261.337      125645.361       -2891.291          34.000  
  19952657.990     -410450.278         245.402          48.000  
  25019395.894     -897593.8613       3691.364          28.000  
  20804743.362      205970.983        -511.771          50.000  
  21562572.500     1280272.7552      -2350.744          32.000  
  20200049.308    -1706462.604        1321.918          51.000  
  21746389.290    -2569708.401        2379.960          49.000  
 16  9 24 21 39 24.6000000  0 10G30G 4G 5G 2G20G24G13G29G15G21
  24898700.731       59146.474        -476.781          39.000  
  22050259.983     1667882.403       -1875.851          47.000  
  22818233.456     2378874.243       -2368.002          44.000  
  24723371.274      126223.606       -2890.355          34.000  
  19952648.498     -410499.396         245.405          48.000  
  25019253.990     -898331.6033       3695.012          28.000  
  20804763.082      206073.385        -512.160          50.000  
  21562662.091     1280742.7072      -2349.401          32.000  
  20199999.122    -1706726.952        1321.777          51.000  
  21746298.864    -2570184.360        2379.763          49.000  
 16  9 24 21 39 24.8000000  0 10G30G 4G 5G 2G20G24G13G29G15G21
  24898718.495       59241.939        -477.409          39.000  
  22050331.285     1668257.531       -1875.825          48.000  
  22818323.779     2379347.789       -2368.020          44.000  
  24723481.420      126801.807       -2891.339          34.000  
  19952639.110     -410548.514         245.468          48.000  
  25019114.283     -899069.5152       3687.202          28.000  
  20804782.556      206175.776        -511.960          50.000  
  21562751.505     1281212.6552      -2348.829          32.000  
  20199948.866    -1706991.320        1321.602          51.000  
  21746207.983    -2570660.344        2379.550          49.000  
 16  9 24 21 39 25.0000000  0 10G30G 4G 5G 2G20G24G13G29G15G21
  24898736.051       59337.461        -478.027          39.000  
  22050402.797     1668632.664       -1875.787          48.000  
  22818413.893     2379821.333       -2367.596          44.000  
  24723591.322      127380.010       -2891.016          34.000  
  19952629.757     -410597.628         245.275          48.000  
  25018974.334     -899807.3153       3688.623          28.000  
  20804802.101      206278.192        -512.280          50.000  
  21562840.886     1281682.5572      -2350.245          32.000  
  20199898.645    -1707255.659        1321.980          51.000  
  21746117.487    -2571136.319        2379.906          49.000  
 16  9 24 21 39 25.2000000  0 10G30G 4G 5G 2G20G24G13G29G15G21
  24898753.536       59433.006        -477.817          38.000  
  22050474.273     1669007.821       -1875.660          48.000  
  22818504.040     2380294.885       -2367.489          44.000  
  24723701.503      127958.241       -2891.225          34.000  
  19952620.439     -410646.724         245.350          48.000  
  25018834.453     -900545.1883       3689.609          28.000  
  20804821.332      206380.641        -512.288          50.000  
  21562930.406     1282152.5342      -2350.075          32.000  
  20199848.423    -1707519.985        1321.568          51.000  
  21746026.920    -2571612.288        2379.890          49.000  
 16  9 24 21 39 25.4000000  0 10G30G 4G 5G 2G20G24G13G29G15G21
  24898771.196       59528.561        -477.771          38.000  
  22050545.470     1669382.990       -1875.999          48.000  
  22818594.363     2380768.434       -2367.920          44.000  
  24723811.404      128536.483       -2889.867          34.000  
  19952611.016     -410695.808         245.466          48.000  
  25018693.594     -901283.1183       3689.808          28.000  
  20804840.841      206483.113        -512.337          50.000  
  21563019.856     1282622.4922      -2350.001          32.000  
  20199798.097    -1707784.274        1321.136          51.000  
  21745936.214    -2572088.257        2379.643          49.000  
 16  9 24 21 39 25.6000000  0 10G30G 4G 5G 2G20G24G13G29G15G21
  24898788.926       59624.147        -477.899          38.000  
  22050617.017     1669758.182       -1875.862          48.000  
  22818684.721     2381242.004       -2367.833          44.000  
  24723921.376      129114.694       -2891.242          34.000  
  19952601.628     -410744.879         245.283          48.000  
  25018553.086     -902020.9923       3689.033          28.000  
  20804860.630      206585.619        -512.413          50.000  
  21563109.167     1283092.4912      -2349.879          32.000  
  20199747.631    -1708048.537        1320.994          51.000  
  21745845.893    -2572564.197        2380.100          49.000  
 16  9 24 21 39 25.8000000  0 10G30G 4G 5G 2G20G24G13G29G15G21
  24898806.516       59719.697        -478.033          38.000  
  22050688.283     1670133.365       -1875.814          48.000  
  22818775.148     2381715.523       -2367.784          44.000  
  24724031.313      129692.884       -2890.276          34.000  
  19952592.170     -410793.959         245.393          48.000  
  25018413.275     -902758.9053       3691.031          28.000  
  20804880.175      206688.111        -512.083          50.000  
  21563198.791     1283562.4782      -2352.225          32.000  
  20199697.165    -1708312.806        1321.459          51.000  
  21745755.082    -2573040.171        2380.089          49.000  
 16  9 24 21 39 26.0000000  0 10G30G 4G 5G 2G20G24G13G29G15G21
  24898824.176       59815.291        -478.245          38.000  
  22050759.900     1670508.536       -1876.457          48.000  
  22818865.122     2382189.041       -2367.972          45.000  
  24724141.250      130271.100       -2890.117          34.000  
  19952582.853     -410843.062         245.036          48.000  
  25018273.255     -903496.8963       3690.058          28.000  
  20804899.650      206790.612        -512.710          50.000  
  21563288.486     1284032.4792      -2349.916          32.000  
  20199646.944    -1708577.063        1321.194          51.000  
  21745664.516    -2573516.163        2379.284          49.000  
 16  9 24 21 39 26.2000000  0 10G30G 4G 5G 2G20G24G13G29G15G21
  24898841.731       59910.943        -478.146          38.000  
  22050831.236     1670883.784       -1876.027          48.000  
  22818955.235     2382662.608       -2367.744          45.000  
  24724251.256      130849.339       -2890.172          33.000  
  19952573.639     -410892.087         245.191          48.000  
  25018133.374     -904234.8593       3688.586          27.000  
  20804919.194      206893.180        -513.038          50.000  
  21563377.971     1284502.5122      -2350.041          32.000  
  20199596.478    -1708841.249        1320.957          51.000  
  21745573.844    -2573992.085        2379.702          49.000  
 16  9 24 21 39 26.4000000  0 10G30G 4G 5G 2G20G24G13G29G15G21
  24898859.531       60006.565        -477.841          38.000  
  22050902.782     1671259.019       -1875.930          48.000  
  22819045.348     2383136.146       -2367.301          45.000  
  24724361.332      131427.556       -2889.809          33.000  
  19952564.460     -410941.129         245.705          48.000  
  25017993.144     -904972.7753       3690.205          27.000  
  20804938.773      206995.748        -512.367          50.000  
  21563467.700     1284972.5772      -2350.098          32.000  
  20199546.117    -1709105.445        1321.294          51.000  
  21745483.103    -2574468.024        2380.041          49.000  
 16  9 24 21 39 26.6000000  0 10G30G 4G 5G 2G20G24G13G29G15G21
  24898876.982       60102.193        -478.260          38.000  
  22050974.120     1671634.221       -1876.124          48.000  
  22819135.636     2383609.650       -2367.986          45.000  
  24724471.409      132005.731       -2890.829          33.000  
  19952555.003     -410990.205         245.245          48.000  
  25017852.811     -905710.7373       3690.330          27.000  
  20804958.318      207098.302        -512.881          50.000  
  21563557.325     1285442.5522      -2350.080          32.000  
  20199495.896    -1709369.656        1320.726          51.000  
  21745392.538    -2574944.003        2380.052          49.000  
 16  9 24 21 39 26.8000000  0 10G30G 4G 5G 2G20G24G13G29G15G21
  24898894.921       60197.855        -478.621          38.000  
  22051045.631     1672009.488       -1876.134          48.000  
  22819225.993     2384083.188       -2367.842          45.000  
  24724581.450      132583.956       -2890.002          33.000  
  19952545.615     -411039.223         245.424          48.000  
  25017712.685     -906448.7493       3689.514          27.000  
  20804977.793      207200.913        -512.960          50.000  
  21563646.879     1285912.6472      -2350.468          32.000  
  20199445.674    -1709633.798        1320.954          51.000  
  21745301.901    -2575419.934        2379.722          49.000  
 16  9 24 21 39 27.0000000  0 10G30G 4G 5G 2G20G24G13G29G15G21
  24898912.790       60293.554        -478.307          38.000  
  22051117.177     1672384.752       -1876.276          48.000  
  22819316.247     2384556.721       -2367.637          45.000  
  24724691.457      133162.205       -2890.462          33.000  
  19952536.193     -411088.251         245.190          48.000  
  25017572.037     -907186.7523       3690.518          27.000  
  20804997.373      207303.538        -513.108          50.000  
  21563736.609     1286382.7402      -2349.668          33.000  
  20199395.663    -1709897.932        1320.493          51.000  
  21745211.440    -2575895.884        2379.394          49.000  
 16  9 24 21 39 27.2000000  0 10G30G 4G 5G 2G20G24G13G29G15G21
  24898930.659       60389.268        -478.692          38.000  
  22051188.653     1672760.052       -1876.734          48.000  
  22819406.360     2385030.272       -2367.703          45.000  
  24724801.498      133740.429       -2889.610          33.000  
  19952526.944     -411137.245         244.620          48.000  
  25017431.284     -907924.6853       3690.088          27.000  
  20805016.882      207406.202        -513.690          50.000  
  21563826.373     1286852.8462      -2349.950          33.000  
  20199345.406    -1710162.018        1320.412          51.000  
  21745120.838    -2576371.782        2379.468          49.000  
 16  9 24 21 39 27.4000000  0 10G30G 4G 5G 2G20G24G13G29G15G21
  24898948.424       60485.024        -478.403          38.000  
  22051260.025     1673135.376       -1876.639          48.000  
  22819496.787     2385503.833       -2367.467          45.000  
  24724911.469      134318.679       -2890.635          33.000  
  19952517.591     -411186.225         244.789          48.000  
  25017290.635     -908662.7263       3689.115          27.000  
  20805036.252      207508.903        -513.437          50.000  
  21563915.753     1287322.9302      -2349.320          33.000  
  20199295.150    -1710426.091        1320.198          51.000  
  21745030.237    -2576847.679        2379.715          49.000  
 16  9 24 21 39 27.6000000  0 10G30G 4G 5G 2G20G24G13G29G15G21
  24898966.328       60580.797        -478.471          38.000  
  22051331.432     1673510.733       -1877.038          48.000  
  22819587.145     2385977.416       -2368.099          45.000  
  24725021.651      134896.929       -2891.729          33.000  
  19952508.134     -411235.162         244.808          48.000  
  25017149.638     -909400.6733       3689.150          26.000  
  20805055.832      207611.643        -513.500          50.000  
  21564005.448     1287793.0642      -2350.961          33.000  
  20199244.719    -1710690.109        1320.234          51.000  
  21744939.811    -2577323.552        2379.447          49.000  
 16  9 24 21 39 27.8000000  0 10G30G 4G 5G 2G20G24G13G29G15G21
  24898984.058       60676.613        -478.735          38.000  
  22051403.082     1673886.109       -1876.779          48.000  
  22819677.432     2386450.992       -2367.818          45.000  
  24725131.866      135475.234       -2889.723          32.000  
  19952498.641     -411284.100         244.514          48.000  
  25017009.478     -910138.6763       3689.224          26.000  
  20805075.551      207714.402        -513.737          50.000  
  21564094.863     1288263.2412      -2350.346          33.000  
  20199194.672    -1710954.109        1319.871          51.000  
  21744849.070    -2577799.417        2379.557          49.000  
 16  9 24 21 39 28.0000000  0 10G30G 4G 5G 2G20G24G13G29G15G21
  24899001.857       60772.442        -478.991          38.000  
  22051474.454     1674261.499       -1876.585          48.000  
  22819767.545     2386924.568       -2367.581          45.000  
  24725241.977      136053.456       -2891.155          32.000  
  19952489.322     -411333.017         244.793          48.000  
  25016868.271     -910876.6343       3691.478          26.000  
  20805094.990      207817.194        -513.946          50.000  
  21564184.487     1288733.4102      -2350.816          33.000  
  20199144.381    -1711218.082        1320.107          51.000  
  21744758.538    -2578275.290        2379.698          49.000  
 16  9 24 21 39 28.2000000  0 10G30G 4G 5G 2G20G24G13G29G15G21
  24899019.552       60868.254        -478.263          38.000  
  22051545.721     1674636.864       -1876.648          48.000  
  22819857.729     2387398.120       -2367.521          45.000  
  24725352.019      136631.728       -2891.858          32.000  
  19952479.935     -411381.971         244.716          48.000  
  25016726.890     -911614.5913       3690.359          26.000  
  20805114.814      207919.958        -513.864          50.000  
  21564274.182     1289203.5932      -2350.642          33.000  
  20199094.265    -1711482.063        1320.176          51.000  
  21744668.147    -2578751.175        2379.620          49.000  
 16  9 24 21 39 28.4000000  0 10G30G 4G 5G 2G20G24G13G29G15G21
  24899037.421       60964.075        -480.135          38.000  
  22051617.267     1675012.226       -1877.108          48.000  
  22819947.842     2387871.643       -2368.090          45.000  
  24725462.025      137209.956       -2892.210          32.000  
  19952470.477     -411430.920         244.663          48.000  
  25016586.800     -912352.7443       3689.708          26.000  
  20805134.219      208022.731        -514.215          50.000  
  21564363.737     1289673.7562      -2350.331          33.000  
  20199044.113    -1711746.058        1319.574          51.000  
  21744577.440    -2579227.082        2379.175          49.000  
 16  9 24 21 39 28.6000000  0 10G30G 4G 5G 2G20G24G13G29G15G21
  24899055.117       61059.970        -479.378          38.000  
  22051688.674     1675387.664       -1877.156          48.000  
  22820038.200     2388345.221       -2367.559          45.000  
  24725571.997      137788.214       -2892.724          32.000  
  19952461.089     -411479.816         244.988          48.000  
  25016445.489     -913090.6723       3692.020          26.000  
  20805153.869      208125.575        -513.941          50.000  
  21564453.432     1290144.0192      -2349.913          33.000  
  20198993.892    -1712009.963        1319.974          51.000  
  21744486.875    -2579702.925        2379.535          49.000  
 16  9 24 21 39 28.8000000  0 10G30G 4G 5G 2G20G24G13G29G15G21
  24899072.776       61155.820        -480.388          38.000  
  22051760.081     1675763.072       -1877.724          48.000  
  22820128.592     2388818.773       -2368.149          45.000  
  24725682.073      138366.483       -2892.047          32.000  
  19952452.015     -411528.727         244.041          48.000  
  25016304.665     -913828.7623       3690.272          25.000  
  20805173.378      208228.415        -514.851          50.000  
  21564543.021     1290614.2182      -2351.972          33.000  
  20198943.740    -1712273.891        1318.977          51.000  
  21744396.203    -2580178.805        2378.937          49.000  
 16  9 24 21 39 29.0000000  0 10G30G 4G 5G 2G20G24G13G29G15G21
  24899090.436       61251.717        -479.194          37.000  
  22051831.487     1676138.521       -1877.082          48.000  
  22820219.089     2389292.333       -2367.589          45.000  
  24725792.149      138944.764       -2891.949          32.000  
  19952442.802     -411577.605         245.024          48.000  
  25016165.029     -914566.7783       3690.543          25.000  
  20805192.818      208331.298        -514.340          50.000  
  21564632.611     1291084.4272      -2351.366          33.000  
  20198893.518    -1712537.768        1319.746          51.000  
  21744305.741    -2580654.644        2379.306          49.000  
 16  9 24 21 39 29.2000000  0 10G30G 4G 5G 2G20G24G13G29G15G21
  24899108.271       61347.644        -480.389          37.000  
  22051903.138     1676513.975       -1877.631          48.000  
  22820309.342     2389765.904       -2367.769          46.000  
  24725901.912      139523.025       -2891.554          32.000  
  19952433.484     -411626.479         244.542          48.000  
  25016023.892     -915304.8263       3690.852          25.000  
  20805212.433      208434.200        -514.273          50.000  
  21564722.201     1291554.7202      -2352.020          33.000  
  20198843.192    -1712801.625        1319.584          51.000  
  21744215.106    -2581130.485        2379.185          49.000  
 16  9 24 21 39 29.4000000  0 10G30G 4G 5G 2G20G24G13G29G15G21
  24899126.000       61443.548        -478.823          37.000  
  22051974.719     1676889.395       -1876.577          48.000  
  22820399.560     2390239.412       -2367.267          46.000  
  24726011.848      140101.228       -2890.062          32.000  
  19952424.026     -411675.394         244.916          48.000  
  25015883.976     -916042.9623       3690.741          25.000  
  20805231.907      208537.064        -514.063          50.000  
  21564811.825     1292024.8562      -2350.729          33.000  
  20198793.006    -1713065.517        1319.744          51.000  
  21744124.574    -2581606.381        2379.941          49.000  
 16  9 24 21 39 29.6000000  0 10G30G 4G 5G 2G20G24G13G29G15G21
  24899143.801       61539.432        -478.012          37.000  
  22052046.091     1677264.807       -1877.357          48.000  
  22820489.848     2390712.894       -2367.678          46.000  
  24726121.960      140679.459       -2889.656          32.000  
  19952414.708     -411724.336         244.576          48.000  
  25015743.643     -916781.1073       3691.209          25.000  
  20805251.627      208639.927        -514.347          50.000  
  21564901.625     1292495.1012      -2352.098          33.000  
  20198742.820    -1713329.416        1319.496          51.000  
  21744034.287    -2582082.285        2379.655          49.000  
 16  9 24 21 39 29.8000000  0 10G30G 4G 5G 2G20G24G13G29G15G21
  24899161.844       61635.8193       -479.705          37.000  
  22052117.568     1677640.253       -1877.099          48.000  
  22820579.856     2391186.387       -2367.823          46.000  
  24726231.896      141257.621       -2891.842          32.000  
  19952405.355     -411773.253         244.083          48.000  
  25015603.029     -917519.2203       3689.943          24.000  
  20805271.241      208742.824        -514.693          50.000  
  21564991.075     1292965.3203      -2352.770          33.000  
  20198692.563    -1713593.283        1319.153          51.000  
  21743943.791    -2582558.181        2379.544          50.000  
 16  9 24 21 39 30.0000000  0 10G30G 4G 5G 2G20G24G13G29G15G21
  24899179.713       61731.8102       -479.826          37.000  
  22052189.218     1678015.740       -1877.106          48.000  
  22820670.213     2391659.940       -2367.237          46.000  
  24726341.937      141835.898       -2893.094          32.000  
  19952396.002     -411822.100         244.540          48.000  
  25015463.253     -918257.3583       3690.243          24.000  
  20805290.925      208845.798        -514.370          50.000  
  21565080.559     1293435.6322      -2352.257          33.000  
  20198642.341    -1713857.073        1319.259          51.000  
  21743853.398    -2583034.018        2379.903          50.000  
 16  9 24 21 39 30.2000000  0 10G30G 4G 5G 2G20G24G13G29G15G21
  24899197.478       61827.7882       -480.334          37.000  
  22052260.660     1678391.210       -1877.501          48.000  
  22820760.432     2392133.441       -2368.027          46.000  
  24726452.224      142414.143       -2890.481          32.000  
  19952386.789     -411870.979         244.262          48.000  
  25015323.547     -918995.4883       3691.942          24.000  
  20805310.504      208948.733        -515.179          50.000  
  21565170.324     1293905.8852      -2350.897          33.000  
  20198592.225    -1714120.883        1318.814          51.000  
  21743762.833    -2583509.901        2379.123          49.000  
 16  9 24 21 39 30.4000000  0 10G30G 4G 5G 2G20G24G13G29G15G21
  24899215.557       61923.7872       -480.042          37.000  
  22052332.311     1678766.713       -1877.551          48.000  
  22820850.754     2392606.964       -2367.495          46.000  
  24726562.335      142992.397       -2890.894          32.000  
  19952377.470     -411919.832         244.474          48.000  
  25015184.085     -919733.6603       3690.428          24.000  
  20805330.188      209051.721        -515.206          50.000  
  21565259.949     1294376.1762      -2351.936          33.000  
  20198541.934    -1714384.654        1318.850          51.000  
  21743672.475    -2583985.741        2379.242          49.000  
 16  9 24 21 39 30.6000000  0 10G30G 4G 5G 2G20G24G13G29G15G21
  24899233.252       62019.7692       -480.131          37.000  
  22052403.613     1679142.229       -1877.476          48.000  
  22820941.077     2393080.491       -2367.324          46.000  
  24726672.376      143570.641       -2891.557          32.000  
  19952368.188     -411968.674         244.568          48.000  
  25015044.309     -920471.8803       3690.179          23.000  
  20805349.629      209154.727        -515.027          50.000  
  21565349.783     1294846.4612      -2350.485          33.000  
  20198491.748    -1714648.407        1318.886          51.000  
  21743581.875    -2584461.589        2379.502          50.000  
 16  9 24 21 39 30.8000000  0 10G30G 4G 5G 2G20G24G13G29G15G21
  24899251.330       62115.7982       -480.539          37.000  
  22052475.194     1679517.753       -1877.762          48.000  
  22821031.295     2393553.997       -2367.738          46.000  
  24726782.452      144148.865       -2891.200          32.000  
  19952358.800     -412017.525         244.132          47.000  
  25014904.219     -921209.9653       3690.374          23.000  
  20805369.208      209257.753        -515.271          50.000  
  21565439.338     1295316.7752      -2350.493          33.000  
  20198441.421    -1714912.145        1318.220          50.000  
  21743491.238    -2584937.445        2379.120          49.000  
 16  9 24 21 39 31.0000000  0 10G30G 4G 5G 2G20G24G13G29G15G21
  24899269.374       62211.8032       -480.206          37.000  
  22052546.740     1679893.253       -1877.657          48.000  
  22821121.617     2394027.473       -2367.156          46.000  
  24726892.284      144727.085       -2889.994          32.000  
  19952349.167     -412066.395         244.209          47.000  
  25014764.094     -921948.2473       3690.185          23.000  
  20805388.752      209360.746        -515.210          50.000  
  21565529.136     1295787.0912      -2349.576          33.000  
  20198391.130    -1715175.898        1318.739          50.000  
  21743400.637    -2585413.323        2379.150          49.000  
 16  9 24 21 39 31.2000000  0 10G30G 4G 5G 2G20G24G13G29G15G21
  24899287.279       62307.8322       -481.264          37.000  
  22052618.077     1680268.796       -1877.656          48.000  
  22821211.766     2394500.963       -2368.221          46.000  
  24727002.082      145305.254       -2891.326          32.000  
  19952339.884     -412115.233         244.213          47.000  
  25014624.528     -922686.4983       3691.276          23.000  
  20805408.472      209463.800        -515.280          50.000  
  21565618.692     1296257.3862      -2350.979          33.000  
  20198340.699    -1715439.606        1318.460          50.000  
  21743310.246    -2585889.178        2379.070          50.000  
 16  9 24 21 39 31.4000000  0 10G30G 4G 5G 2G20G24G13G29G15G21
  24899305.287       62403.9092       -480.426          37.000  
  22052689.449     1680644.351       -1877.315          48.000  
  22821302.123     2394974.461       -2367.492          46.000  
  24727112.018      145883.478       -2891.443          32.000  
  19952330.531     -412164.071         244.038          47.000  
  25014484.507     -923424.6473       3689.294          23.000  
  20805427.981      209566.864        -515.307          50.000  
  21565708.246     1296727.6812      -2351.105          34.000  
  20198290.373    -1715703.307        1318.283          50.000  
  21743219.469    -2586365.028        2379.254          50.000  
 16  9 24 21 39 31.6000000  0 10G30G 4G 5G 2G20G24G13G29G15G21
  24899323.541       62499.9362       -479.675          37.000  
  22052760.960     1681019.854       -1877.239          48.000  
  22821392.341     2395447.894       -2367.279          46.000  
  24727222.060      146461.642       -2889.934          31.000  
  19952321.248     -412212.941         244.460          47.000  
  25014344.418     -924162.8593       3690.644          23.000  
  20805447.736      209669.904        -514.973          50.000  
  21565797.802     1297197.9642      -2351.377          34.000  
  20198240.292    -1715967.027        1318.434          50.000  
  21743128.939    -2586840.930        2379.575          50.000  
 16  9 24 21 39 31.8000000  0 10G30G 4G 5G 2G20G24G13G29G15G21
  24899341.550       62595.9992       -480.998          37.000  
  22052832.262     1681395.414       -1877.798          48.000  
  22821482.350     2395921.365       -2367.104          46.000  
  24727332.206      147039.853       -2892.036          31.000  
  19952311.965     -412261.768         244.131          47.000  
  25014204.851     -924901.1693       3690.772          23.000  
  20805467.384      209772.992        -515.468          50.000  
  21565887.531     1297668.3042      -2351.499          33.000  
  20198189.930    -1716230.689        1318.500          50.000  
  21743038.512    -2587316.788        2379.371          50.000  
 16  9 24 21 39 32.0000000  0 10G30G 4G 5G 2G20G24G13G29G15G21
  24899359.558       62692.0732       -480.282          37.000  
  22052903.633     1681770.957       -1878.074          48.000  
  22821572.637     2396394.817       -2367.239          46.000  
  24727442.212      147618.070       -2890.615          31.000  
  19952302.646     -412310.610         243.947          47.000  
  25014065.110     -925639.4233       3693.042          23.000  
  20805486.929      209876.089        -515.575          50.000  
  21565977.120     1298138.6192      -2351.487          33.000  
  20198139.674    -1716494.354        1318.164          50.000  
  21742947.701    -2587792.658        2379.133          50.000  
 16  9 24 21 39 32.2000000  0 10G30G 4G 5G 2G20G24G13G29G15G21
  24899377.777       62788.2002       -479.175          37.000  
  22052975.320     1682146.543       -1877.738          48.000  
  22821662.751     2396868.284       -2366.909          46.000  
  24727552.010      148196.249       -2893.374          31.000  
  19952293.399     -412359.428         243.796          47.000  
  25013925.229     -926377.6733       3692.057          23.000  
  20805506.683      209979.210        -515.827          50.000  
  21566066.850     1298608.9842      -2352.546          34.000  
  20198089.418    -1716757.983        1318.271          50.000  
  21742856.891    -2588268.522        2379.415          50.000  
 16  9 24 21 39 32.4000000  0 10G30G 4G 5G 2G20G24G13G29G15G21
  24899395.925       62884.3012       -480.912          36.000  
  22053046.621     1682522.122       -1878.566          48.000  
  22821752.724     2397341.736       -2367.325          46.000  
  24727661.946      148774.457       -2891.199          31.000  
  19952284.220     -412408.249         243.598          47.000  
  25013785.174     -927116.0193       3689.525          22.000  
  20805526.297      210082.360        -515.762          50.000  
  21566156.649     1299079.3332      -2352.057          34.000  
  20198039.231    -1717021.606        1317.838          50.000  
  21742766.254    -2588744.386        2379.044          49.000  
 16  9 24 21 39 32.6000000  0 10G30G 4G 5G 2G20G24G13G29G15G21
  24899414.004       62980.4462       -480.022          36.000  
  22053118.167     1682897.736       -1877.713          48.000  
  22821843.361     2397815.191       -2367.164          47.000  
  24727771.917      149352.629       -2891.918          31.000  
  19952274.692     -412457.045         243.860          47.000  
  25013645.363     -927854.2653       3688.204          22.000  
  20805545.841      210185.534        -515.656          50.000  
  21566246.203     1299549.7372      -2352.511          34.000  
  20197989.044    -1717285.197        1317.969          50.000  
  21742675.618    -2589220.225        2379.456          49.000  
 16  9 24 21 39 32.8000000  0 10G30G 4G 5G 2G20G24G13G29G15G21
  24899431.874       63076.5822       -481.376          36.000  
  22053189.539     1683273.363       -1878.282          48.000  
  22821933.614     2398288.655       -2367.555          47.000  
  24727881.785      149930.864       -2889.431          31.000  
  19952265.374     -412505.829         243.812          47.000  
  25013505.064     -928591.7703       3700.698          22.000  
  20805565.456      210288.722        -516.050          50.000  
  21566335.898     1300020.1562      -2352.935          34.000  
  20197938.928    -1717548.757        1317.664          50.000  
  21742584.947    -2589696.066        2378.999          49.000  
 16  9 24 21 39 33.0000000  0 10G30G 4G 5G 2G20G24G13G29G15G21
  24899450.336       63172.7512       -480.990          36.000  
  22053260.981     1683648.968       -1877.734          48.000  
  22822024.076     2398762.096       -2367.145          47.000  
  24727991.616      150509.039       -2891.761          31.000  
  19952256.231     -412554.634         244.032          47.000  
  25013364.555     -929331.7333       3693.328          22.000  
  20805585.105      210391.910        -515.820          50.000  
  21566425.557     1300490.4892      -2353.134          34.000  
  20197888.776    -1717812.325        1317.794          50.000  
  21742494.520    -2590171.929        2379.621          49.000  
 16  9 24 21 39 33.2000000  0 10G30G 4G 5G 2G20G24G13G29G15G21
  24899468.380       63268.8982       -480.688          36.000  
  22053332.527     1684024.563       -1878.286          48.000  
  22822114.364     2399235.510       -2367.298          47.000  
  24728101.658      151087.193       -2888.055          31.000  
  19952247.157     -412603.452         243.548          47.000  
  25013225.024     -930070.0523       3689.726          22.000  
  20805604.790      210495.093        -516.169          50.000  
  21566515.497     1300960.8762      -2352.344          34.000  
  20197838.590    -1718075.901        1317.865          50.000  
  21742404.164    -2590647.804        2379.392          49.000  
 16  9 24 21 39 33.4000000  0 10G30G 4G 5G 2G20G24G13G29G15G21
  24899486.668       63365.1212       -481.686          36.000  
  22053404.003     1684400.228       -1878.092          48.000  
  22822204.896     2399708.969       -2366.792          47.000  
  24728211.350      151665.386       -2892.312          31.000  
  19952237.769     -412652.204         243.846          47.000  
  25013085.178     -930807.7283       3687.436          22.000  
  20805624.509      210598.357        -516.078          50.000  
  21566604.912     1301431.3182      -2351.995          34.000  
  20197788.403    -1718339.396        1317.941          50.000  
  21742313.737    -2591123.630        2379.109          49.000  
 16  9 24 21 39 33.6000000  0 10G30G 4G 5G 2G20G24G13G29G15G21
  24899504.921       63461.3262       -480.803          36.000  
  22053475.375     1684775.874       -1878.881          48.000  
  22822295.114     2400182.392       -2367.602          47.000  
  24728321.461      152244.0623      -2891.450          31.000  
  19952228.486     -412700.982         243.648          47.000  
  25012944.738     -931546.4083       3696.182          21.000  
  20805644.053      210701.612        -516.330          50.000  
  21566694.466     1301901.7192      -2352.937          34.000  
  20197738.286    -1718602.913        1317.205          50.000  
  21742223.170    -2591599.476        2379.055          49.000  
 16  9 24 21 39 33.8000000  0 10G30G 4G 5G 2G20G24G13G29G15G21
  24899523.140       63557.5932       -480.295          36.000  
  22053546.817     1685151.569       -1878.548          48.000  
  22822385.367     2400655.847       -2367.407          47.000  
  24728431.398      152822.3022      -2890.510          32.000  
  19952219.377     -412749.719         243.822          47.000  
  25012805.451     -932285.3093       3692.744          22.000  
  20805663.633      210804.900        -516.441          50.000  
  21566784.161     1302372.1902      -2352.474          34.000  
  20197687.961    -1718866.374        1317.248          50.000  
  21742132.465    -2592075.302        2379.336          49.000  
 16  9 24 21 39 34.0000000  0 10G30G 4G 5G 2G20G24G13G29G15G21
  24899541.218       63653.7952       -481.677          36.000  
  22053618.188     1685527.212       -1878.165          48.000  
  22822475.480     2401129.256       -2367.083          47.000  
  24728541.370      153400.4532      -2889.830          32.000  
  19952209.884     -412798.502         243.973          47.000  
  25012666.094     -933023.6313       3690.829          21.000  
  20805683.422      210908.169        -516.317          50.000  
  21566873.611     1302842.6302      -2351.183          34.000  
  20197637.844    -1719129.861        1317.465          50.000  
  21742041.758    -2592551.169        2379.109          49.000  
 16  9 24 21 39 34.2000000  0 10G30G 4G 5G 2G20G24G13G29G15G21
  24899559.577       63750.0622       -480.898          35.000  
  22053689.456     1685902.896       -1878.612          48.000  
  22822565.629     2401602.675       -2367.345          47.000  
  24728651.412      153978.6202      -2891.322          32.000  
  19952200.602     -412847.267         243.694          47.000  
  25012526.179     -933762.3703       3695.069          21.000  
  20805702.897      211011.471        -516.648          50.000  
  21566963.341     1303313.0682      -2351.794          34.000  
  20197587.693    -1719393.323        1316.949          50.000  
  21741951.332    -2593027.014        2379.107          49.000  
 16  9 24 21 39 34.4000000  0 10G30G 4G 5G 2G20G24G13G29G15G21
  24899577.935       63846.3442       -481.916          35.000  
  22053760.897     1686278.597       -1878.530          48.000  
  22822655.951     2402076.108       -2367.143          47.000  
  24728761.383      154556.7902      -2891.331          32.000  
  19952191.109     -412896.002         243.500          47.000  
  25012386.333     -934500.9143       3690.181          21.000  
  20805722.755      211114.807        -516.665          50.000  
  21567052.791     1303783.5272      -2352.400          34.000  
  20197537.366    -1719656.741        1317.352          50.000  
  21741860.835    -2593502.837        2379.151          49.000  
 16  9 24 21 39 34.6000000  0 10G30G 4G 5G 2G20G24G13G29G15G21
  24899596.048       63942.6192       -480.219          35.000  
  22053832.513     1686654.292       -1878.528          48.000  
  22822745.959     2402549.512       -2367.018          47.000  
  24728871.389      155134.9762      -2890.598          32.000  
  19952181.825     -412944.754         243.829          47.000  
  25012246.976     -935238.9343       3690.084          21.000  
  20805742.404      211218.133        -516.687          50.000  
  21567142.240     1304254.0132      -2351.689          34.000  
  20197487.179    -1719920.183        1316.909          50.000  
  21741770.025    -2593978.690        2379.359          49.000  
 16  9 24 21 39 34.8000000  0 10G30G 4G 5G 2G20G24G13G29G15G21
  24899614.337       64038.8912       -481.348          35.000  
  22053904.094     1687029.993       -1878.649          48.000  
  22822836.108     2403022.910       -2367.008          47.000  
  24728981.501      155713.1122      -2890.447          31.000  
  19952172.508     -412993.510         243.520          47.000  
  25012107.026     -935976.5383       3684.665          21.000  
  20805762.228      211321.479        -516.875          50.000  
  21567231.935     1304724.4412      -2353.700          34.000  
  20197437.238    -1720183.593        1317.026          50.000  
  21741679.424    -2594454.549        2379.352          49.000  
 16  9 24 21 39 35.0000000  0 10G30G 4G 5G 2G20G24G13G29G15G21
  24899632.520       64135.2222       -480.480          35.000  
  22053975.605     1687405.734       -1878.704          48.000  
  22822926.360     2403496.325       -2367.150          47.000  
  24729091.472      156291.3132      -2891.641          31.000  
  19952163.259     -413042.214         243.497          47.000  
  25011966.900     -936713.4053       3683.985          21.000  
  20805781.947      211424.872        -516.864          50.000  
  21567321.490     1305194.9742      -2352.599          34.000  
  20197387.365    -1720446.959        1316.691          50.000  
  21741588.857    -2594930.370        2379.002          49.000  
 16  9 24 21 39 35.2000000  0 10G30G 4G 5G 2G20G24G13G29G15G21
  24899651.053       64231.5432       -481.607          36.000  
  22054047.082     1687781.470       -1878.444          48.000  
  22823016.683     2403969.734       -2367.408          47.000  
  24729201.270      156869.4642      -2891.340          31.000  
  19952153.907     -413090.932         243.727          47.000  
  25011827.020     -937451.6023       3691.924          21.000  
  20805801.702      211528.269        -516.900          50.000  
  21567410.941     1305665.4522      -2353.271          34.000  
  20197337.388    -1720710.315        1316.798          50.000  
  21741498.256    -2595406.196        2379.223          49.000  
 16  9 24 21 39 35.4000000  0 10G30G 4G 5G 2G20G24G13G29G15G21
  24899669.620       64327.8732       -480.846          36.000  
  22054118.663     1688157.189       -1878.550          48.000  
  22823107.006     2404443.120       -2366.757          48.000  
  24729311.101      157447.6382      -2891.250          31.000  
  19952144.623     -413139.674         243.230          47.000  
  25011686.825     -938190.0623       3676.931          21.000  
  20805821.141      211631.658        -516.733          50.000  
  21567500.635     1306135.9402      -2351.105          33.000  
  20197287.062    -1720973.686        1316.911          50.000  
  21741407.760    -2595882.056        2378.952          49.000  
 16  9 24 21 39 35.6000000  0 10G30G 4G 5G 2G20G24G13G29G15G21
  24899687.942       64424.1822       -481.936          36.000  
  22054190.069     1688532.921       -1878.915          48.000  
  22823197.084     2404916.491       -2367.067          48.000  
  24729421.003      158025.7272      -2890.645          31.000  
  19952135.409     -413188.411         243.576          47.000  
  25011547.363     -938926.6043       3689.025          21.000  
  20805840.825      211735.060        -517.050          50.000  
  21567590.399     1306606.4072      -2353.632          33.000  
  20197236.770    -1721237.039        1316.763          50.000  
  21741317.228    -2596357.905        2379.080          49.000  
 16  9 24 21 39 35.8000000  0 10G30G 4G 5G 2G20G24G13G29G15G21
  24899706.441       64520.5672       -482.197          36.000  
  22054261.686     1688908.700       -1878.955          48.000  
  22823287.198     2405389.913       -2366.945          48.000  
  24729531.010      158603.8622      -2892.162          31.000  
  19952126.162     -413237.086         243.850          47.000  
  25011406.820     -939666.0923       3697.472          21.000  
  20805860.440      211838.534        -517.257          50.000  
  21567679.954     1307076.9392      -2351.902          33.000  
  20197186.689    -1721500.329        1316.477          50.000  
  21741226.732    -2596833.712        2379.225          49.000  
 16  9 24 21 39 36.0000000  0 10G30G 4G 5G 2G20G24G13G29G15G21
  24899724.693       64616.9432       -481.802          36.000  
  22054333.267     1689284.460       -1878.718          48.000  
  22823377.450     2405863.274       -2366.913          48.000  
  24729641.051      159182.0792      -2892.318          31.000  
  19952116.808     -413285.810         244.019          47.000  
  25011267.113     -940405.4413       3687.918          21.000  
  20805879.914      211941.980        -517.052          50.000  
  21567769.683     1307547.4582      -2352.506          34.000  
  20197136.467    -1721763.646        1316.640          50.000  
  21741136.165    -2597309.567        2379.205          49.000  
 16  9 24 21 39 36.2000000  0 10G30G 4G 5G 2G20G24G13G29G15G21
  24899743.051       64712.814        -481.779          36.000  
  22054404.708     1689660.225       -1879.198          48.000  
  22823467.668     2406336.642       -2366.837          48.000  
  24729751.022      159760.1992      -2893.335          31.000  
  19952107.525     -413334.524         243.008          47.000  
  25011127.372     -941143.1763       3692.327          21.000  
  20805899.598      212045.439        -517.447          50.000  
  21567859.238     1308017.965       -2353.751          34.000  
  20197086.350    -1722026.931        1316.380          50.000  
  21741045.459    -2597785.412        2379.149          49.000  
 16  9 24 21 39 36.4000000  0 10G30G 4G 5G 2G20G24G13G29G15G21
  24899761.619       64809.234        -481.838          36.000  
  22054476.324     1690036.042       -1879.099          48.000  
  22823557.921     2406810.035       -2366.837          48.000  
  24729860.959      160338.3662      -2891.102          31.000  
  19952098.172     -413383.197         243.526          47.000  
  25010987.841     -941880.9153       3687.419          21.000  
  20805919.318      212148.947        -517.687          50.000  
  21567948.932     1308488.521       -2352.553          34.000  
  20197036.164    -1722290.183        1316.128          50.000  
  21740954.963    -2598261.233        2378.792          49.000  
 16  9 24 21 39 36.6000000  0 10G30G 4G 5G 2G20G24G13G29G15G21
  24899780.465       64905.670        -482.293          36.000  
  22054547.766     1690411.843       -1879.255          48.000  
  22823647.964     2407283.411       -2366.932          48.000  
  24729970.826      160916.4912      -2890.770          31.000  
  19952088.784     -413431.877         243.122          47.000  
  25010847.716     -942618.5023       3694.357          21.000  
  20805939.281      212252.464        -517.906          50.000  
  21568038.452     1308959.096       -2352.430          34.000  
  20196986.047    -1722553.416        1316.260          50.000  
  21740864.536    -2598737.050        2378.978          49.000  
 16  9 24 21 39 36.8000000  0 10G30G 4G 5G 2G20G24G13G29G15G21
  24899798.928       65002.099        -482.883          36.000  
  22054619.312     1690787.676       -1879.072          48.000  
  22823738.252     2407756.810       -2366.730          48.000  
  24730080.658      161494.7382      -2890.200          31.000  
  19952079.536     -413480.527         243.598          47.000  
  25010708.045     -943357.3703       3694.357          21.000  
  20805958.826      212356.019        -517.563          50.000  
  21568128.182     1309429.666       -2352.682          34.000  
  20196935.792    -1722816.624        1315.830          50.000  
  21740773.866    -2599212.856        2378.992          49.000  
 16  9 24 21 39 37.0000000  0 10G30G 4G 5G 2G20G24G13G29G15G21
  24899817.495       65098.583        -481.762          36.000  
  22054690.858     1691163.504       -1879.360          48.000  
  22823828.296     2408230.168       -2367.449          48.000  
  24730190.665      162072.8212      -2891.357          31.000  
  19952070.323     -413529.202         243.098          47.000  
  25010567.710     -944097.7403       3702.898          21.000  
  20805978.510      212459.569        -517.784          50.000  
  21568217.702     1309900.263       -2353.849          34.000  
  20196885.709    -1723079.838        1315.931          50.000  
  21740683.299    -2599688.683        2378.639          49.000  
 16  9 24 21 39 37.2000000  0 10G30G 4G 5G 2G20G24G13G29G15G21
  24899836.167       65195.084        -484.332          36.000  
  22054762.439     1691539.393       -1879.567          48.000  
  22823918.513     2408703.585       -2367.095          48.000  
  24730300.601      162651.0132      -2889.940          31.000  
  19952060.830     -413577.811         242.758          47.000  
  25010426.573     -944836.4273       3689.003          21.000  
  20805998.159      212563.181        -518.195          50.000  
  21568307.605     1310370.882       -2352.320          33.000  
  20196835.523    -1723342.979        1315.529          50.000  
  21740592.767    -2600164.452        2378.960          49.000  
 16  9 24 21 39 37.4000000  0 10G30G 4G 5G 2G20G24G13G29G15G21
  24899854.700       65291.585        -482.300          36.000  
  22054833.951     1691915.254       -1878.902          48.000  
  22824008.732     2409176.956       -2366.735          48.000  
  24730410.364      163229.1912      -2891.462          31.000  
  19952051.582     -413626.454         242.907          47.000  
  25010286.309     -945574.3743       3689.967          20.000  
  20806017.913      212666.779        -517.977          50.000  
  21568397.195     1310841.499       -2352.717          33.000  
  20196785.406    -1723606.132        1316.097          50.000  
  21740502.376    -2600640.252        2379.186          49.000  
 16  9 24 21 39 37.6000000  0 10G30G 4G 5G 2G20G24G13G29G15G21
  24899873.093       65388.089        -482.383          36.000  
  22054905.392     1692291.115       -1879.640          48.000  
  22824098.984     2409650.318       -2367.327          48.000  
  24730520.230      163807.3362      -2889.766          31.000  
  19952042.333     -413675.094         242.657          47.000  
  25010145.695     -946313.1393       3696.643          20.000  
  20806037.597      212770.387        -518.232          50.000  
  21568486.820     1311312.138       -2354.554          33.000  
  20196735.324    -1723869.279        1315.420          50.000  
  21740411.809    -2601116.080        2378.992          49.000  
 16  9 24 21 39 37.8000000  0 10G30G 4G 5G 2G20G24G13G29G15G21
  24899891.730       65484.580        -483.065          36.000  
  22054976.939     1692666.998       -1879.240          48.000  
  22824189.412     2410123.689       -2366.505          48.000  
  24730629.958      164385.3902      -2894.170          31.000  
  19952033.295     -413723.710         243.567          47.000  
  25010004.768     -947052.7723       3698.894          20.000  
  20806057.386      212874.028        -518.037          50.000  
  21568576.480     1311782.749       -2353.288          33.000  
  20196685.208    -1724132.397        1315.948          50.000  
  21740321.104    -2601591.880        2379.245          49.000  
 16  9 24 21 39 38.0000000  0 10G30G 4G 5G 2G20G24G13G29G15G21
  24899910.123       65581.119        -483.124          36.000  
  22055048.554     1693042.871       -1879.392          48.000  
  22824279.490     2410597.037       -2366.435          48.000  
  24730739.894      164963.6072      -2892.537          31.000  
  19952024.046     -413772.351         243.076          47.000  
  25009864.398     -947793.4663       3704.760          20.000  
  20806077.070      212977.664        -517.985          50.000  
  21568666.104     1312253.408       -2352.639          33.000  
  20196635.161    -1724395.510        1315.460          50.000  
  21740230.712    -2602067.692        2379.118          49.000  
 16  9 24 21 39 38.2000000  0 10G30G 4G 5G 2G20G24G13G29G15G21
  24899928.620       65677.689        -482.494          36.000  
  22055120.100     1693418.750       -1879.652          48.000  
  22824369.708     2411070.373       -2366.834          48.000  
  24730849.691      165541.7352      -2890.386          31.000  
  19952014.763     -413820.991         243.382          47.000  
  25009723.750     -948532.8933       3681.216          20.000  
  20806096.894      213081.310        -518.475          50.000  
  21568755.798     1312724.020       -2351.595          33.000  
  20196585.009    -1724658.619        1315.766          50.000  
  21740140.215    -2602543.513        2379.246          49.000  
 16  9 24 21 39 38.4000000  0 10G30G 4G 5G 2G20G24G13G29G15G21
  24899947.432       65774.251        -483.164          36.000  
  22055191.473     1693794.656       -1879.594          48.000  
  22824459.996     2411543.735       -2366.545          48.000  
  24730959.628      166119.8442      -2893.763          31.000  
  19952005.515     -413869.604         243.053          47.000  
  25009584.288     -949269.9593       3691.485          20.000  
  20806116.823      213184.994        -518.607          50.000  
  21568845.528     1313194.659       -2353.486          33.000  
  20196534.928    -1724921.689        1315.283          50.000  
  21740049.719    -2603019.320        2379.140          49.000  
 16  9 24 21 39 38.6000000  0 10G30G 4G 5G 2G20G24G13G29G15G21
  24899966.034       65870.796        -483.226          36.000  
  22055263.053     1694170.562       -1879.983          48.000  
  22824550.074     2412017.058       -2367.125          48.000  
  24731069.425      166697.9732      -2888.777          31.000  
  19951996.057     -413918.232         242.576          47.000  
  25009443.779     -950008.0843       3686.674          20.000  
  20806136.576      213288.682        -518.879          50.000  
  21568935.048     1313665.332       -2354.410          33.000  
  20196484.915    -1725184.759        1314.745          50.000  
  21739959.397    -2603495.133        2378.579          50.000  
 16  9 24 21 39 38.8000000  0 10G30G 4G 5G 2G20G24G13G29G15G21
  24899984.846       65967.412        -483.287          36.000  
  22055334.600     1694546.490       -1879.762          48.000  
  22824640.188     2412490.405       -2366.525          48.000  
  24731179.258      167276.0632      -2891.500          31.000  
  19951986.879     -413966.835         242.695          47.000  
  25009302.852     -950746.1183       3692.782          20.000  
  20806156.366      213392.395        -518.675          51.000  
  21569024.463     1314135.964       -2354.728          33.000  
  20196434.869    -1725447.801        1314.935          50.000  
  21739868.936    -2603970.940        2379.168          50.000  
 16  9 24 21 39 39.0000000  0 10G30G 4G 5G 2G20G24G13G29G15G21
  24900003.727       66064.025        -482.158          37.000  
  22055406.181     1694922.427       -1879.679          48.000  
  22824730.370     2412963.743       -2366.569          48.000  
  24731289.368      167854.2812      -2892.411          31.000  
  19951977.596     -414015.429         242.806          47.000  
  25009163.111     -951480.4263       3661.532          20.000  
  20806176.050      213496.141        -518.725          51.000  
  21569114.018     1314606.681       -2353.968          33.000  
  20196384.612    -1725710.810        1314.812          50.000  
  21739778.334    -2604446.732        2378.840          50.000  
 16  9 24 21 39 39.2000000  0 10G30G 4G 5G 2G20G24G13G29G15G21
  24900022.469       66160.641        -482.929          37.000  
  22055477.866     1695298.382       -1879.637          48.000  
  22824820.658     2413437.083       -2366.522          48.000  
  24731399.165      168432.3682      -2891.045          31.000  
  19951968.417     -414064.011         243.156          47.000  
  25009023.090     -952215.7283       3692.782          19.000  
  20806195.768      213599.896        -518.913          51.000  
  21569203.572     1315077.353       -2353.239          33.000  
  20196334.600    -1725973.799        1315.012          50.000  
  21739687.802    -2604922.538        2379.062          50.000  
 16  9 24 21 39 39.4000000  0 10G30G 4G 5G 2G20G24G13G29G15G21
  24900041.281       66257.280        -481.981          37.000  
  22055549.378     1695674.343       -1879.829          48.000  
  22824910.702     2413910.413       -2366.539          48.000  
  24731509.102      169010.5242      -2889.595          31.000  
  19951959.099     -414112.594         243.105          47.000  
  25008882.826     -952954.2813       3700.730          19.000  
  20806215.348      213703.675        -518.957          51.000  
  21569293.163     1315548.041       -2355.094          33.000  
  20196284.484    -1726236.789        1315.112          50.000  
  21739597.306    -2605398.331        2379.046          50.000  
 16  9 24 21 39 39.6000000  0 10G30G 4G 5G 2G20G24G13G29G15G21
  24900060.023       66353.912        -482.033          37.000  
  22055620.924     1696050.282       -1879.897          48.000  
  22825000.850     2414383.717       -2366.618          48.000  
  24731618.725      169588.5932      -2889.877          31.000  
  19951949.885     -414161.197         242.841          47.000  
  25008741.933     -953694.3953       3700.730          19.000  
  20806235.276      213807.435        -519.066          51.000  
  21569382.543     1316018.750       -2352.813          33.000  
  20196234.541    -1726499.779        1314.761          50.000  
  21739506.809    -2605874.151        2379.098          50.000  
 16  9 24 21 39 39.8000000  0 10G30G 4G 5G 2G20G24G13G29G15G21
  24900079.149       66450.605        -483.477          37.000  
  22055692.506     1696426.292       -1879.866          48.000  
  22825090.998     2414857.069       -2366.866          48.000  
  24731728.662      170166.7622      -2889.855          31.000  
  19951940.533     -414209.734         242.794          47.000  
  25008601.146     -954433.8643       3691.147          20.000  
  20806255.066      213911.277        -518.980          51.000  
  21569471.924     1316489.530       -2352.961          33.000  
  20196184.495    -1726762.687        1314.696          50.000  
  21739416.209    -2606349.912        2378.965          50.000  
 16  9 24 21 39 40.0000000  0 10G30G 4G 5G 2G20G24G13G29G15G21
  24900097.890       66547.306        -483.110          37.000  
  22055763.947     1696802.293       -1879.660          48.000  
  22825181.251     2415330.397       -2366.470          48.000  
  24731838.528      170744.8832      -2890.031          31.000  
  19951931.319     -414258.290         242.691          47.000  
  25008461.265     -955171.6133       3682.589          20.000  
  20806274.819      214015.108        -519.018          51.000  
  21569561.373     1316960.211       -2354.462          33.000  
  20196134.448    -1727025.609        1314.577          50.000  
  21739325.503    -2606825.708        2379.203          50.000  
 16  9 24 21 39 40.2000000  0 10G30G 4G 5G 2G20G24G13G29G15G21
  24900116.562       66643.947        -483.440          37.000  
  22055835.632     1697178.265       -1880.187          48.000  
  22825271.189     2415803.687       -2366.787          48.000  
  24731948.290      171322.9142      -2891.161          31.000  
  19951922.036     -414306.869         242.791          47.000  
  25008321.209     -955908.2863       3692.878          20.000  
  20806294.399      214118.921        -519.307          50.000  
  21569650.998     1317430.942       -2354.710          33.000  
  20196084.261    -1727288.541        1314.396          50.000  
  21739234.761    -2607301.521        2379.106          50.000  
 16  9 24 21 39 40.4000000  0 10G30G 4G 5G 2G20G24G13G29G15G21
  24900135.095       66740.676        -482.989          37.000  
  22055907.284     1697554.292       -1880.225          48.000  
  22825361.163     2416277.010       -2366.462          48.000  
  24732058.332      171901.0862      -2891.743          31.000  
  19951913.067     -414355.397         242.541          47.000  
  25008180.631     -956647.2023       3702.351          20.000  
  20806314.328      214222.800        -519.473          51.000  
  21569740.623     1317901.705       -2353.833          33.000  
  20196034.075    -1727551.418        1314.432          50.000  
  21739144.196    -2607777.284        2378.952          50.000  
 16  9 24 21 39 40.6000000  0 10G30G 4G 5G 2G20G24G13G29G15G21
  24900154.186       66837.420        -484.380          37.000  
  22055978.830     1697930.330       -1880.194          48.000  
  22825451.276     2416750.333       -2366.870          48.000  
  24732168.164      172479.2332      -2892.474          31.000  
  19951903.714     -414403.929         243.008          47.000  
  25008039.319     -957387.6733       3693.024          20.000  
  20806333.872      214326.694        -519.366          50.000  
  21569830.177     1318372.463       -2355.029          33.000  
  20195983.993    -1727814.281        1314.180          50.000  
  21739053.769    -2608253.063        2378.929          50.000  
 16  9 24 21 39 40.8000000  0 10G30G 4G 5G 2G20G24G13G29G15G21
  24900172.753       66934.136        -483.467          37.000  
  22056050.271     1698306.372       -1880.089          48.000  
  22825541.494     2417223.641       -2366.742          49.000  
  24732277.961      173057.3372      -2889.813          31.000  
  19951894.395     -414452.465         242.673          47.000  
  25007898.845     -958126.0913       3679.275          19.000  
  20806353.695      214430.597        -519.650          50.000  
  21569919.732     1318843.251       -2355.513          33.000  
  20195934.015    -1728077.133        1314.112          50.000  
  21738963.202    -2608728.846        2378.733          50.000  
 16  9 24 21 39 41.0000000  0 10G30G 4G 5G 2G20G24G13G29G15G21
  24900191.739       67030.929        -483.727          37.000  
  22056121.887     1698682.409       -1880.317          48.000  
  22825631.678     2417696.932       -2366.372          49.000  
  24732387.898      173635.4582      -2891.280          31.000  
  19951885.113     -414500.998         242.590          47.000  
  25007759.314     -958861.9463       3679.275          19.000  
  20806373.520      214534.505        -519.734          51.000  
  21570009.427     1319314.003       -2354.759          33.000  
  20195883.934    -1728339.970        1314.175          50.000  
  21738872.706    -2609204.630        2378.449          50.000  
 16  9 24 21 39 41.2000000  0 10G30G 4G 5G 2G20G24G13G29G15G21
  24900210.725       67127.689        -484.486          38.000  
  22056193.398     1699058.458       -1880.533          48.000  
  22825721.756     2418170.222       -2366.523          49.000  
  24732497.660      174213.5312      -2892.112          31.000  
  19951875.759     -414549.534         242.133          47.000  
  25007617.862     -959603.3013       3710.525          19.000  
  20806393.413      214638.437        -519.948          51.000  
  21570099.226     1319784.810       -2354.835          33.000  
  20195833.887    -1728602.791        1313.778          50.000  
  21738782.209    -2609680.416        2378.695          50.000  
 16  9 24 21 39 41.4000000  0 10G30G 4G 5G 2G20G24G13G29G15G21
  24900229.503       67224.489        -483.423          38.000  
  22056265.085     1699434.552       -1880.375          48.000  
  22825811.800     2418643.549       -2366.312          49.000  
  24732607.702      174791.6442      -2889.240          31.000  
  19951866.302     -414598.018         242.441          47.000  
  25007476.935     -960341.1513       3679.275          18.000  
  20806413.028      214742.416        -519.642          51.000  
  21570188.746     1320255.655       -2354.461          33.000  
  20195783.701    -1728865.567        1313.882          50.000  
  21738691.678    -2610156.171        2379.021          50.000  
 16  9 24 21 39 41.6000000  0 10G30G 4G 5G 2G20G24G13G29G15G21
  24900248.349       67321.306        -483.887          38.000  
  22056336.631     1699810.658       -1880.686          48.000  
  22825901.982     2419116.859       -2366.511          49.000  
  24732717.708      175369.8032      -2890.429          31.000  
  19951857.089     -414646.501         242.339          47.000  
  25007336.531     -961078.0303       3689.945          18.000  
  20806432.816      214846.405        -520.125          51.000  
  21570278.405     1320726.484       -2353.273          33.000  
  20195733.723    -1729128.337        1313.733          50.000  
  21738601.077    -2610631.920        2378.762          50.000  
 16  9 24 21 39 41.8000000  0 10G30G 4G 5G 2G20G24G13G29G15G21
  24900267.021       67418.139        -484.416          38.000  
  22056408.211     1700186.765       -1880.653          48.000  
  22825991.990     2419590.171       -2366.549          49.000  
  24732827.574      175947.9192      -2889.934          31.000  
  19951847.910     -414694.978         241.996          47.000  
  25007196.231     -961816.4123       3697.064          19.000  
  20806452.675      214950.428        -520.331          51.000  
  21570368.134     1321197.325       -2354.785          33.000  
  20195683.502    -1729391.064        1313.472          50.000  
  21738510.370    -2611107.664        2378.992          50.000  
 16  9 24 21 39 42.0000000  0 10G30G 4G 5G 2G20G24G13G29G15G21
  24900285.798       67514.993        -484.929          38.000  
  22056479.828     1700562.885       -1880.894          48.000  
  22826082.069     2420063.467       -2366.557          49.000  
  24732937.616      176526.0382      -2891.181          31.000  
  19951838.906     -414743.459         241.781          47.000  
  25007055.374     -962555.7473       3692.493          19.000  
  20806472.429      215054.450        -520.552          51.000  
  21570457.515     1321668.155       -2352.179          33.000  
  20195633.595    -1729653.791        1313.458          50.000  
  21738419.944    -2611583.424        2378.705          50.000  
 16  9 24 21 39 42.2000000  0 10G30G 4G 5G 2G20G24G13G29G15G21
  24900304.365       67611.891        -484.706          38.000  
  22056551.339     1700939.035       -1880.954          48.000  
  22826172.078     2420536.781       -2366.584          49.000  
  24733047.483      177103.691       -2890.355          31.000  
  19951829.413     -414791.902         242.084          47.000  
  25006914.202     -963294.2953       3693.787          19.000  
  20806492.078      215158.511        -520.531          51.000  
  21570547.139     1322139.003       -2354.831          33.000  
  20195583.478    -1729916.471        1313.389          50.000  
  21738329.378    -2612059.150        2378.515          50.000  
 16  9 24 21 39 42.4000000  0 10G30G 4G 5G 2G20G24G13G29G15G21
  24900323.421       67708.838        -484.264          38.000  
  22056622.921     1701315.243       -1880.732          48.000  
  22826262.052     2421010.146       -2366.521          48.000  
  24733157.246      177681.873       -2889.996          32.000  
  19951820.270     -414840.297         242.190          47.000  
  25006774.007     -964033.0493       3688.539          19.000  
  20806511.937      215262.652        -520.306          51.000  
  21570636.869     1322609.933       -2355.112          33.000  
  20195533.606    -1730179.094        1313.465          50.000  
  21738238.951    -2612534.831        2378.904          50.000  
 16  9 24 21 39 42.6000000  0 10G30G 4G 5G 2G20G24G13G29G15G21
  24900342.093       67805.747        -484.029          38.000  
  22056694.781     1701691.413       -1880.938          48.000  
  22826352.095     2421483.451       -2366.668          48.000  
  24733267.147      178260.4803      -2887.598          32.000  
  19951811.091     -414888.729         242.322          47.000  
  25006633.463     -964770.7753       3688.539          19.000  
  20806531.970      215366.751        -520.441          50.000  
  21570726.424     1323080.859       -2354.975          33.000  
  20195483.663    -1730441.735        1313.541          50.000  
  21738148.350    -2613010.549        2378.323          50.000  
 16  9 24 21 39 42.8000000  0 10G30G 4G 5G 2G20G24G13G29G15G21
  24900360.765       67902.695        -484.570          38.000  
  22056766.326     1702067.607       -1880.812          48.000  
  22826442.278     2421956.773       -2366.254          49.000  
  24733376.979      178838.6642      -2886.484          32.000  
  19951801.982     -414937.147         242.274          47.000  
  25006491.872     -965510.4793       3701.334          18.000  
  20806551.619      215470.874        -520.520          51.000  
  21570816.083     1323551.786       -2353.745          33.000  
  20195433.651    -1730704.362        1313.343          50.000  
  21738057.818    -2613486.265        2378.592          50.000  
 16  9 24 21 39 43.0000000  0 10G30G 4G 5G 2G20G24G13G29G15G21
  24900379.577       67999.653        -484.977          38.000  
  22056838.083     1702443.825       -1881.363          48.000  
  22826532.671     2422430.095       -2366.919          49.000  
  24733486.776      179416.8182      -2888.467          32.000  
  19951792.735     -414985.538         242.081          47.000  
  25006351.015     -966249.7173       3692.557          18.000  
  20806571.548      215575.044        -520.861          51.000  
  21570905.743     1324022.707       -2354.766          33.000  
  20195383.675    -1730966.959        1312.758          50.000  
  21737967.497    -2613961.960        2378.330          50.000  
 16  9 24 21 39 43.2000000  0 10G30G 4G 5G 2G20G24G13G29G15G21
  24900398.214       68096.627        -484.431          38.000  
  22056909.698     1702820.037       -1881.226          48.000  
  22826622.993     2422903.410       -2366.596          49.000  
  24733596.503      179994.9492      -2890.651          32.000  
  19951783.346     -415033.938         242.042          47.000  
  25006210.366     -966988.2313       3692.557          18.000  
  20806591.162      215679.205        -521.028          50.000  
  21570995.333     1324493.607       -2355.942          33.000  
  20195333.557    -1731229.543        1312.490          50.000  
  21737877.139    -2614437.667        2378.334          50.000  
 16  9 24 21 39 43.4000000  0 10G30G 4G 5G 2G20G24G13G29G15G21
  24900416.817       68193.635        -485.143          38.000  
  22056981.245     1703196.286       -1881.155          48.000  
  22826712.967     2423376.732       -2366.869          49.000  
  24733706.336      180573.0542      -2893.437          32.000  
  19951774.168     -415082.317         241.843          47.000  
  25006069.160     -967727.1473       3695.187          18.000  
  20806611.056      215783.413        -521.131          50.000  
  21571084.783     1324964.600       -2353.990          33.000  
  20195283.197    -1731492.094        1312.631          50.000  
  21737786.678    -2614913.353        2378.419          50.000  
 16  9 24 21 39 43.6000000  0 10G30G 4G 5G 2G20G24G13G29G15G21
  24900435.314       68290.675        -484.820          38.000  
  22057052.756     1703572.561       -1881.657          48.000  
  22826803.080     2423850.068       -2366.831          49.000  
  24733816.342      181151.2752      -2890.662          32.000  
  19951764.815     -415130.664         242.204          47.000  
  25005928.162     -968465.8663       3689.555          18.000  
  20806630.810      215887.655        -521.166          51.000  
  21571174.373     1325435.591       -2355.215          33.000  
  20195233.080    -1731754.598        1312.457          50.000  
  21737696.077    -2615389.017        2378.421          50.000  
 16  9 24 21 39 43.8000000  0 10G30G 4G 5G 2G20G24G13G29G15G21
  24900453.916       68387.725        -484.576          38.000  
  22057124.407     1703948.867       -1881.356          48.000  
  22826893.088     2424323.424       -2366.610          49.000  
  24733926.244      181729.4492      -2892.766          32.000  
  19951755.601     -415178.997         241.386          47.000  
  25005786.955     -969203.7813       3689.555          18.000  
  20806650.703      215991.935        -521.379          51.000  
  21571264.067     1325906.606       -2355.540          33.000  
  20195183.068    -1732017.071        1312.488          50.000  
  21737605.510    -2615864.666        2378.056          50.000  
 16  9 24 21 39 44.0000000  0 10G30G 4G 5G 2G20G24G13G29G15G21
  24900472.728       68484.834        -485.324          38.000  
  22057196.163     1704325.157       -1881.248          48.000  
  22826983.307     2424796.748       -2366.386          49.000  
  24734036.390      182307.6512      -2892.373          32.000  
  19951746.458     -415227.340         241.923          47.000  
  25005647.180     -969941.1983       3676.076          18.000  
  20806670.423      216096.205        -521.360          51.000  
  21571353.832     1326377.631       -2354.621          33.000  
  20195133.335    -1732279.556        1312.304          50.000  
  21737515.049    -2616340.340        2378.461          50.000  
 16  9 24 21 39 44.2000000  0 10G30G 4G 5G 2G20G24G13G29G15G21
  24900491.260       68581.907        -485.031          38.000  
  22057267.744     1704701.463       -1881.767          48.000  
  22827073.420     2425270.071       -2366.832          49.000  
  24734146.257      182885.7982      -2891.274          32.000  
  19951737.280     -415275.673         241.453          47.000  
  25005506.531     -970676.4123       3676.076          17.000  
  20806690.246      216200.504        -521.737          51.000  
  21571443.281     1326848.637       -2356.177          33.000  
  20195083.218    -1732542.007        1312.033          49.000  
  21737424.483    -2616815.999        2377.873          50.000  
 16  9 24 21 39 44.4000000  0 10G30G 4G 5G 2G20G24G13G29G15G21
  24900509.863       68679.038        -485.657          38.000  
  22057339.325     1705077.809       -1881.516          48.000  
  22827163.638     2425743.423       -2366.293          49.000  
  24734256.229      183463.9882      -2890.206          32.000  
  19951728.032     -415323.969         241.600          47.000  
  25005366.616     -971411.8563       3690.625          17.000  
  20806710.175      216304.851        -521.420          51.000  
  21571533.081     1327319.737       -2354.870          33.000  
  20195033.381    -1732804.409        1312.090          49.000  
  21737333.882    -2617291.631        2378.193          50.000  
 16  9 24 21 39 44.6000000  0 10G30G 4G 5G 2G20G24G13G29G15G21
  24900528.500       68776.137        -485.066          37.000  
  22057410.906     1705454.132       -1881.678          48.000  
  22827253.716     2426216.732       -2366.512          49.000  
  24734366.060      184042.2012      -2889.901          32.000  
  19951718.644     -415372.289         241.902          47.000  
  25005225.653     -972149.9813       3690.625          16.000  
  20806730.068      216409.173        -521.483          51.000  
  21571622.566     1327790.758       -2354.643          33.000  
  20194983.474    -1733066.836        1311.892          49.000  
  21737243.176    -2617767.291        2378.272          50.000  
 16  9 24 21 39 44.8000000  0 10G30G 4G 5G 2G20G24G13G29G15G21
  24900547.102       68873.254        -486.747          37.000  
  22057482.347     1705830.470       -1882.203          48.000  
  22827343.759     2426690.050       -2367.054          49.000  
  24734475.997      184620.3022      -2888.134          32.000  
  19951709.569     -415420.609         241.094          47.000  
  25005085.179     -972888.1053       3690.625          16.000  
  20806749.892      216513.520        -522.444          50.000  
  21571712.330     1328261.824       -2355.077          33.000  
  20194933.706    -1733329.238        1311.620          49.000  
  21737152.714    -2618242.953        2377.707          50.000  
 16  9 24 21 39 45.0000000  0 10G30G 4G 5G 2G20G24G13G29G15G21
  24900565.460       68970.441        -485.937          37.000  
  22057553.929     1706206.873       -1881.948          48.000  
  22827433.733     2427163.418       -2366.825          49.000  
  24734586.039      185198.5402      -2890.976          33.000  
  19951700.357     -415468.860         241.103          47.000  
  25004944.391     -973626.2283       3690.625          15.000  
  20806769.821      216617.943        -522.066          50.000  
  21571802.129     1328732.907       -2356.494          33.000  
  20194883.659    -1733591.565        1311.556          49.000  
  21737061.973    -2618718.546        2377.795          50.000  
 16  9 24 21 39 45.2000000  0 10G30G 4G 5G 2G20G24G13G29G15G21
  24900583.957       69067.642        -486.010          37.000  
  22057625.579     1706583.258       -1881.998          48.000  
  22827523.846     2427636.748       -2366.702          49.000  
  24734696.080      185776.7192      -2890.613          33.000  
  19951691.038     -415517.134         240.870          47.000  
  25004803.498     -974364.3453       3690.625          14.000  
  20806789.539      216722.352        -522.207          50.000  
  21571891.614     1329204.035       -2354.130          33.000  
  20194833.856    -1733853.906        1311.521          49.000  
  21736971.546    -2619194.179        2378.233          50.000  
 16  9 24 21 39 45.4000000  0 10G30G 4G 5G 2G20G24G13G29G15G21
  24900602.420       69164.867        -486.946          37.000  
  22057697.195     1706959.678       -1882.211          48.000  
  22827614.029     2428110.106       -2366.763          49.000  
  24734805.911      186354.9452      -2887.135          32.000  
  19951681.929     -415565.371         241.305          47.000  
  25004662.326     -975102.4693       3690.625          14.000  
  20806809.468      216826.808        -522.242          50.000  
  21571981.378     1329675.155       -2355.393          33.000  
  20194783.809    -1734116.200        1311.640          49.000  
  21736881.084    -2619669.773        2377.817          50.000  
 16  9 24 21 39 45.6000000  0 10G30G 4G 5G 2G20G24G13G29G15G21
  24900621.267       69262.097        -487.072          37.000  
  22057768.707     1707336.106       -1882.284          48.000  
  22827704.073     2428583.443       -2366.603          49.000  
  24734916.023      186933.0842      -2890.978          32.000  
  19951672.891     -415613.618         240.929          47.000  
  25004521.434     -975840.5943       3690.625          13.000  
  20806829.466      216931.269        -522.666          50.000  
  21572071.143     1330146.296       -2356.189          33.000  
  20194733.902    -1734378.487        1311.054          49.000  
  21736790.658    -2620145.379        2377.780          50.000  
 16  9 24 21 39 45.8000000  0 10G30G 4G 5G 2G20G24G13G29G15G21
  24900639.973       69359.380        -486.069          37.000  
  22057840.427     1707712.581       -1882.340          48.000  
  22827794.256     2429056.830       -2366.787          49.000  
  24735025.960      187511.3532      -2891.109          32.000  
  19951663.712     -415661.801         241.270          47.000  
  25004381.483     -976578.7183       3690.625          13.000  
  20806849.360      217035.802        -522.414          50.000  
  21572160.976     1330617.488       -2355.256          33.000  
  20194683.890    -1734640.706        1311.301          49.000  
  21736700.126    -2620620.929        2378.087          50.000  
 16  9 24 21 39 46.0000000  0 10G30G 4G 5G 2G20G24G13G29G15G21
  24900658.541       69456.690        -487.005          37.000  
  22057912.218     1708089.071       -1882.620          48.000  
  22827884.579     2429530.210       -2367.216          49.000  
  24735136.106      188089.5802      -2891.979          32.000  
  19951654.394     -415709.994         240.885          47.000  
  25004240.695     -977316.8413       3690.625          13.000  
  20806869.184      217140.344        -522.896          50.000  
  21572250.427     1331088.702       -2356.466          33.000  
  20194634.158    -1734902.916        1310.779          49.000  
  21736609.770    -2621096.492        2377.697          50.000  
 16  9 24 21 39 46.2000000  0 10G30G 4G 5G 2G20G24G13G29G15G21
  24900677.318       69554.020        -485.838          38.000  
  22057983.729     1708465.579       -1882.422          48.000  
  22827974.727     2430003.598       -2366.454          49.000  
  24735246.252      188667.8642      -2890.615          32.000  
  19951645.250     -415758.164         241.136          47.000  
  25004099.314     -978054.9573       3690.625          13.000  
  20806888.903      217244.915        -522.595          50.000  
  21572340.296     1331559.881       -2353.821          33.000  
  20194584.215    -1735165.091        1311.030          49.000  
  21736519.029    -2621572.045        2378.170          50.000  
 16  9 24 21 39 46.4000000  0 10G30G 4G 5G 2G20G24G13G29G15G21
  24900695.710       69651.335        -486.114          37.000  
  22058055.520     1708842.068       -1882.374          48.000  
  22828064.805     2430476.941       -2366.662          49.000  
  24735356.398      189246.0552      -2891.738          32.000  
  19951635.758     -415806.362         241.040          47.000  
  25003958.909     -978793.0823       3690.625          13.000  
  20806909.005      217349.471        -522.749          50.000  
  21572429.745     1332031.118       -2356.314          33.000  
  20194534.377    -1735427.289        1310.756          49.000  
  21736428.567    -2622047.613        2378.015          50.000  
 16  9 24 21 39 46.6000000  0 10G30G 4G 5G 2G20G24G13G29G15G21
  24900714.243       69748.673        -486.755          37.000  
  22058127.241     1709218.593       -1882.765          48.000  
  22828154.988     2430950.314       -2367.081          49.000  
  24735466.370      189824.2592      -2890.819          32.000  
  19951626.614     -415854.518         241.004          47.000  
  25003817.808     -979531.2063       3690.625          13.000  
  20806929.039      217454.075        -523.203          50.000  
  21572519.580     1332502.330       -2357.017          33.000  
  20194484.401    -1735689.439        1310.490          49.000  
  21736338.141    -2622523.169        2377.634          50.000  
 16  9 24 21 39 46.8000000  0 10G30G 4G 5G 2G20G24G13G29G15G21
  24900732.705       69846.018        -487.602          37.000  
  22058198.996     1709595.125       -1882.693          48.000  
  22828245.066     2431423.669       -2367.215          49.000  
  24735576.376      190402.5252      -2888.238          32.000  
  19951617.540     -415902.686         240.543          47.000  
  25003677.787     -980269.3293       3690.625          12.000  
  20806948.793      217558.689        -523.286          50.000  
  21572609.030     1332973.554       -2356.226          33.000  
  20194434.598    -1735951.570        1310.723          49.000  
  21736247.574    -2622998.718        2377.540          50.000  
 16  9 24 21 39 47.0000000  0 10G30G 4G 5G 2G20G24G13G29G15G21
  24900751.134       69943.398        -486.643          37.000  
  22058270.647     1709971.660       -1882.686          48.000  
  22828335.215     2431897.022       -2366.976          49.000  
  24735686.243      190980.7282      -2889.277          33.000  
  19951608.572     -415950.843         240.908          47.000  
  25003537.314     -981007.4533       3690.625          12.000  
  20806968.722      217663.312        -523.128          50.000  
  21572698.725     1333444.792       -2355.777          33.000  
  20194384.901    -1736213.697        1310.586          49.000  
  21736157.043    -2623474.282        2377.765          50.000  
 16  9 24 21 39 47.2000000  0 10G30G 4G 5G 2G20G24G13G29G15G21
  24900769.561       70040.767        -487.014          37.000  
  22058342.403     1710348.209       -1882.512          48.000  
  22828425.118     2432370.373       -2366.584          49.000  
  24735796.040      191558.9472      -2892.096          33.000  
  19951599.288     -415998.997         240.908          47.000  
  25003396.281     -981745.5703       3690.625          12.000  
  20806988.720      217767.959        -523.277          50.000  
  21572788.349     1333916.052       -2356.999          33.000  
  20194334.993    -1736475.803        1310.452          49.000  
  21736066.651    -2623949.833        2377.525          50.000  
 16  9 24 21 39 47.4000000  0 10G30G 4G 5G 2G20G24G13G29G15G21
  24900787.709       70138.168        -488.296          36.000  
  22058414.228     1710724.767       -1882.538          48.000  
  22828515.336     2432843.723       -2366.648          49.000  
  24735906.011      192137.1642      -2891.454          33.000  
  19951590.144     -416047.138         240.549          47.000  
  25003255.632     -982483.6953       3690.625          12.000  
  20807008.473      217872.625        -523.444          50.000  
  21572878.078     1334387.319       -2355.412          33.000  
  20194284.946    -1736737.878        1310.501          49.000  
  21735976.189    -2624425.371        2378.039          50.000  
 16  9 24 21 39 47.6000000  0 10G30G 4G 5G 2G20G24G13G29G15G21
  24900805.893       70235.564        -486.832          36.000  
  22058485.879     1711101.319       -1882.742          48.000  
  22828605.310     2433317.033       -2366.819          49.000  
  24736016.088      192715.3762      -2890.709          33.000  
  19951581.176     -416095.298         240.669          47.000  
  25003115.124     -983221.8193       3690.625          12.000  
  20807028.472      217977.291        -523.579          50.000  
  21572967.773     1334858.585       -2356.051          33.000  
  20194234.899    -1736999.961        1310.304          49.000  
  21735885.868    -2624900.944        2377.841          50.000  
 16  9 24 21 39 47.8000000  0 10G30G 4G 5G 2G20G24G13G29G15G21
  24900824.007       70333.036        -486.756          36.000  
  22058557.495     1711477.933       -1883.252          48.000  
  22828695.388     2433790.409       -2366.965          49.000  
  24736125.955      193293.6222      -2891.159          33.000  
  19951571.997     -416143.390         240.339          47.000  
  25002974.091     -983959.9423       3690.625          12.000  
  20807048.121      218082.029        -523.897          50.000  
  21573057.432     1335329.860       -2355.596          33.000  
  20194184.852    -1737261.978        1309.998          49.000  
  21735795.511    -2625376.461        2377.281          50.000  
 16  9 24 21 39 48.0000000  0 10G30G 4G 5G 2G20G24G13G29G15G21
  24900842.609       70430.519        -486.454          36.000  
  22058629.146     1711854.529       -1882.936          48.000  
  22828785.537     2434263.756       -2366.531          49.000  
  24736235.787      193871.8402      -2891.068          33.000  
  19951562.924     -416191.509         240.615          47.000  
  25002832.082     -984698.0593       3690.625          12.000  
  20807068.085      218186.757        -523.532          50.000  
  21573147.162     1335801.177       -2356.201          33.000  
  20194135.050    -1737524.000        1310.301          49.000  
  21735705.224    -2625851.994        2377.917          50.000  
 16  9 24 21 39 48.2000000  0 10G30G 4G 5G 2G20G24G13G29G15G21
  24900860.862       70527.982        -486.951          35.000  
  22058700.483     1712231.172       -1883.228          48.000  
  22828875.615     2434737.122       -2367.100          49.000  
  24736345.828      194450.0762      -2890.110          33.000  
  19951553.780     -416239.583         240.582          47.000  
  25002691.050     -985435.4143       3682.535          12.000  
  20807087.804      218291.538        -523.933          50.000  
  21573236.717     1336272.464       -2357.974          33.000  
  20194085.212    -1737785.968        1309.805          49.000  
  21735614.727    -2626327.492        2377.611          50.000  
 16  9 24 21 39 48.4000000  0 10G30G 4G 5G 2G20G24G13G29G15G21
  24900879.360       70625.520        -488.186          35.000  
  22058772.273     1712607.814       -1883.023          48.000  
  22828965.798     2435210.478       -2366.606          49.000  
  24736455.765      195028.3632      -2891.071          33.000  
  19951544.461     -416287.667         240.616          47.000  
  25002551.169     -986171.9003       3682.357          12.000  
  20807107.836      218396.323        -523.714          50.000  
  21573326.376     1336743.834       -2356.807          33.000  
  20194035.339    -1738047.937        1309.819          49.000  
  21735524.160    -2626803.003        2377.686          50.000  
 16  9 24 21 39 48.6000000  0 10G30G 4G 5G 2G20G24G13G29G15G21
  24900897.823       70723.040        -487.839          35.000  
  22058843.855     1712984.478       -1883.470          48.000  
  22829055.946     2435683.842       -2367.061          49.000  
  24736565.737      195606.5692      -2890.809          33.000  
  19951535.318     -416335.735         240.202          47.000  
  25002411.009     -986908.3563       3682.179          12.000  
  20807127.696      218501.137        -524.198          50.000  
  21573416.071     1337215.201       -2356.052          33.000  
  20193985.363    -1738309.867        1309.527          49.000  
  21735433.699    -2627278.501        2377.438          50.000  
 16  9 24 21 39 48.8000000  0 10G30G 4G 5G 2G20G24G13G29G15G21
  24900916.460       70820.621        -488.275          35.000  
  22058915.575     1713361.180       -1883.454          48.000  
  22829146.129     2436157.232       -2366.757          49.000  
  24736675.743      196184.8732      -2890.362          33.000  
  19951526.174     -416383.762         240.391          47.000  
  25002270.256     -987644.7733       3682.001          12.000  
  20807147.589      218605.984        -524.083          50.000  
  21573505.870     1337686.590       -2356.335          33.000  
  20193935.420    -1738571.755        1309.554          49.000  
  21735343.168    -2627753.970        2377.444          50.000  
 16  9 24 21 39 49.0000000  0 10G30G 4G 5G 2G20G24G13G29G15G21
  24900935.271       70918.230        -488.382          35.000  
  22058987.400     1713737.912       -1883.543          48.000  
  22829236.137     2436630.630       -2367.075          49.000  
  24736785.714      196763.1152      -2891.419          33.000  
  19951517.135     -416431.769         239.781          47.000  
  25002129.677     -988381.1543       3681.822          12.000  
  20807167.377      218710.879        -524.616          50.000  
  21573595.669     1338158.008       -2356.903          33.000  
  20193885.722    -1738833.614        1309.163          49.000  
  21735252.566    -2628229.424        2377.322          50.000  
 16  9 24 21 39 49.2000000  0 10G30G 4G 5G 2G20G24G13G29G15G21
  24900953.734       71015.838        -489.692          35.000  
  22059058.807     1714114.655       -1883.911          48.000  
  22829326.181     2437104.039       -2366.834          49.000  
  24736895.652      197341.4402      -2891.234          32.000  
  19951508.027     -416479.763         239.667          47.000  
  25001989.936     -989117.5033       3681.644          12.000  
  20807187.341      218815.803        -524.534          50.000  
  21573685.329     1338629.432       -2357.720          33.000  
  20193835.850    -1739095.441        1309.086          49.000  
  21735162.245    -2628704.868        2377.093          50.000  
 16  9 24 21 39 49.4000000  0 10G30G 4G 5G 2G20G24G13G29G15G21
  24900971.847       71113.491        -488.163          35.000  
  22059130.528     1714491.426       -1883.918          48.000  
  22829416.329     2437577.439       -2366.975          49.000  
  24737005.623      197919.6202      -2891.563          32.000  
  19951498.988     -416527.735         239.998          47.000  
  25001849.288     -989853.8183       3681.466          11.000  
  20807207.409      218920.746        -524.942          50.000  
  21573775.058     1339100.931       -2357.114          33.000  
  20193786.082    -1739357.247        1308.651          49.000  
  21735071.853    -2629180.289        2377.361          50.000  
 16  9 24 21 39 49.6000000  0 10G30G 4G 5G 2G20G24G13G29G15G21
  24900990.415       71211.212        -488.821          35.000  
  22059202.284     1714868.211       -1884.046          48.000  
  22829506.478     2438050.859       -2367.235          49.000  
  24737115.455      198498.0173      -2889.810          32.000  
  19951489.775     -416575.690         239.793          47.000  
  25001708.919     -990590.0923       3681.288          11.000  
  20807227.408      219025.722        -525.092          50.000  
  21573864.927     1339572.388       -2357.281          33.000  
  20193736.315    -1739619.007        1308.745          49.000  
  21734981.566    -2629655.704        2376.986          50.000  
 16  9 24 21 39 49.8000000  0 10G30G 4G 5G 2G20G24G13G29G15G21
  24901008.982       71308.940        -487.302          34.000  
  22059273.934     1715245.040       -1884.147          48.000  
  22829596.626     2438524.295       -2367.147          49.000  
  24737225.496      199076.3682      -2892.587          32.000  
  19951480.666     -416623.617         239.891          47.000  
  25001568.689     -991326.3303       3681.110          11.000  
  20807247.510      219130.746        -525.197          50.000  
  21573954.586     1340043.934       -2357.058          33.000  
  20193686.617    -1739880.737        1308.417          49.000  
  21734890.964    -2630131.092        2377.045          50.000  
 16  9 24 21 39 50.0000000  0 10G30G 4G 5G 2G20G24G13G29G15G21
  24901027.514       71406.634        -488.053          34.000  
  22059345.445     1715621.862       -1883.976          48.000  
  22829686.599     2438997.710       -2366.977          49.000  
  24737335.817      199654.6922      -2891.597          32.000  
  19951471.627     -416671.558         239.332          47.000  
  25001428.284     -992062.5383       3680.931          11.000  
  20807267.194      219235.765        -525.029          50.000  
  21574044.106     1340515.420       -2358.179          33.000  
  20193636.779    -1740142.468        1308.823          49.000  
  21734800.642    -2630606.503        2377.000          50.000  
 16  9 24 21 39 50.2000000  0 10G30G 4G 5G 2G20G24G13G29G15G21
  24901045.978       71504.343        -489.938          34.000  
  22059417.341     1715998.674       -1884.283          48.000  
  22829776.887     2439471.105       -2367.073          49.000  
  24737445.824      200232.9402      -2892.693          32.000  
  19951462.344     -416719.508         239.724          47.000  
  25001289.486     -992798.6993       3680.753          11.000  
  20807287.437      219340.788        -525.303          50.000  
  21574133.801     1340986.933       -2358.356          33.000  
  20193586.872    -1740404.193        1308.621          49.000  
  21734710.041    -2631081.918        2377.249          50.000  
 16  9 24 21 39 50.4000000  0 10G30G 4G 5G 2G20G24G13G29G15G21
  24901064.475       71602.130        -489.371          34.000  
  22059488.852     1716375.517       -1884.389          48.000  
  22829866.965     2439944.523       -2367.208          49.000  
  24737555.795      200811.2892      -2891.948          32.000  
  19951453.270     -416767.420         239.452          47.000  
  25001149.256     -993534.8383       3680.575          11.000  
  20807307.470      219445.850        -525.507          50.000  
  21574223.704     1341458.479       -2357.096          33.000  
  20193537.209    -1740665.871        1308.394          49.000  
  21734619.545    -2631557.306        2377.081          50.000  
 16  9 24 21 39 50.6000000  0 10G30G 4G 5G 2G20G24G13G29G15G21
  24901082.763       71699.871        -489.331          34.000  
  22059560.748     1716752.361       -1884.373          48.000  
  22829957.079     2440417.918       -2367.055          49.000  
  24737665.872      201389.5882      -2892.126          32.000  
  19951444.197     -416815.352         239.567          47.000  
  25001009.760     -994270.9333       3680.397          11.000  
  20807327.504      219550.917        -525.642          50.000  
  21574313.609     1341930.002       -2358.161          32.000  
  20193487.337    -1740927.560        1308.318          49.000  
  21734529.188    -2632032.723        2377.071          50.000  
 16  9 24 21 39 50.8000000  0 10G30G 4G 5G 2G20G24G13G29G15G21
  24901101.296       71797.622        -491.430          34.000  
  22059632.399     1717129.214       -1884.691          48.000  
  22830047.227     2440891.307       -2367.179          49.000  
  24737775.773      201967.8582      -2891.650          32.000  
  19951435.227     -416863.269         239.517          47.000  
  25000869.705     -995006.9983       3680.219          11.000  
  20807347.258      219656.003        -525.754          50.000  
  21574403.338     1342401.556       -2355.929          32.000  
  20193437.534    -1741189.223        1308.057          49.000  
  21734438.656    -2632508.131        2376.680          50.000  
 16  9 24 21 39 51.0000000  0 10G30G 4G 5G 2G20G24G13G29G15G21
  24901119.758       71895.427        -489.642          33.000  
  22059704.084     1717506.111       -1884.413          48.000  
  22830137.235     2441364.727       -2366.934          49.000  
  24737885.675      202546.2162      -2891.728          32.000  
  19951426.013     -416911.156         239.289          47.000  
  25000729.440     -995743.0173       3680.040          11.000  
  20807367.395      219761.131        -525.646          50.000  
  21574493.102     1342873.074       -2357.993          32.000  
  20193387.801    -1741450.838        1308.337          49.000  
  21734348.195    -2632983.502        2376.855          50.000  
 16  9 24 21 39 51.2000000  0 10G30G 4G 5G 2G20G24G13G29G15G21
  24901138.326       71993.243        -489.545          33.000  
  22059775.840     1717882.999       -1884.541          48.000  
  22830227.244     2441838.130       -2367.130          49.000  
  24737995.821      203124.4912      -2890.868          32.000  
  19951416.801     -416959.036         239.507          47.000  
  25000589.874     -996479.9763       3689.991          11.000  
  20807387.394      219866.274        -525.754          50.000  
  21574582.622     1343344.691       -2359.316          32.000  
  20193338.104    -1741712.432        1307.967          49.000  
  21734257.524    -2633458.884        2376.771          50.000  
 16  9 24 21 39 51.4000000  0 10G30G 4G 5G 2G20G24G13G29G15G21
  24901156.753       72091.051        -488.813          33.000  
  22059847.456     1718259.906       -1884.602          48.000  
  22830317.462     2442311.526       -2367.050          49.000  
  24738105.793      203702.7992      -2893.835          32.000  
  19951407.692     -417006.928         239.208          47.000  
  25000449.434     -997217.9763       3690.035          11.000  
  20807407.497      219971.427        -525.921          50.000  
  21574672.316     1343816.267       -2359.931          32.000  
  20193288.231    -1741974.027        1307.652          49.000  
  21734167.097    -2633934.272        2376.808          50.000  
 16  9 24 21 39 51.6000000  0 10G30G 4G 5G 2G20G24G13G29G15G21
  24901175.042       72188.916        -489.463          33.000  
  22059919.247     1718636.815       -1885.021          48.000  
  22830407.750     2442784.921       -2367.001          49.000  
  24738215.800      204281.1352      -2890.156          32.000  
  19951398.723     -417054.797         238.924          47.000  
  25000308.612     -997955.9863       3690.079          11.000  
  20807427.565      220076.608        -526.110          50.000  
  21574761.941     1344287.875       -2358.028          32.000  
  20193238.394    -1742235.601        1307.476          49.000  
  21734076.636    -2634409.655        2376.527          50.000  
 16  9 24 21 39 51.8000000  0 10G30G 4G 5G 2G20G24G13G29G15G21
  24901193.190       72286.835        -487.557          33.000  
  22059990.897     1719013.774       -1884.384          48.000  
  22830497.863     2443258.347       -2367.002          49.000  
  24738325.701      204859.5002      -2892.045          32.000  
  19951389.509     -417102.628         239.532          47.000  
  25000167.614     -998694.0043       3690.123          11.000  
  20807447.563      220181.832        -525.971          50.000  
  21574851.461     1344759.517       -2358.679          32.000  
  20193188.661    -1742497.113        1307.846          49.000  
  21733986.139    -2634884.994        2376.970          50.000  
 16  9 24 21 39 52.0000000  0 10G30G 4G 5G 2G20G24G13G29G15G21
  24901211.583       72384.688        -489.218          32.000  
  22060062.757     1719390.697       -1884.434          48.000  
  22830587.871     2443731.714       -2366.989          49.000  
  24738435.847      205437.7212      -2888.914          32.000  
  19951380.121     -417150.508         239.542          47.000  
  25000026.093     -999432.0253       3690.167          11.000  
  20807467.561      220287.023        -526.146          50.000  
  21574941.190     1345231.089       -2357.510          32.000  
  20193138.753    -1742758.671        1307.572          49.000  
  21733895.677    -2635360.395        2376.823          50.000  
 16  9 24 21 39 52.2000000  0 10G30G 4G 5G 2G20G24G13G29G15G21
  24901229.906       72482.579        -487.236          32.000  
  22060134.758     1719767.628       -1884.935          48.000  
  22830678.055     2444205.081       -2366.970          49.000  
  24738545.924      206016.0012      -2893.936          32.000  
  19951371.187     -417198.376         239.121          47.000  
  24999886.353    -1000170.0623       3690.211          11.000  
  20807487.490      220392.242        -526.159          50.000  
  21575030.955     1345702.718       -2357.383          32.000  
  20193089.160    -1743020.193        1307.411          49.000  
  21733805.425    -2635835.768        2377.138          50.000  
 16  9 24 21 39 52.4000000  0 10G30G 4G 5G 2G20G24G13G29G15G21
  24901248.159       72580.471        -490.682          32.000  
  22060206.408     1720144.628       -1884.977          48.000  
  22830768.133     2444678.500       -2367.109          49.000  
  24738655.860      206594.3452      -2893.418          32.000  
  19951362.183     -417246.188         238.889          47.000  
  24999745.390    -1000908.1033       3690.255          11.000  
  20807507.523      220497.528        -526.228          50.000  
  21575120.684     1346174.397       -2358.761          32.000  
  20193039.497    -1743281.655        1307.292          49.000  
  21733714.754    -2636311.112        2376.705          50.000  
 16  9 24 21 39 52.6000000  0 10G30G 4G 5G 2G20G24G13G29G15G21
  24901266.727       72678.410        -489.829          32.000  
  22060278.409     1720521.607       -1884.886          48.000  
  22830858.281     2445151.898       -2366.866          49.000  
  24738765.937      207172.6682      -2894.411          31.000  
  19951353.110     -417294.015         239.039          47.000  
  24999604.951    -1001646.1583       3690.299          11.000  
  20807527.382      220602.800        -526.271          50.000  
  21575210.483     1346646.051       -2359.479          32.000  
  20192989.800    -1743543.116        1307.305          49.000  
  21733624.328    -2636786.474        2377.046          50.000  
 16  9 24 21 39 52.8000000  0 10G30G 4G 5G 2G20G24G13G29G15G21
  24901284.771       72776.393        -489.338          31.000  
  22060350.094     1720898.614       -1885.220          49.000  
  22830948.324     2445625.294       -2367.350          49.000  
  24738875.699      207751.0272      -2889.407          32.000  
  19951343.861     -417341.825         238.750          47.000  
  24999464.826    -1002384.2183       3690.343          11.000  
  20807547.310      220708.114        -526.917          50.000  
  21575300.212     1347117.711       -2356.891          32.000  
  20192940.136    -1743804.550        1306.886          49.000  
  21733533.971    -2637261.815        2376.226          50.000  
 16  9 24 21 39 53.0000000  0 10G30G 4G 5G 2G20G24G13G29G15G21
  24901303.163       72874.417        -491.499          31.000  
  22060421.850     1721275.659       -1885.297          49.000  
  22831038.472     2446098.718       -2367.138          49.000  
  24738985.775      208329.4553      -2890.073          31.000  
  19951334.613     -417389.594         238.527          47.000  
  24999323.968    -1003122.2853       3690.386          11.000  
  20807567.343      220813.481        -527.037          50.000  
  21575389.767     1347589.424       -2359.841          32.000  
  20192890.508    -1744065.936        1306.767          49.000  
  21733443.369    -2637737.126        2376.473          50.000  
 16  9 24 21 39 53.2000000  0 10G30G 4G 5G 2G20G24G13G29G15G21
  24901322.150       72972.448        -489.868          31.000  
  22060493.571     1721652.704       -1885.374          49.000  
  22831128.900     2446572.141       -2367.115          49.000  
  24739095.817      208907.7142      -2889.674          31.000  
  19951325.435     -417437.359         239.188          47.000  
  24999183.634    -1003860.3703       3690.430          11.000  
  20807587.551      220918.853        -527.048          50.000  
  21575479.392     1348061.161       -2357.540          32.000  
  20192840.531    -1744327.305        1306.747          49.000  
  21733353.152    -2638212.432        2376.605          50.000  
 16  9 24 21 39 53.4000000  0 10G30G 4G 5G 2G20G24G13G29G15G21
  24901340.577       73070.486        -491.903          31.000  
  22060565.396     1722029.763       -1885.371          49.000  
  22831219.013     2447045.549       -2366.876          49.000  
  24739206.067      209486.0192      -2893.213          31.000  
  19951316.326     -417485.123         238.983          47.000  
  24999042.811    -1004598.4563       3690.474          11.000  
  20807607.514      221024.239        -526.804          50.000  
  21575569.226     1348532.895       -2359.854          32.000  
  20192790.763    -1744588.659        1307.118          49.000  
  21733262.760    -2638687.748        2376.711          50.000  
 16  9 24 21 39 53.6000000  0 10G30G 4G 5G 2G20G24G13G29G15G21
  24901359.109       73168.516        -489.432          31.000  
  22060637.396     1722406.841       -1885.307          49.000  
  22831308.952     2447518.958       -2367.103          49.000  
  24739315.864      210064.3752      -2891.244          31.000  
  19951307.321     -417532.875         238.857          47.000  
  24998902.057    -1005336.5523       3690.518          11.000  
  20807627.687      221129.654        -527.003          50.000  
  21575658.955     1349004.631       -2360.888          31.000  
  20192740.821    -1744849.994        1306.956          49.000  
  21733172.333    -2639163.059        2376.445          50.000  
 16  9 24 21 39 53.8000000  0 11G30G18G 4G 5G 2G20G24G13G29G15G21
  24901377.747       73266.545        -491.399          31.000  
  22636011.909      -89896.7503       2538.746          30.000  
  22060709.187     1722783.925       -1885.197          49.000  
  22831399.205     2447992.357       -2366.836          49.000  
  24739425.941      210642.6362      -2890.950          31.000  
  19951298.422     -417580.634         238.779          47.000  
  24998761.060    -1006074.6573       3690.562          11.000  
  20807647.755      221235.074        -527.120          50.000  
  21575748.789     1349476.396       -2359.609          32.000  
  20192691.089    -1745111.314        1306.648          49.000  
  21733081.767    -2639638.366        2376.546          50.000  
 16  9 24 21 39 54.0000000  0 11G30G18G 4G 5G 2G20G24G13G29G15G21
  24901395.930       73365.0923       -488.652          30.000  
  22635916.945      -90403.9743       2534.646          30.000  
  22060781.012     1723160.996       -1885.492          49.000  
  22831489.073     2448465.742       -2366.680          49.000  
  24739535.947      211221.0113      -2892.613          31.000  
  19951289.593     -417628.393         238.785          47.000  
  24998620.481    -1006812.7723       3690.606          11.000  
  20807667.649      221340.498        -527.312          50.000  
  21575838.553     1349948.119       -2360.944          31.000  
  20192641.390    -1745372.634        1306.579          49.000  
  21732991.166    -2640113.685        2376.574          50.000  
 16  9 24 21 39 54.2000000  0 11G30G18G 4G 5G 2G20G24G13G29G15G21
  24901413.870       73463.2213       -491.297          29.000  
  22635817.619      -90911.2013       2535.316          30.000  
  22060852.803     1723538.094       -1885.622          49.000  
  22831579.222     2448939.124       -2366.967          49.000  
  24739645.989      211799.3862      -2892.553          30.000  
  19951280.694     -417676.141         238.470          47.000  
  24998479.973    -1007551.4733       3696.711          11.000  
  20807687.578      221445.961        -527.231          50.000  
  21575928.213     1350419.906       -2360.709          32.000  
  20192591.833    -1745633.912        1306.274          49.000  
  21732900.949    -2640588.998        2376.305          50.000  
 16  9 24 21 39 54.4000000  0 11G30G18G 4G 5G 2G20G24G13G29G15G21
  24901431.948       73561.3463       -489.153          28.000  
  22635721.084      -91418.3703       2536.119          30.000  
  22060924.558     1723915.230       -1885.676          49.000  
  22831669.056     2449412.533       -2367.036          49.000  
  24739755.925      212377.7752      -2888.864          30.000  
  19951271.550     -417723.858         238.401          47.000  
  24998339.220    -1008290.8253       3696.887          11.000  
  20807707.576      221551.456        -527.556          50.000  
  21576017.838     1350891.665       -2361.234          32.000  
  20192542.239    -1745895.170        1306.184          49.000  
  21732810.557    -2641064.294        2376.354          50.000  
 16  9 24 21 39 54.6000000  0 11G30G18G 4G 5G 2G20G24G13G29G15G21
  24901450.445       73659.5382       -490.678          28.000  
  22635625.422      -91925.5453       2535.613          30.000  
  22060996.244     1724292.372       -1885.584          49.000  
  22831759.064     2449885.946       -2366.757          49.000  
  24739865.896      212956.0742      -2891.658          30.000  
  19951262.371     -417771.549         238.915          47.000  
  24998198.292    -1009030.2183       3697.063          11.000  
  20807727.608      221656.971        -527.361          50.000  
  21576107.637     1351363.527       -2359.680          32.000  
  20192492.680    -1746156.386        1306.257          49.000  
  21732720.060    -2641539.570        2376.571          50.000  
 16  9 24 21 39 54.8000000  0 11G30G18G 4G 5G 2G20G24G13G29G15G21
  24901468.699       73757.6322       -490.385          28.000  
  22635528.540      -92432.6993       2535.909          30.000  
  22061067.965     1724669.539       -1885.691          48.000  
  22831849.248     2450359.355       -2367.024          49.000  
  24739976.043      213534.4202      -2892.355          30.000  
  19951253.298     -417819.240         238.486          47.000  
  24998057.679    -1009769.6403       3697.239          11.000  
  20807747.607      221762.505        -527.574          50.000  
  21576197.366     1351835.376       -2360.743          32.000  
  20192443.053    -1746417.592        1305.936          49.000  
  21732629.599    -2642014.843        2376.662          50.000  
 16  9 24 21 39 55.0000000  0 10G30G18G 4G 5G20G24G13G29G15G21
  24901486.813       73855.8043       -485.914          27.000  
  22635433.471      -92939.8923       2535.984          30.000  
  22061139.685     1725046.689       -1885.730          48.000  
  22831939.291     2450832.742       -2367.004          49.000  
  19951244.224     -417866.952         238.705          47.000  
  24997917.030    -1010509.0993       3697.415          11.000  
  20807767.605      221868.044        -527.540          50.000  
  21576287.061     1352307.169       -2359.824          32.000  
  20192393.285    -1746678.803        1305.884          49.000  
  21732539.242    -2642490.141        2376.395          50.000  
 16  9 24 21 39 55.2000000  0 10G30G18G 4G 5G20G24G13G29G15G21
  24901503.566       73954.3953       -492.045          26.000  
  22635335.681      -93447.1103       2535.703          30.000  
  22061211.546     1725423.807       -1886.022          48.000  
  22832029.230     2451306.084       -2366.998          49.000  
  19951235.150     -417914.688         238.560          47.000  
  24997776.801    -1011248.5953       3697.591          11.000  
  20807787.744      221973.559        -528.167          50.000  
  21576376.721     1352778.942       -2358.849          32.000  
  20192343.378    -1746940.028        1305.709          49.000  
  21732448.885    -2642965.472        2376.058          50.000  
 16  9 24 21 39 55.4000000  0 10G30G18G 4G 5G20G24G13G29G15G21
  24901520.143       74052.8053       -492.045          25.000  
  22635240.542      -93954.3143       2536.095          30.000  
  22061283.266     1725800.960       -1886.112          48.000  
  22832119.134     2451779.444       -2367.106          49.000  
  19951225.727     -417962.399         238.379          47.000  
  24997636.326    -1011988.1293       3697.766          20.000  
  20807807.951      222079.117        -528.070          50.000  
  21576466.450     1353250.761       -2359.313          32.000  
  20192293.540    -1747201.214        1305.432          49.000  
  21732358.319    -2643440.772        2376.286          50.000  
 16  9 24 21 39 55.6000000  0 10G30G18G 4G 5G20G24G13G29G15G21
  24901537.000       74150.6833       -489.002          25.000  
  22635146.276      -94461.4803       2536.286          30.000  
  22061354.952     1726178.147       -1886.102          48.000  
  22832209.246     2452252.810       -2366.605          49.000  
  19951216.618     -418010.088         238.702          47.000  
  24997494.980    -1012727.6843       3698.319          17.000  
  20807827.984      222184.698        -528.093          50.000  
  21576556.214     1353722.617       -2360.424          32.000  
  20192243.912    -1747462.375        1305.814          49.000  
  21732268.031    -2643916.064        2376.825          50.000  
 16  9 24 21 39 55.8000000  0 10G30G18G 4G 5G20G24G13G29G15G21
  24901553.055       74248.4903       -489.002          24.000  
  22635050.650      -94968.6593       2535.508          30.000  
  22061426.813     1726555.354       -1885.996          48.000  
  22832299.395     2452726.191       -2366.865          49.000  
  19951207.580     -418057.765         238.371          47.000  
  24997354.122    -1013467.3963       3701.785          17.000  
  20807848.227      222290.328        -528.135          50.000  
  21576646.223     1354194.437       -2359.449          32.000  
  20192194.249    -1747723.494        1305.761          49.000  
  21732177.745    -2644391.340        2376.425          50.000  
 16  9 24 21 39 56.0000000  0 10G30G18G 4G 5G20G24G13G29G15G21
  24901572.983       74346.2923       -489.002          23.000  
  22634954.150      -95475.8433       2535.865          30.000  
  22061498.428     1726932.566       -1886.141          48.000  
  22832389.578     2453199.552       -2367.180          49.000  
  19951198.541     -418105.430         238.135          47.000  
  24997213.509    -1014207.4013       3692.035          18.000  
  20807868.329      222395.957        -528.418          50.000  
  21576736.021     1354666.357       -2358.882          32.000  
  20192144.621    -1747984.609        1305.264          49.000  
  21732087.353    -2644866.623        2376.596          50.000  
 16  9 24 21 39 56.2000000  0 10G30G18G 4G 5G20G24G13G29G15G21
  24901594.448       74444.0923       -489.002          22.000  
  22634856.604      -95982.9883       2535.889          30.000  
  22061570.220     1727309.768       -1886.222          48.000  
  22832479.796     2453672.918       -2366.971          49.000  
  19951189.607     -418153.099         238.191          47.000  
  24997072.616    -1014945.8023       3692.035          19.000  
  20807888.398      222501.601        -528.460          50.000  
  21576825.821     1355138.197       -2359.700          32.000  
  20192094.958    -1748245.701        1305.281          49.000  
  21731997.031    -2645341.906        2376.282          50.000  
 16  9 24 21 39 56.4000000  0 10G30G18G 4G 5G20G24G13G29G15G21
  24901684.386       74541.9663       -494.004          23.000  
  22634758.115      -96490.1493       2536.222          30.000  
  22061642.010     1727686.990       -1886.088          48.000  
  22832569.770     2454146.275       -2366.735          49.000  
  19951180.568     -418200.758         238.088          47.000  
  24996931.828    -1015685.0363       3702.907          19.000  
  20807908.326      222607.268        -528.605          50.000  
  21576915.480     1355610.132       -2359.880          32.000  
  20192045.225    -1748506.788        1305.125          49.000  
  21731906.430    -2645817.189        2376.368          50.000  
 16  9 24 21 39 56.6000000  0  9G18G 4G 5G20G24G13G29G15G21
  22634660.254      -96997.3343       2535.402          30.000  
  22061713.800     1728064.238       -1886.054          48.000  
  22832659.917     2454619.636       -2366.911          49.000  
  19951171.598     -418248.398         238.632          47.000  
  24996790.376    -1016424.5493       3691.809          19.000  
  20807928.359      222712.955        -528.490          50.000  
  21577005.244     1356081.982       -2361.127          32.000  
  20191995.702    -1748767.831        1305.299          49.000  
  21731815.828    -2646292.452        2376.673          50.000  
 16  9 24 21 39 56.8000000  0  9G18G 4G 5G20G24G13G29G15G21
  22634563.930      -97504.5073       2535.756          30.000  
  22061785.591     1728441.464       -1886.595          48.000  
  22832749.927     2455092.966       -2367.152          49.000  
  19951162.595     -418296.068         237.770          47.000  
  24996649.694    -1017162.8683       3686.111          20.000  
  20807948.428      222818.641        -528.689          50.000  
  21577094.939     1356553.881       -2360.000          32.000  
  20191946.144    -1749028.894        1304.930          49.000  
  21731725.507    -2646767.748        2376.399          50.000  
 16  9 24 21 39 57.0000000  0  9G18G 4G 5G20G24G13G29G15G21
  22634470.850      -98011.7363       2536.243          30.000  
  22061857.276     1728818.714       -1886.587          48.000  
  22832840.039     2455566.308       -2367.057          49.000  
  19951153.730     -418343.711         237.747          47.000  
  24996508.452    -1017900.7753       3695.161          20.000  
  20807968.635      222924.347        -528.711          50.000  
  21577184.913     1357025.799       -2359.413          32.000  
  20191896.376    -1749289.919        1304.653          49.000  
  21731634.870    -2647243.031        2376.223          50.000  
 16  9 24 21 39 57.2000000  0  9G18G 4G 5G20G24G13G29G15G21
  22634374.596      -98518.8423       2535.909          30.000  
  22061929.277     1729196.026       -1886.945          48.000  
  22832929.874     2456039.688       -2367.213          49.000  
  19951144.622     -418391.304         237.713          47.000  
  24996367.280    -1018640.3253       3694.335          21.000  
  20807988.564      223030.119        -529.347          50.000  
  21577274.956     1357497.719       -2360.473          32.000  
  20191846.853    -1749550.882        1304.900          49.000  
  21731544.758    -2647718.262        2376.052          50.000  
 16  9 24 21 39 57.4000000  0  9G18G 4G 5G20G24G13G29G15G21
  22634280.050      -99025.9733       2535.898          30.000  
  22062001.207     1729573.360       -1886.867          48.000  
  22833019.847     2456513.088       -2367.009          49.000  
  19951135.688     -418438.873         237.297          47.000  
  24996226.701    -1019379.1833       3698.213          21.000  
  20808008.667      223135.940        -529.238          50.000  
  21577364.720     1357969.730       -2358.986          32.000  
  20191797.190    -1749811.816        1304.459          49.000  
  21731454.157    -2648193.476        2375.834          50.000  
 16  9 24 21 39 57.6000000  0  9G18G 4G 5G20G24G13G29G15G21
  22634181.247      -99533.0833       2535.735          30.000  
  22062072.892     1729950.708       -1886.747          48.000  
  22833109.681     2456986.478       -2366.900          49.000  
  19951126.509     -418486.427         237.663          47.000  
  24996085.808    -1020118.1833       3689.975          21.000  
  20808028.979      223241.769        -529.378          50.000  
  21577454.589     1358441.732       -2360.088          32.000  
  20191747.491    -1750072.726        1304.342          49.000  
  21731363.695    -2648668.688        2375.983          50.000  
 16  9 24 21 39 57.8000000  0  9G18G 4G 5G20G24G13G29G15G21
  22634085.167     -100040.1973       2535.195          30.000  
  22062144.823     1730328.067       -1886.639          48.000  
  22833199.620     2457459.873       -2366.959          49.000  
  19951117.401     -418533.985         237.823          47.000  
  24995945.439    -1020856.3903       3691.037          22.000  
  20808048.943      223347.632        -529.265          50.000  
  21577544.458     1358913.750       -2362.519          32.000  
  20191697.724    -1750333.614        1304.421          49.000  
  21731273.268    -2649143.894        2376.191          50.000  
 16  9 24 21 39 58.0000000  0  9G18G 4G 5G20G24G13G29G15G21
  22633987.760     -100547.3063       2535.869          30.000  
  22062216.508     1730705.435       -1886.911          48.000  
  22833289.873     2457933.247       -2366.926          49.000  
  19951108.292     -418581.535         237.445          47.000  
  24995804.721    -1021594.5623       3694.490          22.000  
  20808069.255      223453.490        -529.742          50.000  
  21577634.362     1359385.797       -2361.517          32.000  
  20191648.131    -1750594.503        1303.748          49.000  
  21731182.702    -2649619.095        2375.854          50.000  
 16  9 24 21 39 58.2000000  0  9G18G 4G 5G20G24G13G29G15G21
  22633889.725     -101054.4483       2535.378          30.000  
  22062288.298     1731082.818       -1887.252          48.000  
  22833379.951     2458406.643       -2366.976          49.000  
  19951099.427     -418629.066         237.320          47.000  
  24995663.130    -1022333.8163       3699.416          22.000  
  20808089.287      223559.382        -529.686          50.000  
  21577724.231     1359857.808       -2359.913          32.000  
  20191598.328    -1750855.343        1304.028          49.000  
  21731092.205    -2650094.292        2375.404          50.000  
 16  9 24 21 39 58.4000000  0  9G18G 4G 5G20G24G13G29G15G21
  22633794.447     -101561.4993       2535.205          30.000  
  22062360.299     1731460.266       -1887.007          49.000  
  22833470.134     2458880.075       -2366.892          49.000  
  19951090.598     -418676.541         237.929          47.000  
  24995523.075    -1023073.9073       3701.644          22.000  
  20808109.565      223665.345        -529.534          50.000  
  21577814.100     1360329.913       -2358.521          32.000  
  20191548.875    -1751116.125        1304.220          49.000  
  21731001.779    -2650569.436        2375.917          50.000  
 16  9 24 21 39 58.6000000  0  9G18G 4G 5G20G24G13G29G15G21
  22633698.122     -102068.5413       2536.579          30.000  
  22062432.264     1731837.671       -1887.071          49.000  
  22833560.143     2459353.450       -2367.143          49.000  
  19951081.419     -418724.065         237.391          48.000  
  24995382.845    -1023813.6473       3697.086          22.000  
  20808129.598      223771.265        -529.958          50.000  
  21577904.143     1360801.957       -2360.982          32.000  
  20191499.211    -1751376.949        1303.577          49.000  
  21730911.352    -2651044.632        2375.729          50.000  
 16  9 24 21 39 58.8000000  0  9G18G 4G 5G20G24G13G29G15G21
  22633600.716     -102575.6912       2533.621          31.000  
  22062504.020     1732215.112       -1887.299          49.000  
  22833650.082     2459826.847       -2366.902          49.000  
  19951072.451     -418771.560         237.620          47.000  
  24995242.477    -1024553.0453       3696.778          22.000  
  20808149.667      223877.243        -529.536          50.000  
  21577994.152     1361274.053       -2358.079          32.000  
  20191449.723    -1751637.717        1304.202          49.000  
  21730821.065    -2651519.804        2375.843          50.000  
 16  9 24 21 39 59.0000000  0  9G18G 4G 5G20G24G13G29G15G21
  22633505.822     -103082.7652       2534.464          31.000  
  22062575.950     1732592.553       -1887.386          49.000  
  22833740.125     2460300.222       -2367.054          49.000  
  19951063.202     -418819.065         237.181          47.000  
  24995102.072    -1025292.7413       3696.988          22.000  
  20808169.735      223983.211        -530.019          50.000  
  21578084.160     1361746.115       -2361.249          32.000  
  20191400.095    -1751898.488        1303.498          49.000  
  21730730.708    -2651994.986        2376.108          50.000  
 16  9 24 21 39 59.2000000  0  9G18G 4G 5G20G24G13G29G15G21
  22633408.275     -103589.8332       2535.553          31.000  
  22062647.810     1732970.021       -1887.415          49.000  
  22833830.168     2460773.622       -2367.056          48.000  
  19951054.232     -418866.530         237.771          47.000  
  24994961.005    -1026032.8343       3699.550          23.000  
  20808190.082      224089.217        -530.116          50.000  
  21578174.169     1362218.222       -2360.970          32.000  
  20191350.571    -1752159.218        1303.405          49.000  
  21730640.386    -2652470.145        2375.564          50.000  
 16  9 24 21 39 59.4000000  0  9G18G 4G 5G20G24G13G29G15G21
  22633312.614     -104096.9042       2534.729          31.000  
  22062719.601     1733347.506       -1887.070          49.000  
  22833920.177     2461247.029       -2366.979          48.000  
  19951045.124     -418913.983         237.543          47.000  
  24994819.903    -1026772.8113       3700.309          23.000  
  20808210.290      224195.261        -530.023          50.000  
  21578264.178     1362690.357       -2361.198          32.000  
  20191301.118    -1752419.915        1303.621          49.000  
  21730549.820    -2652945.288        2376.139          50.000  
 16  9 24 21 39 59.6000000  0 10G30G18G 4G 5G20G24G13G29G15G21
  24901986.629       76113.6453       -494.613          34.000  
  22633217.161     -104603.9962       2535.960          30.000  
  22062791.600     1733725.001       -1887.621          49.000  
  22834010.255     2461720.421       -2367.251          48.000  
  19951036.015     -418961.438         237.497          47.000  
  24994679.080    -1027512.1373       3690.787          23.000  
  20808230.358      224301.315        -530.469          50.000  
  21578354.081     1363162.485       -2361.566          32.000  
  20191251.560    -1752680.604        1303.497          49.000  
  21730459.288    -2653420.444        2375.868          50.000  
 16  9 24 21 39 59.8000000  0 10G30G18G 4G 5G20G24G13G29G15G21
  24901996.507       76212.4503       -494.024          34.000  
  22633116.928     -105111.1252       2536.548          30.000  
  22062863.426     1734102.467       -1887.494          49.000  
  22834100.264     2462193.776       -2366.894          48.000  
  19951027.012     -419008.930         237.646          47.000  
  24994538.083    -1028251.8123       3695.671          23.000  
  20808250.496      224407.340        -530.200          50.000  
  21578444.195     1363634.595       -2360.673          33.000  
  20191201.932    -1752941.325        1303.328          49.000  
  21730369.071    -2653895.630        2375.676          50.000  
 16  9 24 21 40  0.0000000  0 10G30G18G 4G 5G20G24G13G29G15G21
  24902009.978       76311.1953       -493.799          34.000  
  22633020.987     -105618.2842       2534.138          31.000  
  22062935.321     1734479.989       -1887.522          49.000  
  22834190.307     2462667.158       -2367.147          48.000  
  19951017.868     -419056.375         237.224          47.000  
  24994397.469    -1028990.9803       3695.671          23.000  
  20808270.668      224513.427        -530.271          50.000  
  21578533.924     1364106.741       -2361.385          33.000  
  20191152.199    -1753201.977        1303.006          49.000  
  21730278.784    -2654370.783        2375.552          50.000  
 16  9 24 21 40  0.2000000  0 10G30G18G 4G 5G20G24G13G29G15G21
  24902027.080       76409.9183       -494.103          34.000  
  22632924.347     -106125.3502       2535.502          31.000  
  22063007.216     1734857.506       -1887.638          49.000  
  22834280.141     2463140.537       -2366.876          48.000  
  19951008.619     -419103.806         237.506          47.000  
  24994256.262    -1029731.1753       3702.489          22.000  
  20808290.806      224619.533        -530.195          50.000  
  21578623.932     1364578.916       -2360.874          33.000  
  20191102.675    -1753462.612        1303.463          49.000  
  21730188.392    -2654845.929        2375.546          50.000  
 16  9 24 21 40  0.4000000  0 10G30G18G 4G 5G20G24G13G29G15G21
  24902041.285       76508.6163       -494.147          34.000  
  22632830.152     -106632.4482       2534.912          31.000  
  22063079.216     1735235.028       -1887.574          49.000  
  22834370.255     2463613.898       -2366.587          48.000  
  19950999.721     -419151.257         237.105          47.000  
  24994116.102    -1030471.3353       3692.052          22.000  
  20808310.944      224725.639        -530.389          49.000  
  21578713.906     1365051.090       -2362.963          33.000  
  20191052.908    -1753723.250        1303.213          49.000  
  21730097.896    -2655321.084        2375.941          50.000  
 16  9 24 21 40  0.6000000  0 10G30G18G 4G 5G20G24G13G29G15G21
  24902057.130       76607.3103       -493.107          34.000  
  22632735.083     -107139.5342       2535.578          31.000  
  22063150.972     1735612.596       -1887.813          49.000  
  22834460.193     2464087.292       -2366.969          48.000  
  19950990.646     -419198.656         236.637          47.000  
  24993974.791    -1031210.4253       3703.249          23.000  
  20808330.977      224831.803        -530.722          49.000  
  21578803.950     1365523.266       -2360.141          33.000  
  20191003.384    -1753983.822        1302.926          49.000  
  21730007.399    -2655796.206        2375.736          50.000  
 16  9 24 21 40  0.8000000  0 10G30G18G 4G 5G20G24G13G29G15G21
  24902073.569       76706.0943       -493.343          35.000  
  22632638.863     -107646.5782       2534.480          31.000  
  22063222.832     1735990.189       -1888.192          49.000  
  22834550.168     2464560.694       -2367.046          48.000  
  19950981.922     -419246.034         236.693          47.000  
  24993834.596    -1031951.1873       3704.407          22.000  
  20808351.150      224937.995        -531.012          49.000  
  21578893.959     1365995.503       -2363.392          33.000  
  20190954.071    -1754244.369        1302.679          49.000  
  21729917.008    -2656271.304        2375.517          50.000  
 16  9 24 21 40  1.0000000  0 10G30G18G 4G 5G20G24G13G29G15G21
  24902092.938       76804.8622       -493.555          35.000  
  22632542.399     -108153.7042       2536.823          31.000  
  22063294.797     1736367.768       -1888.293          49.000  
  22834640.280     2465034.070       -2367.291          48.000  
  19950972.883     -419293.436         236.839          47.000  
  24993693.494    -1032690.9153       3694.526          22.000  
  20808371.393      225044.172        -531.293          49.000  
  21578983.967     1366467.725       -2362.796          33.000  
  20190904.303    -1754504.931        1302.335          49.000  
  21729826.650    -2656746.444        2375.296          50.000  
 16  9 24 21 40  1.2000000  0 10G30G18G 4G 5G20G24G13G29G15G21
  24902110.389       76903.5772       -492.919          35.000  
  22632445.236     -108660.7922       2535.958          31.000  
  22063366.762     1736745.357       -1887.961          49.000  
  22834730.254     2465507.444       -2366.636          48.000  
  19950963.704     -419340.835         237.061          47.000  
  24993552.985    -1033429.4883       3692.085          22.000  
  20808391.391      225150.379        -531.195          49.000  
  21579073.835     1366939.961       -2360.669          33.000  
  20190854.709    -1754765.466        1302.881          49.000  
  21729736.293    -2657221.571        2375.609          50.000  
 16  9 24 21 40  1.4000000  0 10G30G18G 4G 5G20G24G13G29G15G21
  24902128.189       77002.2992       -493.329          35.000  
  22632348.388     -109167.8882       2535.227          31.000  
  22063438.448     1737122.952       -1887.720          49.000  
  22834820.298     2465980.809       -2366.361          48.000  
  19950954.736     -419388.223         236.942          47.000  
  24993411.115    -1034168.9883       3693.769          22.000  
  20808411.634      225256.595        -531.004          49.000  
  21579163.914     1367412.171       -2360.873          33.000  
  20190805.186    -1755026.000        1302.741          49.000  
  21729645.937    -2657696.701        2375.855          50.000  
 16  9 24 21 40  1.6000000  0 10G30G18G 4G 5G20G24G13G29G15G21
  24902145.779       77101.0302       -493.360          35.000  
  22632254.122     -109675.0112       2535.487          31.000  
  22063510.099     1737500.550       -1887.590          49.000  
  22834910.411     2466454.161       -2366.382          48.000  
  19950945.906     -419435.606         237.427          48.000  
  24993271.269    -1034907.7423       3694.288          22.000  
  20808431.841      225362.830        -530.793          49.000  
  21579254.027     1367884.433       -2359.844          33.000  
  20190755.593    -1755286.506        1302.760          49.000  
  21729555.510    -2658171.835        2375.868          50.000  
 16  9 24 21 40  1.8000000  0 10G30G18G 4G 5G20G24G13G29G15G21
  24902167.591       77199.8352       -493.534          35.000  
  22632155.284     -110182.1092       2536.790          31.000  
  22063582.029     1737878.175       -1888.268          49.000  
  22835000.628     2466927.528       -2366.958          48.000  
  19950936.832     -419482.973         237.047          47.000  
  24993130.167    -1035646.6443       3697.279          22.000  
  20808452.153      225469.088        -531.731          49.000  
  21579344.105     1368356.664       -2361.009          33.000  
  20190705.929    -1755546.990        1302.236          49.000  
  21729465.118    -2658646.947        2375.474          50.000  
 16  9 24 21 40  2.0000000  0 10G30G18G 4G 5G20G24G13G29G15G21
  24902184.868       77298.6302       -494.381          36.000  
  22632059.692     -110689.1622       2536.604          31.000  
  22063653.785     1738255.829       -1888.324          49.000  
  22835090.637     2467400.895       -2366.718          48.000  
  19950927.828     -419530.322         236.809          47.000  
  24992988.507    -1036386.3863       3705.248          22.000  
  20808472.431      225575.385        -531.411          49.000  
  21579434.219     1368828.954       -2360.956          33.000  
  20190656.372    -1755807.425        1302.400          49.000  
  21729374.831    -2659122.053        2375.606          50.000  
 16  9 24 21 40  2.2000000  0 10G30G18G 4G 5G20G24G13G29G15G21
  24902202.109       77397.4332       -494.246          36.000  
  22631963.297     -111196.2712       2535.178          31.000  
  22063725.610     1738633.484       -1888.548          49.000  
  22835180.541     2467874.265       -2366.833          48.000  
  19950918.614     -419577.666         236.276          47.000  
  24992847.544    -1037126.0193       3693.114          22.000  
  20808492.743      225681.692        -531.742          49.000  
  21579524.227     1369301.263       -2360.233          33.000  
  20190606.883    -1756067.857        1301.963          49.000  
  21729284.299    -2659597.140        2375.375          50.000  
 16  9 24 21 40  2.4000000  0 10G30G18G 4G 5G20G24G13G29G15G21
  24902221.130       77496.2962       -494.654          36.000  
  22631864.006     -111703.2932       2535.812          31.000  
  22063797.540     1739011.173       -1888.651          49.000  
  22835270.620     2468347.651       -2366.950          48.000  
  19950909.855     -419624.979         236.407          47.000  
  24992706.896    -1037865.0843       3696.347          22.000  
  20808512.882      225788.046        -531.854          49.000  
  21579614.201     1369773.564       -2361.026          33.000  
  20190557.220    -1756328.248        1302.084          49.000  
  21729194.048    -2660072.222        2375.484          50.000  
 16  9 24 21 40  2.6000000  0 10G30G18G 4G 5G20G24G13G29G15G21
  24902238.860       77595.1592       -494.543          37.000  
  22631768.798     -112210.3982       2534.788          31.000  
  22063869.400     1739388.881       -1888.132          49.000  
  22835360.698     2468821.031       -2366.616          48.000  
  19950900.642     -419672.290         236.907          47.000  
  24992565.584    -1038604.5933       3697.887          21.000  
  20808532.914      225894.414        -531.722          49.000  
  21579704.245     1370245.902       -2360.274          33.000  
  20190507.557    -1756588.624        1301.908          49.000  
  21729103.586    -2660547.295        2375.638          50.000  
 16  9 24 21 40  2.8000000  0 10G30G18G 4G 5G20G24G13G29G15G21
  24902259.521       77694.0252       -494.195          37.000  
  22631673.729     -112717.4562       2535.341          31.000  
  22063941.226     1739766.582       -1888.543          49.000  
  22835450.846     2469294.407       -2366.829          48.000  
  19950891.637     -419719.592         236.722          47.000  
  24992423.923    -1039343.8363       3695.047          21.000  
  20808553.366      226000.792        -532.125          49.000  
  21579794.392     1370718.203       -2362.224          33.000  
  20190458.068    -1756848.981        1301.672          49.000  
  21729012.984    -2661022.378        2375.382          50.000  
 16  9 24 21 40  3.0000000  0 10G30G18G 4G 5G20G24G13G29G15G21
  24902274.773       77792.9092       -494.255          37.000  
  22631578.661     -113224.5892       2536.395          31.000  
  22064013.296     1740144.292       -1888.349          49.000  
  22835540.820     2469767.773       -2366.745          48.000  
  19950882.634     -419766.894         236.857          47.000  
  24992282.891    -1040084.0243       3703.705          21.000  
  20808573.330      226107.194        -531.848          49.000  
  21579884.471     1371190.574       -2361.900          33.000  
  20190408.580    -1757109.320        1301.755          49.000  
  21728922.802    -2661497.459        2375.380          50.000  
 16  9 24 21 40  3.2000000  0 10G30G18G 4G 5G20G24G13G29G15G21
  24902291.421       77891.7872       -494.129          37.000  
  22631480.731     -113731.6592       2534.844          31.000  
  22064085.295     1740522.005       -1888.541          49.000  
  22835630.898     2470241.119       -2366.629          48.000  
  19950873.629     -419814.204         236.724          47.000  
  24992141.580    -1040824.5313       3697.335          21.000  
  20808593.572      226213.586        -532.105          49.000  
  21579974.410     1371662.896       -2361.127          33.000  
  20190358.742    -1757369.658        1302.128          49.000  
  21728832.515    -2661972.549        2375.533          50.000  
 16  9 24 21 40  3.4000000  0 10G30G18G 4G 5G20G24G13G29G15G21
  24902310.896       77990.7072       -494.403          37.000  
  22631383.185     -114238.7672       2534.743          31.000  
  22064157.261     1740899.736       -1889.052          49.000  
  22835720.907     2470714.472       -2366.941          48.000  
  19950864.835     -419861.501         236.336          47.000  
  24992000.129    -1041563.8573       3694.827          21.000  
  20808613.746      226320.017        -532.618          49.000  
  21580064.523     1372135.273       -2362.099          33.000  
  20190309.499    -1757629.977        1301.288          49.000  
  21728742.124    -2662447.632        2375.047          50.000  
 16  9 24 21 40  3.6000000  0 10G30G18G 4G 5G20G24G13G29G15G21
  24902330.021       78089.6512       -494.870          38.000  
  22631287.558     -114745.8012       2535.752          31.000  
  22064229.226     1741277.509       -1888.734          49.000  
  22835810.985     2471187.854       -2366.829          48.000  
  19950855.657     -419908.755         236.508          47.000  
  24991859.725    -1042303.4803       3703.537          20.000  
  20808633.953      226426.495        -532.698          49.000  
  21580154.497     1372607.650       -2361.517          34.000  
  20190259.975    -1757890.243        1301.288          49.000  
  21728651.592    -2662922.676        2375.085          50.000  
 16  9 24 21 40  3.8000000  0 11G30G18G 4G 5G 2G20G24G13G29G15G21
  24902348.972       78188.6002       -494.714          38.000  
  22631190.988     -115252.8842       2537.417          31.000  
  22064301.190     1741655.264       -1888.722          49.000  
  22835901.028     2471661.203       -2366.629          48.000  
  24745006.990      239560.2662      -2889.545          31.000  
  19950846.687     -419956.034         236.380          47.000  
  24991718.482    -1043044.0353       3699.446          20.000  
  20808654.090      226532.964        -532.424          49.000  
  21580244.540     1373080.030       -2361.009          34.000  
  20190210.382    -1758150.511        1301.388          49.000  
  21728561.304    -2663397.752        2375.517          50.000  
 16  9 24 21 40  4.0000000  0 10G30G18G 4G 5G20G24G13G29G15G21
  24902367.610       78287.5592       -494.651          38.000  
  22631094.768     -115759.9572       2537.376          31.000  
  22064373.086     1742033.034       -1888.869          49.000  
  22835991.072     2472134.556       -2366.479          48.000  
  19950837.684     -420003.306         236.229          47.000  
  24991577.765    -1043783.3723       3689.542          20.000  
  20808674.473      226639.456        -532.405          49.000  
  21580334.584     1373552.442       -2361.053          33.000  
  20190160.963    -1758410.768        1301.353          49.000  
  21728470.878    -2663872.821        2375.173          50.000  
 16  9 24 21 40  4.2000000  0 10G30G18G 4G 5G20G24G13G29G15G21
  24902384.851       78386.5472       -495.616          38.000  
  22630998.722     -116267.0182       2535.357          31.000  
  22064445.051     1742410.814       -1889.042          49.000  
  22836081.115     2472607.897       -2366.686          48.000  
  19950828.505     -420050.565         236.343          47.000  
  24991437.151    -1044521.8943       3697.716          21.000  
  20808694.785      226745.953        -532.616          49.000  
  21580424.627     1374024.848       -2361.417          33.000  
  20190111.440    -1758670.996        1301.125          49.000  
  21728380.416    -2664347.874        2375.534          50.000  
 16  9 24 21 40  4.4000000  0 10G30G18G 4G 5G20G24G13G29G15G21
  24902403.698       78485.5442       -494.755          39.000  
  22630901.595     -116774.1512       2536.388          31.000  
  22064517.121     1742788.622       -1889.086          49.000  
  22836171.229     2473081.255       -2366.631          48.000  
  19950819.501     -420097.804         236.220          47.000  
  24991297.026    -1045261.6353       3703.222          20.000  
  20808715.028      226852.493        -532.918          49.000  
  21580514.671     1374497.218       -2364.153          33.000  
  20190061.882    -1758931.201        1300.891          49.000  
  21728289.990    -2664822.934        2375.062          50.000  
 16  9 24 21 40  4.6000000  0 10G30G18G 4G 5G20G24G13G29G15G21
  24902423.102       78584.5692       -495.085          39.000  
  22630805.480     -117281.1773       2535.981          31.000  
  22064589.016     1743166.433       -1889.044          49.000  
  22836261.412     2473554.602       -2366.754          48.000  
  19950810.532     -420145.044         236.054          47.000  
  24991155.889    -1046002.2783       3704.802          20.000  
  20808735.305      226959.048        -532.781          49.000  
  21580604.819     1374969.677       -2360.605          33.000  
  20190012.393    -1759191.382        1300.846          49.000  
  21728199.668    -2665297.983        2375.093          50.000  
 16  9 24 21 40  4.8000000  0 10G30G18G 4G 5G20G24G13G29G15G21
  24902441.530       78683.5922       -495.272          39.000  
  22630708.352     -117788.2782       2536.091          31.000  
  22064660.946     1743544.242       -1889.107          49.000  
  22836351.629     2474027.940       -2366.492          48.000  
  19950801.493     -420192.280         236.198          47.000  
  24991015.450    -1046743.2293       3704.802          20.000  
  20808755.652      227065.612        -532.791          49.000  
  21580694.897     1375442.132       -2359.939          33.000  
  20189962.834    -1759451.559        1300.776          49.000  
  21728109.171    -2665773.044        2375.184          50.000  
 16  9 24 21 40  5.0000000  0 10G30G18G 4G 5G20G24G13G29G15G21
  24902459.784       78782.6182       -494.406          39.000  
  22630611.608     -118295.3872       2535.721          31.000  
  22064732.946     1743922.060       -1889.138          49.000  
  22836441.568     2474501.253       -2366.565          48.000  
  19950792.629     -420239.521         236.598          47.000  
  24990874.837    -1047483.8123       3703.065          20.000  
  20808776.035      227172.185        -532.866          49.000  
  21580784.976     1375914.553       -2360.977          33.000  
  20189913.416    -1759711.729        1301.084          49.000  
  21728018.919    -2666248.110        2375.559          50.000  
 16  9 24 21 40  5.2000000  0 10G30G18G 4G 5G20G24G13G29G15G21
  24902479.258       78881.6782       -495.314          39.000  
  22630515.004     -118802.4762       2535.791          30.000  
  22064804.771     1744299.899       -1889.157          49.000  
  22836531.577     2474974.581       -2366.695          48.000  
  19950783.555     -420286.749         235.939          47.000  
  24990733.874    -1048224.4233       3699.551          20.000  
  20808796.173      227278.778        -533.135          49.000  
  21580875.089     1376387.008       -2361.288          33.000  
  20189863.927    -1759971.872        1300.671          49.000  
  21727928.492    -2666723.162        2375.265          50.000  
 16  9 24 21 40  5.4000000  0 10G30G18G 4G 5G20G24G13G29G15G21
  24902497.477       78980.7872       -494.763          39.000  
  22630418.191     -119309.5452       2533.664          31.000  
  22064876.667     1744677.769       -1889.307          49.000  
  22836621.725     2475447.933       -2366.804          48.000  
  19950774.621     -420333.941         236.060          47.000  
  24990593.331    -1048964.0393       3695.571          20.000  
  20808816.381      227385.423        -533.341          49.000  
  21580965.133     1376859.478       -2362.492          33.000  
  20189814.474    -1760231.962        1300.503          49.000  
  21727838.101    -2667198.185        2375.390          50.000  
 16  9 24 21 40  5.6000000  0 10G30G18G 4G 5G20G24G13G29G15G21
  24902515.451       79079.8512       -494.985          40.000  
  22630321.866     -119816.5742       2535.991          30.000  
  22064948.632     1745055.637       -1889.053          49.000  
  22836711.908     2475921.250       -2366.402          48.000  
  19950765.617     -420381.144         236.361          47.000  
  24990453.031    -1049703.2913       3696.975          21.000  
  20808836.588      227492.063        -533.134          49.000  
  21581055.211     1377331.981       -2362.229          33.000  
  20189764.741    -1760492.062        1300.742          49.000  
  21727747.883    -2667673.239        2375.214          50.000  
 16  9 24 21 40  5.8000000  0 10G30G18G 4G 5G20G24G13G29G15G21
  24902533.738       79178.9362       -496.102          40.000  
  22630225.366     -120323.7602       2535.303          31.000  
  22065020.561     1745433.483       -1889.373          49.000  
  22836801.881     2476394.556       -2366.946          48.000  
  19950756.612     -420428.364         236.190          47.000  
  24990312.661    -1050442.4803       3695.563          21.000  
  20808856.726      227598.703        -533.245          49.000  
  21581145.149     1377804.420       -2362.965          33.000  
  20189715.252    -1760752.167        1300.267          49.000  
  21727657.456    -2668148.297        2375.052          50.000  
 16  9 24 21 40  6.0000000  0 11G30G18G 4G 5G 2G20G24G13G29G15G21
  24902552.097       79278.0702       -496.028          40.000  
  22630128.902     -120830.7702       2535.655          31.000  
  22065092.318     1745811.387       -1889.748          49.000  
  22836891.681     2476867.900       -2366.911          48.000  
  24746225.194      245922.4112      -2894.694          31.000  
  19950747.504     -420475.545         235.647          47.000  
  24990172.258    -1051181.7963       3698.286          21.000  
  20808877.248      227705.396        -533.769          49.000  
  21581235.333     1378276.963       -2362.834          33.000  
  20189665.834    -1761012.204        1299.702          49.000  
  21727567.135    -2668623.328        2374.659          50.000  
 16  9 24 21 40  6.2000000  0 10G30G18G 4G 5G20G24G13G29G15G21
  24902570.664       79377.2292       -496.135          40.000  
  22630032.368     -121337.8432       2536.183          31.000  
  22065164.352     1746189.307       -1889.315          49.000  
  22836981.794     2477341.241       -2366.464          48.000  
  19950738.430     -420522.696         236.296          47.000  
  24990031.260    -1051921.6113       3699.927          21.000  
  20808897.316      227812.117        -533.288          49.000  
  21581325.341     1378749.486       -2363.328          33.000  
  20189616.415    -1761272.223        1300.348          49.000  
  21727476.812    -2669098.332        2375.467          50.000  
 16  9 24 21 40  6.4000000  0 10G30G18G 4G 5G20G24G13G29G15G21
  24902589.301       79476.4052       -496.208          40.000  
  22629935.693     -121844.9482       2535.649          31.000  
  22065236.491     1746567.241       -1889.188          49.000  
  22837071.663     2477814.573       -2366.934          48.000  
  19950729.565     -420569.864         235.395          47.000  
  24989890.402    -1052661.9383       3702.368          21.000  
  20808917.628      227918.858        -533.783          49.000  
  21581415.489     1379222.018       -2362.870          33.000  
  20189566.996    -1761532.228        1300.107          49.000  
  21727386.560    -2669573.352        2375.295          50.000  
 16  9 24 21 40  6.6000000  0 10G30G18G 4G 5G20G24G13G29G15G21
  24902608.287       79575.5752       -495.349          40.000  
  22629839.264     -122352.0232       2535.274          31.000  
  22065308.422     1746945.156       -1889.657          49.000  
  22837161.916     2478287.890       -2366.568          48.000  
  19950720.562     -420617.018         235.866          47.000  
  24989750.208    -1053401.3433       3706.761          21.000  
  20808938.045      228025.598        -533.787          49.000  
  21581505.672     1379694.547       -2362.492          33.000  
  20189517.508    -1761792.222        1299.802          49.000  
  21727296.099    -2670048.378        2375.116          50.000  
 16  9 24 21 40  6.8000000  0 10G30G18G 4G 5G20G24G13G29G15G21
  24902627.099       79674.7622       -495.714          40.000  
  22629742.730     -122859.1442       2535.650          31.000  
  22065380.561     1747323.091       -1889.583          50.000  
  22837251.889     2478761.199       -2366.409          48.000  
  19950711.418     -420664.188         235.722          47.000  
  24989609.035    -1054142.2503       3702.157          21.000  
  20808958.218      228132.343        -533.529          49.000  
  21581595.680     1380167.087       -2362.154          33.000  
  20189468.194    -1762052.213        1299.771          49.000  
  21727205.672    -2670523.406        2375.208          50.000  
 16  9 24 21 40  7.0000000  0 10G30G18G 4G 5G20G24G13G29G15G21
  24902645.841       79773.9522       -496.269          40.000  
  22629646.336     -123366.2082       2539.098          32.000  
  22065452.701     1747701.023       -1889.691          50.000  
  22837342.038     2479234.499       -2366.470          48.000  
  19950702.240     -420711.350         235.827          47.000  
  24989468.004    -1054881.1533       3696.005          22.000  
  20808978.915      228239.107        -533.865          49.000  
  21581685.689     1380639.627       -2363.363          33.000  
  20189418.671    -1762312.188        1299.581          49.000  
  21727115.420    -2670998.455        2375.121          50.000  
 16  9 24 21 40  7.2000000  0 10G30G18G 4G 5G20G24G13G29G15G21
  24902664.478       79873.1832       -496.035          40.000  
  22629549.941     -123873.3382       2535.238          32.000  
  22065524.526     1748078.984       -1890.098          50.000  
  22837432.151     2479707.800       -2366.734          48.000  
  19950693.166     -420758.493         235.648          47.000  
  24989328.751    -1055619.3863       3697.683          22.000  
  20808999.192      228345.905        -534.158          49.000  
  21581775.767     1381112.182       -2363.965          33.000  
  20189369.322    -1762572.131        1299.336          49.000  
  21727024.958    -2671473.462        2374.954          50.000  
 16  9 24 21 40  7.4000000  0 10G30G18G 4G 5G20G24G13G29G15G21
  24902683.010       79972.4032       -496.536          40.000  
  22629453.580     -124380.4162       2534.621          32.000  
  22065596.491     1748456.961       -1890.171          50.000  
  22837522.194     2480181.109       -2367.065          48.000  
  19950684.057     -420805.610         235.924          47.000  
  24989188.660    -1056359.0073       3700.149          22.000  
  20809019.574      228452.722        -534.629          49.000  
  21581865.566     1381584.760       -2362.926          33.000  
  20189319.624    -1762832.050        1299.624          49.000  
  21726934.601    -2671948.478        2374.877          50.000  
 16  9 24 21 40  7.6000000  0 10G30G18G 4G 5G20G24G13G29G15G21
  24902701.753       80071.6792       -496.667          40.000  
  22629357.082     -124887.5212       2534.650          32.000  
  22065668.422     1748834.943       -1890.350          50.000  
  22837612.343     2480654.418       -2366.969          48.000  
  19950675.193     -420852.739         235.294          47.000  
  24989047.489    -1057098.8893       3697.562          22.000  
  20809040.131      228559.567        -534.339          49.000  
  21581955.855     1382057.354       -2362.726          33.000  
  20189270.275    -1763091.948        1299.102          49.000  
  21726844.245    -2672423.488        2374.719          50.000  
 16  9 24 21 40  7.8000000  0 10G30G18G 4G 5G20G24G13G29G15G21
  24902720.529       80170.9672       -496.587          40.000  
  22629260.687     -125394.6072       2534.179          32.000  
  22065740.456     1749212.966       -1889.773          50.000  
  22837702.386     2481127.741       -2366.617          48.000  
  19950666.049     -420899.831         235.667          47.000  
  24988906.212    -1057838.2323       3695.384          22.000  
  20809060.338      228666.436        -534.196          49.000  
  21582045.933     1382529.982       -2361.562          33.000  
  20189220.891    -1763351.801        1299.498          49.000  
  21726753.643    -2672898.470        2375.121          50.000  
 16  9 24 21 40  8.0000000  0 10G30G18G 4G 5G20G24G13G29G15G21
  24902739.271       80270.2772       -495.965          40.000  
  22629164.327     -125901.6742       2534.223          32.000  
  22065812.387     1749590.986       -1890.044          50.000  
  22837792.604     2481601.053       -2366.514          48.000  
  19950657.116     -420946.923         235.727          47.000  
  24988765.076    -1058577.9513       3702.085          22.000  
  20809080.546      228773.324        -534.355          49.000  
  21582135.802     1383002.586       -2363.304          33.000  
  20189171.508    -1763611.657        1299.225          49.000  
  21726663.217    -2673373.465        2375.012          50.000  
 16  9 24 21 40  8.2000000  0 10G30G18G 4G 5G20G24G13G29G15G21
  24902758.118       80369.6032       -496.061          40.000  
  22629067.688     -126408.7472       2534.556          31.000  
  22065884.247     1749969.025       -1890.116          50.000  
  22837882.752     2482074.381       -2366.260          48.000  
  19950648.251     -420993.996         235.672          47.000  
  24988624.776    -1059317.0183       3690.475          22.000  
  20809100.998      228880.251        -534.414          49.000  
  21582225.880     1383475.233       -2363.641          33.000  
  20189122.054    -1763871.472        1299.137          49.000  
  21726572.999    -2673848.434        2374.906          50.000  
 16  9 24 21 40  8.4000000  0 10G30G18G 4G 5G20G24G13G29G15G21
  24902776.964       80468.8912       -495.974          40.000  
  22628971.258     -126915.8402       2535.407          32.000  
  22065956.421     1750347.033       -1890.218          50.000  
  22837972.690     2482547.646       -2366.195          48.000  
  19950639.072     -421041.113         235.541          47.000  
  24988483.569    -1060056.5953       3701.393          21.000  
  20809121.240      228987.139        -534.815          49.000  
  21582315.888     1383947.849       -2362.408          33.000  
  20189072.635    -1764131.318        1298.980          49.000  
  21726482.677    -2674323.467        2375.097          50.000  
 16  9 24 21 40  8.6000000  0 10G30G18G 4G 5G20G24G13G29G15G21
  24902795.741       80568.2172       -496.900          40.000  
  22628874.655     -127422.9412       2534.951          31.000  
  22066028.317     1750725.092       -1890.460          50.000  
  22838062.839     2483020.938       -2366.650          48.000  
  19950630.173     -421088.195         235.179          47.000  
  24988342.641    -1060797.3963       3704.738          21.000  
  20809141.553      229094.084        -534.643          49.000  
  21582406.002     1384420.509       -2362.296          33.000  
  20189023.182    -1764391.108        1298.858          49.000  
  21726392.216    -2674798.451        2374.755          51.000  
 16  9 24 21 40  8.8000000  0 10G30G18G 4G 5G20G24G13G29G15G21
  24902814.622       80667.6042       -497.004          41.000  
  22628777.945     -127930.0192       2533.971          31.000  
  22066100.142     1751103.172       -1890.776          50.000  
  22838152.812     2483494.247       -2366.981          48.000  
  19950621.308     -421135.244         234.975          47.000  
  24988201.923    -1061537.7943       3693.160          21.000  
  20809161.970      229201.053        -535.302          49.000  
  21582496.045     1384893.178       -2363.824          33.000  
  20188973.833    -1764650.877        1298.384          49.000  
  21726302.138    -2675273.419        2374.543          51.000  
 16  9 24 21 40  9.0000000  0 10G30G18G 4G 5G20G24G13G29G15G21
  24902833.469       80767.0282       -497.295          41.000  
  22628681.621     -128436.9972       2535.886          31.000  
  22066171.898     1751481.302       -1890.651          50.000  
  22838242.787     2483967.599       -2366.637          48.000  
  19950612.410     -421182.248         234.951          47.000  
  24988061.415    -1062276.4893       3694.900          21.000  
  20809182.108      229308.094        -535.083          49.000  
  21582585.880     1385365.935       -2364.453          33.000  
  20188924.414    -1764910.568        1298.434          49.000  
  21726211.851    -2675748.337        2374.447          51.000  
 16  9 24 21 40  9.2000000  0 10G30G18G 4G 5G20G24G13G29G15G21
  24902852.316       80866.4562       -497.726          41.000  
  22628585.191     -128944.0692       2536.823          31.000  
  22066243.793     1751859.427       -1890.448          50.000  
  22838333.004     2484440.931       -2366.435          48.000  
  19950603.475     -421229.264         235.037          47.000  
  24987921.464    -1063015.6683       3700.610          21.000  
  20809202.560      229415.125        -534.909          49.000  
  21582675.853     1385838.650       -2364.600          33.000  
  20188875.030    -1765170.267        1298.483          49.000  
  21726121.320    -2676223.276        2374.797          51.000  
 16  9 24 21 40  9.4000000  0 10G30G18G 4G 5G20G24G13G29G15G21
  24902871.022       80965.8842       -497.187          41.000  
  22628488.657     -129451.1592       2536.418          31.000  
  22066315.757     1752237.533       -1890.714          50.000  
  22838423.117     2484914.227       -2366.442          48.000  
  19950594.611     -421276.309         235.160          47.000  
  24987780.641    -1063755.6483       3700.486          22.000  
  20809222.802      229522.152        -535.212          49.000  
  21582765.826     1386311.349       -2363.218          33.000  
  20188825.681    -1765429.977        1298.641          49.000  
  21726030.858    -2676698.241        2374.846          51.000  
 16  9 24 21 40  9.6000000  0 10G30G18G 4G 5G20G24G13G29G15G21
  24902890.009       81065.3132       -497.297          41.000  
  22628392.088     -129958.1972       2535.681          32.000  
  22066387.723     1752615.651       -1890.739          50.000  
  22838513.336     2485387.520       -2366.268          48.000  
  19950585.816     -421323.343         234.718          47.000  
  24987639.958    -1064495.9593       3703.402          22.000  
  20809243.359      229629.193        -535.129          48.000  
  21582855.835     1386784.084       -2363.934          33.000  
  20188776.333    -1765689.667        1298.568          49.000  
  21725940.606    -2677173.210        2374.892          51.000  
 16  9 24 21 40  9.8000000  0 10G30G18G 4G 5G20G24G13G29G15G21
  24902908.681       81164.7722       -497.577          41.000  
  22628295.902     -130465.3092       2534.591          32.000  
  22066459.548     1752993.779       -1890.842          50.000  
  22838603.309     2485860.802       -2366.602          48.000  
  19950576.882     -421370.365         235.037          47.000  
  24987499.309    -1065234.5523       3683.861          22.000  
  20809263.497      229736.248        -535.409          48.000  
  21582945.739     1387256.827       -2363.164          33.000  
  20188727.053    -1765949.347        1298.277          49.000  
  21725850.109    -2677648.185        2374.613          51.000  
 16  9 24 21 40 10.0000000  0 10G30G18G 4G 5G20G24G13G29G15G21
  24902927.283       81264.2622       -497.439          41.000  
  22628199.613     -130972.3252       2535.726          32.000  
  22066531.688     1753371.954       -1890.613          50.000  
  22838693.527     2486334.123       -2366.398          48.000  
  19950568.297     -421417.348         235.129          47.000  
  24987358.905    -1065973.3773       3699.103          22.000  
  20809283.915      229843.365        -535.519          49.000  
  21583035.748     1387729.590       -2364.408          33.000  
  20188677.635    -1766208.969        1298.216          49.000  
  21725759.822    -2678123.104        2374.919          51.000  
 16  9 24 21 40 10.2000000  0 10G30G18G 4G 5G20G24G13G29G15G21
  24902946.095       81363.7432       -498.341          41.000  
  22628103.357     -131479.3782       2537.399          32.000  
  22066603.513     1753750.122       -1890.805          50.000  
  22838783.466     2486807.428       -2366.165          48.000  
  19950559.118     -421464.338         235.135          47.000  
  24987218.815    -1066713.1173       3693.473          22.000  
  20809304.506      229950.487        -535.598          49.000  
  21583125.756     1388202.362       -2364.908          33.000  
  20188628.111    -1766468.587        1298.167          49.000  
  21725669.430    -2678598.039        2374.649          51.000  
 16  9 24 21 40 10.4000000  0 10G30G18G 4G 5G20G24G13G29G15G21
  24902965.011       81463.2472       -497.665          41.000  
  22628007.102     -131986.4472       2536.503          32.000  
  22066675.652     1754128.295       -1890.837          50.000  
  22838873.300     2487280.707       -2366.443          48.000  
  19950550.009     -421511.332         235.036          47.000  
  24987078.166    -1067451.9243       3694.670          22.000  
  20809324.609      230057.604        -535.777          49.000  
  21583215.799     1388675.070       -2364.856          33.000  
  20188578.448    -1766728.201        1297.890          49.000  
  21725579.283    -2679072.983        2374.817          51.000  
 16  9 24 21 40 10.6000000  0 10G30G18G 4G 5G20G24G13G29G15G21
  24902983.718       81562.7862       -497.512          41.000  
  22627910.708     -132493.5392       2534.515          32.000  
  22066747.478     1754506.503       -1890.893          50.000  
  22838963.378     2487754.022       -2366.284          48.000  
  19950541.250     -421558.289         234.944          47.000  
  24986937.728    -1068191.8283       3703.441          22.000  
  20809345.026      230164.778        -535.919          49.000  
  21583306.192     1389147.908       -2362.209          32.000  
  20188529.030    -1766987.757        1297.721          49.000  
  21725489.101    -2679547.902        2374.857          51.000  
 16  9 24 21 40 10.8000000  0 10G30G18G 4G 5G20G24G13G29G15G21
  24903002.355       81662.3452       -497.660          41.000  
  22627814.278     -133000.5942       2534.594          32.000  
  22066819.583     1754884.717       -1890.852          50.000  
  22839053.422     2488227.318       -2366.323          48.000  
  19950532.455     -421605.254         234.896          47.000  
  24986796.695    -1068932.4303       3694.196          22.000  
  20809365.373      230271.962        -535.798          49.000  
  21583396.270     1389620.695       -2362.375          32.000  
  20188479.820    -1767247.309        1297.819          49.000  
  21725398.674    -2680022.823        2374.580          51.000  
 16  9 24 21 40 11.0000000  0 10G30G18G 4G 5G20G24G13G29G15G21
  24903021.027       81761.9062       -498.285          41.000  
  22627718.057     -133507.6422       2534.273          33.000  
  22066891.443     1755262.933       -1891.525          50.000  
  22839143.500     2488700.616       -2366.524          48.000  
  19950523.556     -421652.209         234.393          47.000  
  24986655.872    -1069671.5793       3697.429          23.000  
  20809385.685      230379.160        -536.420          49.000  
  21583486.279     1390093.535       -2362.804          32.000  
  20188430.646    -1767506.841        1297.773          49.000  
  21725308.351    -2680497.743        2374.608          51.000  
 16  9 24 21 40 11.2000000  0 10G30G18G 4G 5G20G24G13G29G15G21
  24903039.769       81861.4792       -498.533          41.000  
  22627621.942     -134014.6942       2535.606          33.000  
  22066963.513     1755641.182       -1891.635          50.000  
  22839233.544     2489173.908       -2366.893          48.000  
  19950514.622     -421699.153         234.399          47.000  
  24986515.468    -1070411.2713       3699.366          23.000  
  20809405.858      230486.387        -536.700          49.000  
  21583576.183     1390566.339       -2364.791          32.000  
  20188381.123    -1767766.353        1296.933          49.000  
  21725217.995    -2680972.648        2374.279          51.000  
 16  9 24 21 40 11.4000000  0 10G30G18G 4G 5G20G24G13G29G15G21
  24903058.546       81961.0962       -497.757          41.000  
  22627525.617     -134521.7232       2534.814          33.000  
  22067035.722     1756019.450       -1891.289          50.000  
  22839323.587     2489647.221       -2366.554          48.000  
  19950505.583     -421746.066         234.604          47.000  
  24986374.575    -1071150.3073       3695.385          23.000  
  20809426.170      230593.647        -536.315          49.000  
  21583665.947     1391039.227       -2363.846          32.000  
  20188331.773    -1768025.824        1297.224          49.000  
  21725127.707    -2681447.535        2374.446          51.000  
 16  9 24 21 40 11.6000000  0 10G30G18G 4G 5G20G24G13G29G15G21
  24903077.532       82060.7632       -498.133          41.000  
  22627429.188     -135028.7032       2535.647          33.000  
  22067107.792     1756397.749       -1891.386          50.000  
  22839413.700     2490120.558       -2366.384          48.000  
  19950496.719     -421792.951         234.508          47.000  
  24986234.276    -1071889.6963       3700.884          24.000  
  20809446.693      230700.945        -536.658          49.000  
  21583756.095     1391512.079       -2364.802          32.000  
  20188282.425    -1768285.256        1297.199          49.000  
  21725037.386    -2681922.408        2374.286          51.000  
 16  9 24 21 40 11.8000000  0 10G30G18G 4G 5G20G24G13G29G15G21
  24903096.344       82160.3982       -498.751          41.000  
  22627332.863     -135535.7392       2535.753          33.000  
  22067179.827     1756776.034       -1891.099          50.000  
  22839503.569     2490593.848       -2366.481          48.000  
  19950487.959     -421839.857         234.328          47.000  
  24986093.244    -1072629.8903       3699.133          24.000  
  20809467.354      230808.239        -536.437          49.000  
  21583846.278     1391984.969       -2365.129          32.000  
  20188232.936    -1768544.708        1297.173          49.000  
  21724946.994    -2682397.303        2374.398          51.000  
 16  9 24 21 40 12.0000000  0 10G30G18G 4G 5G20G24G13G29G15G21
  24903115.364       82260.0952       -497.986          41.000  
  22627236.363     -136042.7862       2535.163          33.000  
  22067251.652     1757154.362       -1891.651          50.000  
  22839593.647     2491067.175       -2366.398          48.000  
  19950478.885     -421886.730         234.406          47.000  
  24985952.176    -1073369.9493       3701.628          25.000  
  20809487.631      230915.580        -536.427          49.000  
  21583936.286     1392457.899       -2364.058          32.000  
  20188183.552    -1768804.092        1297.092          49.000  
  21724856.427    -2682872.156        2374.484          51.000  
 16  9 24 21 40 12.2000000  0 10G30G18G 4G 5G20G24G13G29G15G21
  24903134.107       82359.7882       -498.487          41.000  
  22627140.109     -136550.339        2532.917          33.000  
  22067323.757     1757532.678       -1891.629          50.000  
  22839683.796     2491540.485       -2366.619          48.000  
  19950469.777     -421933.612         234.244          47.000  
  24985811.458    -1074110.0823       3700.036          25.000  
  20809508.223      231022.926        -537.010          49.000  
  21584026.435     1392930.758       -2365.830          32.000  
  20188134.239    -1769063.481        1296.927          49.000  
  21724766.176    -2683347.030        2374.520          51.000  
 16  9 24 21 40 12.4000000  0 10G30G18G 4G 5G20G24G13G29G15G21
  24903152.988       82459.4652       -498.221          41.000  
  22627043.539     -137056.8163       2533.763          32.000  
  22067395.687     1757910.991       -1891.992          50.000  
  22839773.839     2492013.761       -2366.740          48.000  
  19950460.737     -421980.498         234.199          47.000  
  24985670.705    -1074850.1943       3701.000          25.000  
  20809528.745      231130.267        -536.950          49.000  
  21584116.513     1393403.680       -2365.028          32.000  
  20188084.785    -1769322.875        1296.879          49.000  
  21724675.818    -2683821.915        2374.352          51.000  
 16  9 24 21 40 12.6000000  0 10G30G18G 4G 5G20G24G13G29G15G21
  24903171.800       82559.1602       -498.577          41.000  
  22626947.215     -137563.9192       2536.060          32.000  
  22067467.687     1758289.310       -1891.566          50.000  
  22839864.057     2492487.040       -2366.698          48.000  
  19950451.804     -422027.394         234.432          47.000  
  24985529.045    -1075590.4223       3700.206          26.000  
  20809549.057      231237.613        -537.024          49.000  
  21584206.697     1393876.597       -2364.212          32.000  
  20188035.436    -1769582.246        1296.917          49.000  
  21724585.462    -2684296.811        2374.485          51.000  
 16  9 24 21 40 12.8000000  0 10G30G18G 4G 5G20G24G13G29G15G21
  24903190.576       82658.9282       -498.547          40.000  
  22626850.855     -138070.9602       2534.110          32.000  
  22067539.722     1758667.685       -1891.925          50.000  
  22839954.205     2492960.364       -2366.628          48.000  
  19950442.904     -422074.226         234.402          47.000  
  24985388.815    -1076330.5663       3701.505          26.000  
  20809569.649      231345.035        -536.915          49.000  
  21584296.635     1394349.541       -2366.793          32.000  
  20187986.122    -1769841.559        1296.541          49.000  
  21724495.035    -2684771.646        2374.031          51.000  
 16  9 24 21 40 13.0000000  0 10G30G18G 4G 5G20G24G13G29G15G21
  24903209.388       82758.6622       -498.869          40.000  
  22626754.355     -138577.9772       2535.446          32.000  
  22067611.721     1759046.065       -1891.744          50.000  
  22840044.388     2493433.662       -2366.767          48.000  
  19950434.284     -422121.070         234.246          47.000  
  24985247.712    -1077070.7283       3700.207          26.000  
  20809590.100      231452.462        -537.173          49.000  
  21584386.713     1394822.500       -2365.265          31.000  
  20187936.808    -1770100.877        1296.342          49.000  
  21724404.817    -2685246.498        2374.035          51.000  
 16  9 24 21 40 13.2000000  0 10G30G18G 4G 5G20G24G13G29G15G21
  24903228.479       82858.4142       -499.007          40.000  
  22626657.926     -139085.0082       2536.184          32.000  
  22067683.687     1759424.422       -1891.908          50.000  
  22840134.606     2493906.932       -2366.275          48.000  
  19950425.280     -422167.930         234.637          47.000  
  24985106.087    -1077810.9063       3700.672          26.000  
  20809610.553      231559.875        -537.315          49.000  
  21584476.687     1395295.407       -2363.871          32.000  
  20187887.285    -1770360.195        1296.685          49.000  
  21724314.810    -2685721.369        2374.579          51.000  
 16  9 24 21 40 13.4000000  0 10G30G18G 4G 5G20G24G13G29G15G21
  24903247.116       82958.1652       -499.335          41.000  
  22626561.531     -139592.0752       2535.270          33.000  
  22067755.721     1759802.823       -1891.227          50.000  
  22840224.789     2494380.213       -2366.133          48.000  
  19950416.485     -422214.782         234.484          47.000  
  24984965.299    -1078551.1293       3700.451          26.000  
  20809630.795      231667.326        -537.031          49.000  
  21584566.765     1395768.364       -2364.316          32.000  
  20187837.901    -1770619.483        1296.507          49.000  
  21724224.418    -2686196.243        2374.326          51.000  
 16  9 24 21 40 13.6000000  0 10G30G18G 4G 5G20G24G13G29G15G21
  24903265.928       83057.9982       -498.859          41.000  
  22626465.172     -140099.0602       2535.750          33.000  
  22067827.582     1760181.220       -1891.700          50.000  
  22840314.449     2494853.514       -2366.479          48.000  
  19950407.273     -422261.588         234.125          47.000  
  24984824.686    -1079291.3003       3701.384          26.000  
  20809651.317      231774.820        -537.304          49.000  
  21584656.739     1396241.361       -2364.815          32.000  
  20187788.692    -1770878.716        1296.636          49.000  
  21724133.887    -2686671.072        2374.282          51.000  
 16  9 24 21 40 13.8000000  0 10G30G18G 4G 5G20G24G13G29G15G21
  24903284.984       83157.8032       -499.226          41.000  
  22626368.777     -140606.1162       2535.298          33.000  
  22067899.861     1760559.629       -1891.941          50.000  
  22840404.492     2495326.788       -2366.193          48.000  
  19950398.198     -422308.418         234.438          47.000  
  24984683.339    -1080031.5533       3701.594          26.000  
  20809671.629      231882.309        -537.340          49.000  
  21584746.818     1396714.379       -2365.536          32.000  
  20187739.413    -1771137.967        1296.222          49.000  
  21724043.460    -2687145.920        2374.510          51.000  
 16  9 24 21 40 14.0000000  0 10G30G18G 4G 5G20G24G13G29G15G21
  24903304.074       83257.6412       -499.288          40.000  
  22626272.242     -141113.1532       2535.753          32.000  
  22067971.616     1760938.062       -1891.778          50.000  
  22840494.535     2495800.080       -2366.317          48.000  
  19950389.473     -422355.219         234.123          47.000  
  24984542.411    -1080771.7893       3700.845          26.000  
  20809692.186      231989.826        -537.516          49.000  
  21584836.756     1397187.334       -2366.580          32.000  
  20187690.028    -1771397.170        1296.091          49.000  
  21723953.103    -2687620.754        2374.224          51.000  
 16  9 24 21 40 14.2000000  0 10G30G18G 4G 5G20G24G13G29G15G21
  24903322.991       83357.4752       -499.761          40.000  
  22626175.778     -141620.2152       2534.418          32.000  
  22068043.617     1761316.488       -1892.381          50.000  
  22840584.614     2496273.346       -2366.642          48.000  
  19950380.784     -422402.033         233.543          47.000  
  24984400.856    -1081512.0593       3701.320          26.000  
  20809712.464      232097.349        -537.799          49.000  
  21584926.800     1397660.368       -2365.285          32.000  
  20187640.610    -1771656.387        1295.896          49.000  
  21723863.060    -2688095.609        2373.988          51.000  
 16  9 24 21 40 14.4000000  0 10G30G18G 4G 5G20G24G13G29G15G21
  24903342.012       83457.3852       -499.052          40.000  
  22626079.383     -142127.1992       2534.760          33.000  
  22068115.756     1761694.968       -1892.305          50.000  
  22840674.622     2496746.655       -2366.644          48.000  
  19950371.919     -422448.786         234.155          47.000  
  24984259.684    -1082252.2233       3701.144          26.000  
  20809732.846      232204.938        -537.945          49.000  
  21585017.052     1398133.419       -2366.598          32.000  
  20187591.296    -1771915.533        1295.737          49.000  
  21723772.738    -2688570.408        2374.265          51.000  
 16  9 24 21 40 14.6000000  0 10G30G18G 4G 5G20G24G13G29G15G21
  24903360.998       83557.2492       -499.428          40.000  
  22625982.988     -142634.2412       2535.429          33.000  
  22068187.755     1762073.429       -1892.477          50.000  
  22840764.666     2497219.929       -2366.301          48.000  
  19950363.020     -422495.572         233.733          47.000  
  24984118.267    -1082992.4803       3700.523          26.000  
  20809753.472      232312.508        -538.156          49.000  
  21585107.165     1398606.469       -2362.883          32.000  
  20187541.947    -1772174.684        1295.608          49.000  
  21723682.206    -2689045.237        2374.041          51.000  
 16  9 24 21 40 14.8000000  0 10G30G18G 4G 5G20G24G13G29G15G21
  24903379.880       83657.1652       -499.284          40.000  
  22625886.664     -143141.2272       2535.514          33.000  
  22068259.895     1762451.919       -1892.366          50.000  
  22840854.605     2497693.220       -2366.298          48.000  
  19950354.016     -422542.342         234.087          47.000  
  24983977.061    -1083732.7503       3701.450          26.000  
  20809773.540      232420.121        -537.720          48.000  
  21585197.454     1399079.546       -2366.290          32.000  
  20187492.703    -1772433.808        1296.250          49.000  
  21723591.989    -2689520.044        2374.396          51.000  
 16  9 24 21 40 15.0000000  0 10G30G18G 4G 5G20G24G13G29G15G21
  24903398.866       83757.0452       -499.552          40.000  
  22625790.339     -143648.2942       2535.344          33.000  
  22068331.790     1762830.385       -1892.480          50.000  
  22840944.613     2498166.462       -2366.543          48.000  
  19950345.186     -422589.128         233.835          47.000  
  24983836.761    -1084473.0373       3701.552          27.000  
  20809793.852      232527.705        -538.046          48.000  
  21585287.322     1399552.561       -2364.443          32.000  
  20187443.459    -1772692.944        1295.607          49.000  
  21723501.562    -2689994.893        2374.048          51.000  
 16  9 24 21 40 15.2000000  0 10G30G18G 4G 5G20G24G13G29G15G21
  24903417.852       83856.9342       -498.625          40.000  
  22625694.189     -144155.3552       2537.411          33.000  
  22068404.000     1763208.837       -1892.099          50.000  
  22841034.657     2498639.689       -2365.878          48.000  
  19950336.462     -422635.929         234.092          47.000  
  24983695.869    -1085213.3383       3701.646          26.000  
  20809814.549      232635.294        -537.750          48.000  
  21585377.296     1400025.583       -2365.686          32.000  
  20187394.075    -1772952.085        1295.935          49.000  
  21723411.206    -2690469.759        2374.486          51.000  
 16  9 24 21 40 15.4000000  0 10G30G18G 4G 5G20G24G13G29G15G21
  24903437.013       83956.8492       -499.557          40.000  
  22625597.968     -144662.4472       2535.982          33.000  
  22068475.720     1763587.332       -1892.366          50.000  
  22841124.491     2499112.926       -2366.137          48.000  
  19950327.562     -422682.702         233.854          47.000  
  24983555.220    -1085953.6653       3702.406          26.000  
  20809835.315      232742.927        -538.100          48.000  
  21585467.235     1400498.610       -2366.000          32.000  
  20187344.761    -1773211.192        1295.543          49.000  
  21723320.849    -2690944.599        2374.202          51.000  
 16  9 24 21 40 15.6000000  0 10G30G18G 4G 5G20G24G13G29G15G21
  24903455.963       84056.7982       -500.163          40.000  
  22625501.538     -145169.5452       2536.230          33.000  
  22068547.860     1763965.817       -1892.578          50.000  
  22841214.499     2499586.159       -2366.236          48.000  
  19950318.384     -422729.479         234.050          47.000  
  24983414.362    -1086694.0043       3701.144          26.000  
  20809855.662      232850.568        -538.025          49.000  
  21585557.348     1400971.713       -2365.646          32.000  
  20187295.342    -1773470.282        1295.618          49.000  
  21723230.317    -2691419.451        2374.190          51.000  
 16  9 24 21 40 15.8000000  0 10G30G18G 4G 5G20G24G13G29G15G21
  24903475.229       84156.7092       -499.781          39.000  
  22625405.214     -145676.6012       2535.034          33.000  
  22068619.860     1764344.302       -1892.474          50.000  
  22841304.648     2500059.371       -2365.959          48.000  
  19950309.624     -422776.263         234.174          47.000  
  24983272.562    -1087434.3833       3702.701          27.000  
  20809876.184      232958.205        -538.004          49.000  
  21585647.636     1401444.746       -2364.711          32.000  
  20187246.133    -1773729.376        1295.533          49.000  
  21723139.996    -2691894.313        2374.144          51.000  
 16  9 24 21 40 16.0000000  0 10G30G18G 4G 5G20G24G13G29G15G21
  24903494.285       84256.6942       -500.189          39.000  
  22625308.749     -146183.7032       2534.905          33.000  
  22068691.895     1764722.836       -1892.666          50.000  
  22841394.481     2500532.602       -2366.434          48.000  
  19950300.864     -422823.010         233.524          47.000  
  24983131.425    -1088174.7493       3701.937          27.000  
  20809896.741      233065.890        -538.780          49.000  
  21585737.540     1401917.798       -2366.726          32.000  
  20187196.749    -1773988.421        1295.021          49.000  
  21723049.673    -2692369.144        2373.962          51.000  
 16  9 24 21 40 16.2000000  0 10G30G18G 4G 5G20G24G13G29G15G21
  24903513.341       84356.6602       -500.339          40.000  
  22625212.285     -146690.7292       2534.214          33.000  
  22068764.209     1765101.351       -1892.894          50.000  
  22841484.246     2501005.814       -2366.573          48.000  
  19950291.931     -422869.768         234.172          47.000  
  24982990.219    -1088915.1353       3702.075          27.000  
  20809917.263      233173.588        -538.719          49.000  
  21585827.688     1402390.877       -2365.455          32.000  
  20187147.331    -1774247.463        1294.937          49.000  
  21722959.491    -2692843.978        2374.182          51.000  
 16  9 24 21 40 16.4000000  0 10G30G18G 4G 5G20G24G13G29G15G21
  24903532.397       84456.6872       -499.940          40.000  
  22625115.855     -147197.7782       2533.602          33.000  
  22068836.348     1765479.908       -1892.737          50.000  
  22841574.324     2501479.056       -2366.467          48.000  
  19950283.206     -422916.496         233.320          47.000  
  24982848.767    -1089655.4843       3702.480          27.000  
  20809937.715      233281.311        -538.931          49.000  
  21585917.836     1402864.014       -2365.613          32.000  
  20187098.156    -1774506.455        1294.714          49.000  
  21722869.169    -2693318.793        2373.868          51.000  
 16  9 24 21 40 16.6000000  0 10G30G18G 4G 5G20G24G13G29G15G21
  24903551.488       84556.7352       -499.931          40.000  
  22625019.495     -147704.8352       2535.475          33.000  
  22068908.522     1765858.493       -1892.874          50.000  
  22841664.402     2501952.303       -2366.271          48.000  
  19950274.236     -422963.207         233.313          47.000  
  24982706.757    -1090395.8783       3702.153          27.000  
  20809958.410      233389.081        -538.999          49.000  
  21586007.844     1403337.142       -2365.883          32.000  
  20187048.947    -1774765.420        1295.092          49.000  
  21722778.812    -2693793.589        2374.008          51.000  
 16  9 24 21 40 16.8000000  0 10G30G18G 4G 5G20G24G13G29G15G21
  24903570.788       84656.7472       -500.344          40.000  
  22624922.822     -148211.8922       2536.076          33.000  
  22068980.802     1766237.054       -1892.856          50.000  
  22841754.341     2502425.523       -2366.407          48.000  
  19950265.442     -423009.932         232.764          47.000  
  24982565.202    -1091136.2533       3702.250          27.000  
  20809978.898      233496.842        -539.101          49.000  
  21586098.028     1403810.337       -2364.111          32.000  
  20186999.668    -1775024.391        1294.651          49.000  
  21722688.490    -2694268.409        2374.068          51.000  
 16  9 24 21 40 17.0000000  0 10G30G18G 4G 5G20G24G13G29G15G21
  24903589.844       84756.8312       -499.569          40.000  
  22624826.287     -148718.9312       2534.135          33.000  
  22069052.802     1766615.657       -1892.896          50.000  
  22841844.280     2502898.767       -2366.121          48.000  
  19950256.438     -423056.620         233.807          47.000  
  24982423.611    -1091876.6663       3702.538          27.000  
  20809999.419      233604.641        -538.827          49.000  
  21586188.106     1404283.430       -2365.562          32.000  
  20186950.389    -1775283.322        1294.834          49.000  
  21722597.959    -2694743.214        2374.056          51.000  
 16  9 24 21 40 17.2000000  0 10G30G18G 4G 5G20G24G13G29G15G21
  24903608.935       84856.8812       -500.621          40.000  
  22624729.928     -149225.9912       2535.106          33.000  
  22069124.837     1766994.233       -1892.960          50.000  
  22841934.394     2503371.963       -2365.925          48.000  
  19950247.609     -423103.348         233.184          47.000  
  24982282.125    -1092617.0683       3702.754          26.000  
  20810020.151      233712.426        -538.777          49.000  
  21586278.150     1404756.550       -2365.706          31.000  
  20186901.145    -1775542.263        1294.605          49.000  
  21722507.672    -2695218.037        2374.312          51.000  
 16  9 24 21 40 17.4000000  0 10G30G18G 4G 5G20G24G13G29G15G21
  24903628.096       84956.9582       -500.045          40.000  
  22624633.463     -149733.0602       2535.745          32.000  
  22069197.011     1767372.832       -1892.996          50.000  
  22842024.332     2503845.167       -2366.161          48.000  
  19950238.744     -423150.049         233.509          47.000  
  24982140.604    -1093357.5463       3701.920          26.000  
  20810040.603      233820.239        -538.958          49.000  
  21586368.193     1405229.698       -2367.133          31.000  
  20186852.145    -1775801.186        1294.597          49.000  
  21722417.385    -2695692.858        2374.273          51.000  
 16  9 24 21 40 17.6000000  0 10G30G18G 4G 5G20G24G13G29G15G21
  24903647.151       85057.0742       -500.452          39.000  
  22624536.929     -150240.1422       2537.009          33.000  
  22069268.801     1767751.462       -1892.898          50.000  
  22842114.410     2504318.398       -2365.786          48.000  
  19950229.845     -423196.727         233.644          47.000  
  24982000.793    -1094097.9393       3703.100          26.000  
  20810061.124      233928.086        -539.041          49.000  
  21586458.341     1405702.938       -2364.417          31.000  
  20186802.621    -1776060.064        1294.460          49.000  
  21722326.818    -2696167.659        2374.223          51.000  
 16  9 24 21 40 17.8000000  0 10G30G18G 4G 5G20G24G13G29G15G21
  24903666.313       85157.1632       -500.583          39.000  
  22624440.430     -150747.1882       2534.932          32.000  
  22069340.767     1768130.054       -1892.930          50.000  
  22842204.384     2504791.572       -2365.883          48.000  
  19950221.016     -423243.437         233.475          47.000  
  24981859.238    -1094838.4303       3702.752          26.000  
  20810081.612      234035.913        -539.137          49.000  
  21586548.385     1406176.063       -2366.217          31.000  
  20186753.342    -1776318.967        1294.442          49.000  
  21722236.392    -2696642.488        2374.152          51.000  
 16  9 24 21 40 18.0000000  0 10G30G18G 4G 5G20G24G13G29G15G21
  24903685.647       85257.2832       -499.719          39.000  
  22624343.965     -151254.2642       2535.521          33.000  
  22069413.046     1768508.702       -1893.032          50.000  
  22842294.567     2505264.787       -2365.728          48.000  
  19950212.046     -423290.110         233.561          47.000  
  24981718.554    -1095578.8893       3702.446          26.000  
  20810102.238      234143.798        -539.274          49.000  
  21586638.533     1406649.293       -2364.864          31.000  
  20186703.958    -1776577.808        1294.305          49.000  
  21722146.035    -2697117.283        2374.354          51.000  
 16  9 24 21 40 18.2000000  0 10G30G18G 4G 5G20G24G13G29G15G21
  24903704.844       85357.381        -500.104          39.000  
  22624247.501     -151761.3932       2535.535          32.000  
  22069485.081     1768887.311       -1892.833          50.000  
  22842384.716     2505737.952       -2365.467          48.000  
  19950203.182     -423336.817         233.752          47.000  
  24981576.789    -1096319.3813       3702.644          26.000  
  20810122.760      234251.659        -538.938          49.000  
  21586728.751     1407122.462       -2365.420          31.000  
  20186654.680    -1776836.678        1294.860          49.000  
  21722055.922    -2697592.127        2374.399          51.000  
 16  9 24 21 40 18.4000000  0 10G30G18G 4G 5G20G24G13G29G15G21
  24903723.829       85457.489        -501.170          39.000  
  22624150.687     -152268.4892       2535.558          32.000  
  22069557.046     1769265.916       -1892.872          50.000  
  22842474.654     2506211.095       -2365.615          48.000  
  19950194.213     -423383.537         233.924          47.000  
  24981435.687    -1097059.9453       3703.046          26.000  
  20810143.561      234359.510        -539.374          49.000  
  21586819.003     1407595.615       -2367.033          31.000  
  20186605.400    -1777095.557        1294.251          49.000  
  21721965.495    -2698066.980        2374.417          51.000  
 16  9 24 21 40 18.6000000  0 10G30G18G 4G 5G20G24G13G29G15G21
  24903742.780       85557.659        -499.975          39.000  
  22624054.222     -152775.6432       2535.214          32.000  
  22069629.150     1769644.555       -1893.117          50.000  
  22842564.662     2506684.258       -2365.992          48.000  
  19950185.488     -423430.227         233.370          47.000  
  24981294.340    -1097800.5053       3702.699          26.000  
  20810163.942      234467.405        -539.328          49.000  
  21586909.047     1408068.778       -2367.629          31.000  
  20186556.086    -1777354.383        1294.262          49.000  
  21721875.033    -2698541.814        2373.972          51.000  
 16  9 24 21 40 18.8000000  0 10G30G18G 4G 5G20G24G13G29G15G21
  24903761.907       85657.759        -501.217          39.000  
  22623957.689     -153282.7502       2533.974          33.000  
  22069701.185     1770023.169       -1892.840          50.000  
  22842654.567     2507157.378       -2365.330          48.000  
  19950176.414     -423476.944         233.563          47.000  
  24981152.366    -1098541.0293       3703.724          26.000  
  20810184.465      234575.285        -539.182          49.000  
  21586999.195     1408541.911       -2364.558          31.000  
  20186506.982    -1777613.230        1294.725          49.000  
  21721784.747    -2699016.672        2374.476          51.000  
 16  9 24 21 40 19.0000000  0 10G30G18G 4G 5G20G24G13G29G15G21
  24903780.578       85757.885        -501.010          38.000  
  22623861.049     -153789.9362       2533.451          33.000  
  22069773.220     1770401.781       -1893.218          50.000  
  22842744.435     2507630.478       -2365.638          48.000  
  19950167.585     -423523.672         233.605          47.000  
  24981011.228    -1099281.6693       3702.522          26.000  
  20810204.882      234683.160        -539.318          49.000  
  21587089.413     1409015.069       -2366.177          32.000  
  20186457.702    -1777872.076        1294.368          49.000  
  21721694.494    -2699491.553        2374.389          51.000  
 16  9 24 21 40 19.2000000  0 10G30G18G 4G 5G20G24G13G29G15G21
  24903799.739       85858.027        -501.141          38.000  
  22623764.689     -154297.0462       2538.139          33.000  
  22069845.010     1770780.424       -1893.250          50.000  
  22842834.408     2508103.605       -2365.516          48.000  
  19950158.755     -423570.368         233.118          47.000  
  24980869.882    -1100022.2563       3702.734          26.000  
  20810225.298      234791.092        -539.602          49.000  
  21587179.735     1409488.284       -2366.542          32.000  
  20186408.388    -1778130.887        1293.886          49.000  
  21721604.207    -2699966.407        2374.426          51.000  
 16  9 24 21 40 19.4000000  0 10G30G18G 4G 5G20G24G13G29G15G21
  24903818.725       85958.235        -500.296          38.000  
  22623668.260     -154804.1382       2535.499          33.000  
  22069917.290     1771159.087       -1893.195          50.000  
  22842924.452     2508576.737       -2365.551          48.000  
  19950149.996     -423617.042         233.311          47.000  
  24980728.466    -1100762.8263       3702.319          26.000  
  20810245.925      234899.049        -539.505          49.000  
  21587270.128     1409961.494       -2365.573          32.000  
  20186358.830    -1778389.653        1294.176          49.000  
  21721513.990    -2700441.245        2374.437          51.000  
 16  9 24 21 40 19.6000000  0 10G30G18G 4G 5G20G24G13G29G15G21
  24903837.606       86058.393        -500.790          38.000  
  22623571.725     -155311.3472       2533.986          33.000  
  22069989.394     1771537.718       -1893.329          50.000  
  22843014.496     2509049.827       -2365.343          48.000  
  19950141.026     -423663.756         233.239          47.000  
  24980586.980    -1101503.5003       3703.481          27.000  
  20810266.342      235006.976        -539.711          49.000  
  21587360.136     1410434.652       -2365.745          32.000  
  20186309.376    -1778648.451        1293.838          49.000  
  21721423.633    -2700916.118        2374.514          51.000  
 16  9 24 21 40 19.8000000  0 10G30G18G 4G 5G20G24G13G29G15G21
  24903856.454       86158.613        -501.844          37.000  
  22623475.331     -155818.4742       2534.703          33.000  
  22070061.743     1771916.397       -1893.779          50.000  
  22843104.540     2509522.940       -2365.699          48.000  
  19950132.232     -423710.422         232.987          47.000  
  24980446.227    -1102244.1253       3703.208          26.000  
  20810287.039      235114.952        -540.148          49.000  
  21587450.285     1410907.888       -2366.155          32.000  
  20186260.272    -1778907.191        1293.579          49.000  
  21721333.207    -2701390.963        2374.108          51.000  
 16  9 24 21 40 20.0000000  0 10G30G18G 4G 5G20G24G13G29G15G21
  24903875.404       86258.827        -500.987          37.000  
  22623378.866     -156325.6102       2536.250          33.000  
  22070133.987     1772295.086       -1893.645          50.000  
  22843194.373     2509996.044       -2365.602          48.000  
  19950123.333     -423757.096         233.394          47.000  
  24980305.927    -1102984.7943       3703.811          26.000  
  20810307.421      235222.961        -540.082          49.000  
  21587540.398     1411381.130       -2365.784          32.000  
  20186210.888    -1779165.922        1293.491          49.000  
  21721243.024    -2701865.801        2374.346          51.000  
 16  9 24 21 40 20.2000000  0 10G30G18G 4G 5G20G24G13G29G15G21
  24903894.355       86359.059        -502.307          37.000  
  22623282.332     -156832.7532       2536.394          33.000  
  22070206.057     1772673.788       -1893.324          50.000  
  22843284.312     2510469.148       -2365.326          48.000  
  19950114.363     -423803.751         233.692          47.000  
  24980164.929    -1103725.4383       3703.101          26.000  
  20810328.117      235330.974        -539.841          49.000  
  21587630.511     1411854.363       -2365.979          32.000  
  20186161.504    -1779424.626        1293.892          49.000  
  21721152.702    -2702340.639        2374.568          51.000  
 16  9 24 21 40 20.4000000  0 10G30G18G 4G 5G20G24G13G29G15G21
  24903913.272       86459.269        -500.990          37.000  
  22623186.007     -157339.9162       2535.682          34.000  
  22070277.987     1773052.462       -1893.532          50.000  
  22843374.425     2510942.223       -2365.313          48.000  
  19950105.360     -423850.432         233.646          47.000  
  24980024.351    -1104466.1453       3703.317          26.000  
  20810348.674      235438.969        -540.077          49.000  
  21587720.555     1412327.601       -2366.825          32.000  
  20186112.191    -1779683.352        1293.551          49.000  
  21721062.345    -2702815.512        2374.228          51.000  
 16  9 24 21 40 20.6000000  0 10G30G18G 4G 5G20G24G13G29G15G21
  24903932.293       86559.517        -501.595          37.000  
  22623089.508     -157847.0962       2534.373          34.000  
  22070349.952     1773431.153       -1893.463          50.000  
  22843464.434     2511415.289       -2365.376          48.000  
  19950096.355     -423897.114         233.221          47.000  
  24979883.423    -1105206.8253       3703.313          26.000  
  20810369.300      235546.992        -539.840          49.000  
  21587810.703     1412800.816       -2366.450          32.000  
  20186063.190    -1779942.056        1293.657          49.000  
  21720972.023    -2703290.380        2374.485          51.000  
 16  9 24 21 40 20.8000000  0 10G30G18G 4G 5G20G24G13G29G15G21
  24903951.315       86659.760        -501.088          37.000  
  22622993.079     -158354.2852       2536.784          34.000  
  22070421.987     1773809.843       -1893.509          50.000  
  22843554.443     2511888.340       -2365.485          48.000  
  19950087.736     -423943.789         233.098          47.000  
  24979742.706    -1105947.5443       3704.437          26.000  
  20810389.683      235655.024        -540.200          49.000  
  21587900.991     1413274.042       -2367.324          32.000  
  20186013.912    -1780200.752        1293.177          49.000  
  21720881.667    -2703765.255        2374.395          51.000  
 16  9 24 21 40 21.0000000  0 10G30G18G 4G 5G20G24G13G29G15G21
  24903970.161       86760.013        -502.078          37.000  
  22622896.544     -158861.4472       2535.789          34.000  
  22070494.057     1774188.557       -1893.282          50.000  
  22843644.242     2512361.397       -2365.112          48.000  
  19950078.592     -423990.455         233.508          47.000  
  24979601.533    -1106688.2813       3703.404          26.000  
  20810410.099      235763.081        -540.288          49.000  
  21587991.174     1413747.299       -2367.336          32.000  
  20185964.807    -1780459.413        1293.438          49.000  
  21720791.205    -2704240.115        2374.036          51.000  
 16  9 24 21 40 21.2000000  0 10G30G18G 4G 5G20G24G13G29G15G21
  24903989.077       86860.279        -502.510          34.000  
  22622800.114     -159368.6502       2537.370          34.000  
  22070566.196     1774567.249       -1893.465          50.000  
  22843734.250     2512834.434       -2365.139          48.000  
  19950069.623     -424037.131         233.500          47.000  
  24979460.605    -1107429.0383       3703.961          26.000  
  20810430.656      235871.128        -540.709          49.000  
  21588081.356     1414220.529       -2366.794          32.000  
  20185915.528    -1780718.091        1293.196          49.000  
  21720700.847    -2704715.001        2374.415          51.000  
 16  9 24 21 40 21.4000000  0 10G30G18G 4G 5G20G24G13G29G15G21
  24904007.994       86960.559        -501.694          34.000  
  22622703.895     -159875.8212       2535.968          34.000  
  22070638.266     1774945.977       -1893.726          50.000  
  22843824.049     2513307.482       -2365.451          48.000  
  19950060.584     -424083.779         233.427          47.000  
  24979319.609    -1108169.8443       3703.683          26.000  
  20810451.248      235979.222        -540.805          49.000  
  21588171.540     1414693.806       -2365.478          32.000  
  20185866.423    -1780976.722        1292.972          49.000  
  21720610.666    -2705189.854        2374.298          51.000  
 16  9 24 21 40 21.6000000  0 10G30G18G 4G 5G20G24G13G29G15G21
  24904026.875       87060.862        -501.522          34.000  
  22622607.569     -160383.0432       2536.754          34.000  
  22070710.371     1775324.686       -1893.499          50.000  
  22843913.953     2513780.488       -2365.149          48.000  
  19950051.685     -424130.471         233.274          48.000  
  24979178.785    -1108910.6033       3704.316          26.000  
  20810471.839      236087.298        -540.384          49.000  
  21588261.688     1415167.025       -2367.334          32.000  
  20185817.144    -1781235.377        1293.010          49.000  
  21720520.169    -2705664.749        2374.454          51.000  
 16  9 24 21 40 21.8000000  0 10G30G18G 4G 5G20G24G13G29G15G21
  24904045.652       87161.191        -501.053          34.000  
  22622511.245     -160890.2552       2535.088          33.000  
  22070782.545     1775703.422       -1893.718          50.000  
  22844003.927     2514253.512       -2365.099          48.000  
  19950042.995     -424177.120         233.064          48.000  
  24979038.451    -1109651.4303       3703.982          26.000  
  20810492.327      236195.411        -540.709          49.000  
  21588351.941     1415640.321       -2368.046          32.000  
  20185767.970    -1781493.984        1292.944          49.000  
  21720429.708    -2706139.623        2374.343          51.000  
 16  9 24 21 40 22.0000000  0 10G30G18G 4G 5G20G24G13G29G15G21
  24904064.324       87261.515        -502.966          34.000  
  22622414.396     -161397.4322       2533.232          33.000  
  22070854.650     1776082.182       -1893.962          50.000  
  22844094.005     2514726.562       -2365.394          48.000  
  19950034.305     -424223.762         232.723          48.000  
  24978897.070    -1110392.2443       3704.237          26.000  
  20810512.883      236303.558        -541.034          49.000  
  21588441.949     1416113.584       -2368.076          31.000  
  20185719.075    -1781752.563        1292.628          49.000  
  21720339.420    -2706614.476        2374.127          51.000  
 16  9 24 21 40 22.2000000  0 10G30G18G 4G 5G20G24G13G29G15G21
  24904082.821       87361.885        -500.889          33.000  
  22622317.862     -161904.6232       2537.641          33.000  
  22070926.754     1776460.947       -1893.636          50.000  
  22844183.944     2515199.589       -2364.802          48.000  
  19950025.475     -424270.379         233.220          48.000  
  24978756.177    -1111133.0483       3703.719          26.000  
  20810533.579      236411.720        -540.616          49.000  
  21588532.237     1416586.899       -2366.473          31.000  
  20185669.900    -1782011.127        1292.735          49.000  
  21720249.133    -2707089.332        2374.551          51.000  
 16  9 24 21 40 22.4000000  0 10G30G18G 4G 5G20G24G13G29G15G21
  24904101.389       87462.240        -501.115          33.000  
  22622221.607     -162411.8632       2536.376          33.000  
  22070998.894     1776839.707       -1893.746          50.000  
  22844273.813     2515672.588       -2364.973          48.000  
  19950016.821     -424317.022         233.480          48.000  
  24978615.843    -1111873.8203       3704.692          26.000  
  20810554.276      236519.872        -540.927          49.000  
  21588622.351     1417060.183       -2368.698          31.000  
  20185620.761    -1782269.697        1292.877          49.000  
  21720158.637    -2707564.209        2374.360          51.000  
 16  9 24 21 40 22.6000000  0 10G30G18G 4G 5G20G24G13G29G15G21
  24904120.096       87562.532        -502.364          33.000  
  22622125.177     -162919.0552       2537.176          33.000  
  22071070.929     1777218.445       -1893.637          50.000  
  22844363.682     2516145.564       -2364.871          47.000  
  19950008.130     -424363.684         233.405          48.000  
  24978475.055    -1112614.7143       3705.644          26.000  
  20810574.797      236628.023        -540.501          49.000  
  21588712.289     1417533.426       -2366.477          31.000  
  20185571.482    -1782528.272        1292.915          49.000  
  21720068.245    -2708039.113        2374.525          51.000  
 16  9 24 21 40 22.8000000  0 10G30G18G 4G 5G20G24G13G29G15G21
  24904138.733       87662.904        -502.326          33.000  
  22622028.818     -163426.3202       2535.172          34.000  
  22071143.138     1777597.202       -1893.889          51.000  
  22844453.656     2516618.534       -2365.019          47.000  
  19949999.197     -424410.347         232.903          48.000  
  24978333.325    -1113355.6403       3704.865          26.000  
  20810595.250      236736.185        -541.060          49.000  
  21588802.507     1418006.780       -2366.053          31.000  
  20185522.308    -1782786.835        1292.286          49.000  
  21719977.749    -2708514.011        2374.341          51.000  
 16  9 24 21 40 23.0000000  0 10G30G18G 4G 5G20G24G13G29G15G21
  24904157.370       87763.264        -501.873          33.000  
  22621932.248     -163933.6092       2535.966          34.000  
  22071215.138     1777975.930       -1893.653          51.000  
  22844543.524     2517091.474       -2364.604          47.000  
  19949990.262     -424457.035         233.228          48.000  
  24978192.362    -1114096.5803       3705.083          26.000  
  20810615.980      236844.337        -540.738          49.000  
  21588892.516     1418479.984       -2364.131          31.000  
  20185473.028    -1783045.405        1292.759          49.000  
  21719887.357    -2708988.939        2374.771          51.000  
 16  9 24 21 40 23.2000000  0 10G30G18G 4G 5G20G24G13G29G15G21
  24904176.042       87863.653        -500.991          33.000  
  22621835.749     -164440.8252       2535.709          34.000  
  22071286.963     1778354.723       -1894.208          51.000  
  22844633.672     2517564.452       -2365.013          47.000  
  19949981.328     -424503.645         233.147          48.000  
  24978051.329    -1114837.4833       3705.186          26.000  
  20810636.572      236952.560        -541.605          49.000  
  21588982.803     1418953.287       -2367.134          31.000  
  20185423.679    -1783303.902        1292.420          49.000  
  21719796.860    -2709463.814        2374.294          51.000  
 16  9 24 21 40 23.4000000  0 10G30G18G 4G 5G20G24G13G29G15G21
  24904194.645       87964.057        -503.343          33.000  
  22621739.459     -164948.0392       2536.724          34.000  
  22071359.173     1778733.535       -1893.991          51.000  
  22844723.542     2518037.440       -2364.635          47.000  
  19949972.464     -424550.261         233.205          48.000  
  24977909.879    -1115578.4173       3703.628          26.000  
  20810657.199      237060.807        -541.269          49.000  
  21589073.022     1419426.656       -2367.127          31.000  
  20185374.505    -1783562.376        1292.698          49.000  
  21719706.573    -2709938.685        2374.448          51.000  
 16  9 24 21 40 23.6000000  0 10G30G18G 4G 5G20G24G13G29G15G21
  24904213.491       88064.540        -504.184          32.000  
  22621642.925     -165455.2242       2537.870          34.000  
  22071431.312     1779112.356       -1894.155          51.000  
  22844813.480     2518510.425       -2364.929          47.000  
  19949963.634     -424596.862         233.325          48.000  
  24977769.230    -1116319.3253       3704.674          25.000  
  20810677.860      237169.073        -541.163          49.000  
  21589163.274     1419900.044       -2366.598          31.000  
  20185325.470    -1783820.825        1292.051          49.000  
  21719616.216    -2710413.543        2374.653          51.000  
 16  9 24 21 40 23.8000000  0 10G30G18G 4G 5G20G24G13G29G15G21
  24904231.883       88164.933        -502.513          32.000  
  22621546.425     -165962.5182       2536.320          34.000  
  22071503.312     1779491.163       -1894.013          51.000  
  22844903.488     2518983.376       -2364.664          47.000  
  19949954.595     -424643.486         232.876          48.000  
  24977627.429    -1117060.2153       3706.902          25.000  
  20810698.486      237277.335        -541.356          49.000  
  21589253.178     1420373.358       -2365.300          30.000  
  20185276.121    -1784079.291        1292.137          49.000  
  21719525.754    -2710888.434        2374.233          51.000  
 16  9 24 21 40 24.0000000  0 10G30G18G 4G 5G20G24G13G29G15G21
  24904250.067       88265.379        -502.789          31.000  
  22621449.996     -166469.7582       2537.442          34.000  
  22071575.382     1779869.980       -1894.295          51.000  
  22844993.358     2519456.323       -2364.977          47.000  
  19949945.801     -424690.102         232.871          48.000  
  24977487.061    -1117801.2563       3705.555          25.000  
  20810719.043      237385.606        -541.612          49.000  
  21589343.466     1420846.689       -2365.544          30.000  
  20185226.807    -1784337.730        1292.302          49.000  
  21719435.432    -2711363.316        2374.318          51.000  
 16  9 24 21 40 24.2000000  0 10G30G18G 4G 5G20G24G13G29G15G21
  24904268.146       88365.836        -502.213          31.000  
  22621353.357     -166977.514        2536.850          34.000  
  22071647.556     1780248.813       -1894.338          51.000  
  22845083.401     2519929.276       -2365.063          47.000  
  19949936.762     -424736.706         232.832          48.000  
  24977345.993    -1118542.2373       3704.593          26.000  
  20810739.844      237493.901        -541.716          49.000  
  21589433.439     1421319.995       -2368.406          30.000  
  20185177.737    -1784596.157        1291.568          49.000  
  21719345.215    -2711838.194        2374.252          51.000  
 16  9 24 21 40 24.4000000  0 10G30G18G 4G 5G20G24G13G29G15G21
  24904286.120       88466.360        -502.215          31.000  
  22621256.648     -167484.781        2535.831          34.000  
  22071719.731     1780627.643       -1893.909          51.000  
  22845173.375     2520402.213       -2364.241          47.000  
  19949927.968     -424783.308         233.326          48.000  
  24977204.961    -1119283.2443       3704.271          25.000  
  20810760.436      237602.220        -541.568          49.000  
  21589523.553     1421793.399       -2365.552          30.000  
  20185128.668    -1784854.570        1292.407          49.000  
  21719255.033    -2712313.089        2374.555          51.000  
 16  9 24 21 40 24.6000000  0  9G18G 4G 5G20G24G13G29G15G21
  22621160.184     -167992.038        2536.649          34.000  
  22071791.905     1781006.489       -1894.077          51.000  
  22845263.314     2520875.144       -2364.210          47.000  
  19949919.068     -424829.917         232.941          48.000  
  24977063.719    -1120024.2523       3704.217          25.000  
  20810781.027      237710.538        -541.550          49.000  
  21589613.666     1422266.689       -2367.223          30.000  
  20185079.528    -1785112.966        1291.966          49.000  
  21719164.641    -2712787.970        2374.567          51.000  
 16  9 24 21 40 24.8000000  0  9G18G 4G 5G20G24G13G29G15G21
  22621063.789     -168499.289        2536.395          34.000  
  22071863.940     1781385.330       -1894.482          51.000  
  22845353.252     2521348.066       -2364.284          47.000  
  19949910.098     -424876.518         233.361          48.000  
  24976922.303    -1120765.2433       3704.541          25.000  
  20810801.514      237818.871        -541.542          49.000  
  21589703.814     1422740.105       -2366.904          30.000  
  20185030.354    -1785371.345        1292.304          49.000  
  21719074.214    -2713262.857        2374.239          51.000  
 16  9 24 21 40 25.0000000  0  9G18G 4G 5G20G24G13G29G15G21
  22620967.010     -169006.532        2535.063          34.000  
  22071936.115     1781764.225       -1894.645          51.000  
  22845443.261     2521821.018       -2364.777          47.000  
  19949901.444     -424923.076         232.567          48.000  
  24976781.201    -1121506.2963       3704.766          25.000  
  20810821.931      237927.257        -541.965          49.000  
  21589793.893     1423213.551       -2366.283          30.000  
  20184981.110    -1785629.695        1291.566          49.000  
  21718983.962    -2713737.715        2374.107          51.000  
 16  9 24 21 40 25.2000000  0  9G18G 4G 5G20G24G13G29G15G21
  22620870.371     -169513.774        2534.889          34.000  
  22072008.254     1782143.134       -1894.617          51.000  
  22845533.199     2522293.975       -2364.770          47.000  
  19949892.614     -424969.623         232.620          48.000  
  24976640.552    -1122247.3363       3703.903          25.000  
  20810842.872      238035.671        -542.318          49.000  
  21589884.006     1423686.932       -2368.226          30.000  
  20184931.865    -1785888.000        1291.568          49.000  
  21718893.395    -2714212.560        2374.260          51.000  
 16  9 24 21 40 25.4000000  0  9G18G 4G 5G20G24G13G29G15G21
  22620773.837     -170020.995        2536.448          34.000  
  22072080.324     1782522.044       -1894.682          51.000  
  22845623.104     2522766.915       -2364.682          47.000  
  19949883.890     -425016.176         232.717          48.000  
  24976500.253    -1122988.3473       3703.891          25.000  
  20810863.603      238144.094        -541.855          49.000  
  21589974.084     1424160.367       -2367.596          30.000  
  20184882.657    -1786146.303        1291.349          49.000  
  21718802.934    -2714687.416        2374.082          51.000  
 16  9 24 21 40 25.6000000  0  9G18G 4G 5G20G24G13G29G15G21
  22620677.268     -170528.246        2536.458          34.000  
  22072152.219     1782900.952       -1894.930          51.000  
  22845713.182     2523239.838       -2364.755          47.000  
  19949875.025     -425062.733         232.571          48.000  
  24976358.767    -1123729.3953       3705.888          25.000  
  20810884.125      238252.518        -542.456          49.000  
  21590063.988     1424633.767       -2368.310          30.000  
  20184833.482    -1786404.591        1291.186          49.000  
  21718712.612    -2715162.284        2374.170          51.000  
 16  9 24 21 40 25.8000000  0  9G18G 4G 5G20G24G13G29G15G21
  22620580.663     -171035.567        2536.422          34.000  
  22072224.288     1783279.834       -1894.591          51.000  
  22845803.120     2523712.721       -2364.259          47.000  
  19949866.230     -425109.327         232.628          48.000  
  24976218.363    -1124470.4473       3707.010          25.000  
  20810904.646      238360.927        -542.285          49.000  
  21590154.101     1425107.203       -2366.073          30.000  
  20184784.168    -1786662.903        1291.657          49.000  
  21718622.150    -2715637.180        2374.384          51.000  
 16  9 24 21 40 26.0000000  0  9G18G 4G 5G20G24G13G29G15G21
  22620483.885     -171542.817        2536.118          34.000  
  22072296.289     1783658.744       -1894.744          51.000  
  22845893.234     2524185.615       -2364.553          47.000  
  19949857.576     -425155.885         232.778          48.000  
  24976077.296    -1125211.5933       3705.521          25.000  
  20810925.378      238469.365        -542.301          49.000  
  21590244.389     1425580.642       -2367.750          30.000  
  20184735.168    -1786921.186        1291.077          49.000  
  21718531.794    -2716112.057        2374.437          51.000  
 16  9 24 21 40 26.2000000  0  9G18G 4G 5G20G24G13G29G15G21
  22620387.386     -172050.156        2536.639          34.000  
  22072368.498     1784037.649       -1894.711          51.000  
  22845983.207     2524658.501       -2364.460          47.000  
  19949848.746     -425202.461         232.873          48.000  
  24975936.682    -1125952.7393       3704.505          25.000  
  20810945.899      238577.813        -542.656          49.000  
  21590334.397     1426054.0453      -2368.788          30.000  
  20184685.924    -1787179.455        1291.559          49.000  
  21718441.332    -2716586.953        2374.308          51.000  
 16  9 24 21 40 26.4000000  0  9G18G 4G 5G20G24G13G29G15G21
  22620290.782     -172557.414        2535.864          34.000  
  22072440.638     1784416.606       -1894.674          51.000  
  22846073.391     2525131.418       -2364.460          47.000  
  19949839.777     -425248.977         232.829          48.000  
  24975796.278    -1126693.8353       3705.281          25.000  
  20810966.561      238686.327        -542.616          49.000  
  21590424.581     1426527.4932      -2369.084          29.000  
  20184636.890    -1787437.671        1290.994          49.000  
  21718350.941    -2717061.801        2374.260          51.000  
 16  9 24 21 40 26.6000000  0  9G18G 4G 5G20G24G13G29G15G21
  22620193.968     -173064.649        2536.427          34.000  
  22072512.917     1784795.558       -1894.653          51.000  
  22846163.294     2525604.317       -2364.218          47.000  
  19949830.948     -425295.507         232.566          48.000  
  24975655.281    -1127434.9963       3705.092          25.000  
  20810987.257      238794.832        -542.686          48.000  
  21590514.624     1427000.9173      -2370.634          29.000  
  20184587.715    -1787695.887        1290.834          49.000  
  21718260.548    -2717536.659        2374.645          51.000  
 16  9 24 21 40 26.8000000  0  9G30G18G 4G 5G20G24G13G15G21
  24904484.149       89671.8633       -503.671          31.000  
  22620097.294     -173571.932        2536.601          34.000  
  22072585.091     1785174.518       -1894.580          51.000  
  22846253.268     2526077.211       -2364.222          47.000  
  19949822.257     -425342.031         232.997          48.000  
  24975515.016    -1128176.1093       3705.530          25.000  
  20811007.988      238903.351        -542.589          48.000  
  20184538.680    -1787954.075        1291.312          49.000  
  21718170.191    -2718011.522        2374.542          51.000  
 16  9 24 21 40 27.0000000  0  9G30G18G 4G 5G20G24G13G15G21
  24904505.788       89772.5333       -502.938          31.000  
  22620000.760     -174079.216        2536.080          34.000  
  22072657.335     1785553.471       -1895.121          51.000  
  22846343.347     2526550.067       -2364.664          47.000  
  19949813.289     -425388.578         232.314          48.000  
  24975373.600    -1128917.2803       3706.881          25.000  
  20811028.441      239011.879        -542.903          48.000  
  20184489.576    -1788212.271        1290.721          49.000  
  21718079.939    -2718486.405        2374.002          51.000  
 16  9 24 21 40 27.2000000  0  9G30G18G 4G 5G20G24G13G15G21
  24904526.798       89873.2013       -503.077          32.000  
  22619904.156     -174586.487        2535.909          34.000  
  22072729.510     1785932.461       -1895.215          51.000  
  22846433.460     2527022.966       -2364.490          47.000  
  19949804.459     -425435.074         232.429          48.000  
  24975233.265    -1129658.4693       3705.600          26.000  
  20811049.171      239120.455        -542.933          48.000  
  20184440.401    -1788470.412        1290.686          49.000  
  21717989.373    -2718961.247        2374.086          51.000  
 16  9 24 21 40 27.4000000  0  9G30G18G 4G 5G20G24G13G15G21
  24904544.039       89973.8983       -503.398          32.000  
  22619807.691     -175093.800        2536.513          34.000  
  22072801.614     1786311.452       -1894.871          51.000  
  22846523.398     2527495.850       -2364.402          47.000  
  19949795.559     -425481.589         232.195          48.000  
  24975092.512    -1130399.6133       3705.845          26.000  
  20811069.867      239229.036        -542.877          48.000  
  20184391.121    -1788728.557        1290.538          49.000  
  21717899.155    -2719436.100        2374.336          51.000  
 16  9 24 21 40 27.6000000  0  9G30G18G 4G 5G20G24G13G15G21
  24904564.945       90074.6073       -503.182          32.000  
  22619711.297     -175601.085        2535.580          34.000  
  22072873.684     1786690.457       -1895.015          51.000  
  22846613.407     2527968.720       -2364.328          47.000  
  19949786.765     -425528.081         232.556          48.000  
  24974951.689    -1131140.8393       3706.035          25.000  
  20811090.564      239337.627        -543.157          48.000  
  20184342.052    -1788986.683        1290.609          49.000  
  21717808.589    -2719910.963        2374.257          51.000  
 16  9 24 21 40 27.8000000  0  9G30G18G 4G 5G20G24G13G15G21
  24904586.758       90175.3263       -503.655          32.000  
  22619614.902     -176108.366        2536.400          34.000  
  22072945.684     1787069.459       -1894.767          51.000  
  22846703.311     2528441.591       -2364.182          47.000  
  19949777.726     -425574.586         232.602          48.000  
  24974810.796    -1131882.0253       3705.442          25.000  
  20811111.120      239446.236        -542.807          48.000  
  20184292.878    -1789244.790        1290.763          49.000  
  21717718.162    -2720385.821        2374.264          51.000  
 16  9 24 21 40 28.0000000  0  9G30G18G 4G 5G20G24G13G15G21
  24904603.964       90276.0543       -503.984          33.000  
  22619518.368     -176615.638        2535.469          34.000  
  22073017.684     1787448.487       -1894.779          51.000  
  22846793.320     2528914.455       -2364.051          47.000  
  19949768.792     -425621.073         232.681          48.000  
  24974669.800    -1132623.2793       3705.364          25.000  
  20811131.608      239554.870        -542.891          48.000  
  20184243.774    -1789502.881        1290.471          49.000  
  21717627.841    -2720860.664        2374.413          51.000  
 16  9 24 21 40 28.2000000  0  9G30G18G 4G 5G20G24G13G15G21
  24904623.648       90376.7813       -503.427          33.000  
  22619421.903     -177122.937        2536.452          34.000  
  22073089.858     1787827.500       -1895.398          51.000  
  22846883.363     2529387.295       -2364.727          47.000  
  19949759.718     -425667.564         232.303          48.000  
  24974528.941    -1133364.5303       3706.974          25.000  
  20811152.374      239663.508        -543.401          48.000  
  20184194.669    -1789760.959        1290.158          49.000  
  21717537.623    -2721335.535        2373.808          51.000  
 16  9 24 21 40 28.4000000  0  9G30G18G 4G 5G20G24G13G15G21
  24904643.507       90477.4433       -503.156          36.000  
  22619325.369     -177630.223        2535.825          34.000  
  22073162.102     1788206.560       -1895.411          51.000  
  22846973.441     2529860.173       -2364.254          47.000  
  19949750.784     -425714.025         232.104          48.000  
  24974388.781    -1134105.7543       3704.760          25.000  
  20811172.930      239772.189        -543.749          48.000  
  20184145.529    -1790018.995        1290.037          49.000  
  21717447.231    -2721810.363        2374.089          51.000  
 16  9 24 21 40 28.6000000  0  9G30G18G 4G 5G20G24G13G15G21
  24904662.877       90578.2112       -503.473          36.000  
  22619228.905     -178137.509        2536.087          34.000  
  22073234.103     1788585.619       -1895.180          51.000  
  22847063.554     2530333.027       -2364.503          47.000  
  19949741.885     -425760.494         232.483          48.000  
  24974247.784    -1134846.9743       3706.092          25.000  
  20811193.731      239880.875        -543.208          48.000  
  20184096.495    -1790277.020        1290.062          49.000  
  21717356.875    -2722285.214        2374.420          51.000  
 16  9 24 21 40 28.8000000  0  9G30G18G 4G 5G20G24G13G15G21
  24904681.235       90678.9982       -503.863          36.000  
  22619132.475     -178644.833        2536.217          34.000  
  22073306.277     1788964.659       -1894.838          51.000  
  22847153.423     2530805.855       -2363.876          47.000  
  19949732.985     -425806.991         232.559          48.000  
  24974107.380    -1135588.2473       3706.087          25.000  
  20811214.358      239989.551        -543.108          48.000  
  20184047.459    -1790535.057        1290.633          49.000  
  21717266.727    -2722760.076        2374.660          51.000  
 16  9 24 21 40 29.0000000  0  9G30G18G 4G 5G20G24G13G15G21
  24904700.571       90779.7772       -503.878          36.000  
  22619036.151     -179152.113        2536.584          34.000  
  22073378.347     1789343.719       -1895.371          51.000  
  22847243.362     2531278.692       -2364.043          47.000  
  19949724.157     -425853.448         232.209          48.000  
  24973966.034    -1136329.5593       3706.246          25.000  
  20811235.054      240098.261        -543.730          48.000  
  20183998.460    -1790793.067        1289.946          49.000  
  21717176.405    -2723234.936        2374.085          51.000  
 16  9 24 21 40 29.2000000  0  9G30G18G 4G 5G20G24G13G15G21
  24904721.895       90880.6172       -503.713          36.000  
  22618939.651     -179659.440        2535.502          34.000  
  22073450.591     1789722.805       -1895.223          51.000  
  22847333.336     2531751.539       -2363.745          47.000  
  19949715.501     -425899.896         232.280          48.000  
  24973824.862    -1137070.8193       3706.844          25.000  
  20811256.064      240206.999        -543.751          48.000  
  20183949.250    -1791051.045        1289.875          49.000  
  21717085.909    -2723709.774        2374.345          51.000  
 16  9 24 21 40 29.4000000  0  9G30G18G 4G 5G20G24G13G15G21
  24904742.451       90981.4092       -505.305          37.000  
  22618843.361     -180166.731        2536.128          35.000  
  22073522.695     1790101.897       -1895.783          51.000  
  22847423.379     2532224.376       -2364.375          47.000  
  19949706.706     -425946.348         231.766          48.000  
  24973683.864    -1137812.1503       3706.341          25.000  
  20811276.760      240315.752        -544.135          48.000  
  20183900.180    -1791309.017        1289.160          49.000  
  21716995.412    -2724184.624        2374.180          51.000  
 16  9 24 21 40 29.6000000  0  9G30G18G 4G 5G20G24G13G15G21
  24904758.052       91082.2662       -504.209          37.000  
  22618746.897     -180674.044        2536.594          35.000  
  22073594.870     1790480.987       -1895.486          51.000  
  22847513.493     2532697.183       -2364.008          47.000  
  19949698.017     -425992.796         232.243          48.000  
  24973541.576    -1138553.4543       3706.230          25.000  
  20811297.597      240424.509        -543.741          48.000  
  20183851.286    -1791566.972        1289.822          49.000  
  21716904.986    -2724659.470        2374.505          51.000  
 16  9 24 21 40 29.8000000  0  9G30G18G 4G 5G20G24G13G15G21
  24904781.889       91183.0932       -503.942          37.000  
  22618650.502     -181181.376        2536.309          35.000  
  22073666.870     1790860.080       -1895.681          51.000  
  22847603.501     2533170.002       -2363.847          47.000  
  19949688.978     -426039.244         232.072          48.000  
  24973400.089    -1139294.8173       3706.631          25.000  
  20811318.223      240533.286        -543.906          48.000  
  20183802.181    -1791824.916        1289.970          49.000  
  21716814.698    -2725134.328        2374.298          51.000  
 16  9 24 21 40 30.0000000  0  9G30G18G 4G 5G20G24G13G15G21
  24904802.726       91283.9452       -503.824          38.000  
  22618554.212     -181688.709        2535.629          35.000  
  22073738.975     1791239.176       -1895.764          51.000  
  22847693.510     2533642.795       -2364.203          47.000  
  19949680.114     -426085.702         232.080          48.000  
  24973258.639    -1140036.2143       3706.299          25.000  
  20811339.269      240642.058        -544.498          49.000  
  20183753.321    -1792082.856        1289.508          49.000  
  21716724.342    -2725609.191        2374.269          51.000  
 16  9 24 21 40 30.2000000  0  9G30G18G 4G 5G20G24G13G15G21
  24904821.293       91384.8452       -504.438          38.000  
  22618457.643     -182195.972        2536.392          35.000  
  22073811.114     1791618.328       -1895.730          51.000  
  22847783.378     2534115.632       -2363.987          48.000  
  19949671.459     -426132.098         231.869          48.000  
  24973117.292    -1140777.5113       3705.529          25.000  
  20811359.755      240750.910        -544.173          49.000  
  20183704.216    -1792340.724        1289.595          49.000  
  21716633.880    -2726084.011        2374.006          51.000  
 16  9 24 21 40 30.4000000  0  9G30G18G 4G 5G20G24G13G15G21
  24904839.720       91485.7842       -504.549          39.000  
  22618361.003     -182703.296        2537.033          35.000  
  22073883.183     1791997.476       -1895.864          51.000  
  22847873.457     2534588.446       -2364.328          48.000  
  19949662.629     -426178.513         232.192          48.000  
  24972975.526    -1141518.8933       3706.443          25.000  
  20811380.451      240859.758        -544.327          49.000  
  20183655.181    -1792598.597        1289.028          49.000  
  21716543.662    -2726558.840        2374.282          51.000  
 16  9 24 21 40 30.6000000  0  9G30G18G 4G 5G20G24G13G15G21
  24904858.428       91586.6752       -505.116          39.000  
  22618264.714     -183210.610        2535.291          35.000  
  22073955.149     1792376.639       -1895.963          51.000  
  22847963.640     2535061.263       -2364.246          48.000  
  19949653.730     -426224.909         231.485          48.000  
  24972834.145    -1142260.2143       3706.365          25.000  
  20811401.043      240968.621        -544.799          49.000  
  20183606.182    -1792856.446        1289.042          49.000  
  21716453.201    -2727033.666        2374.106          51.000  
 16  9 24 21 40 30.8000000  0  9G30G18G 4G 5G20G24G13G15G21
  24904881.637       91687.6202       -504.786          39.000  
  22618168.075     -183717.904        2536.412          34.000  
  22074027.393     1792755.815       -1896.018          51.000  
  22848053.578     2535534.090       -2363.797          48.000  
  19949644.935     -426271.292         232.257          48.000  
  24972693.567    -1143001.6313       3706.616          25.000  
  20811421.809      241077.516        -544.263          49.000  
  20183556.972    -1793114.267        1289.131          49.000  
  21716362.704    -2727508.486        2374.132          51.000  
 16  9 24 21 40 31.0000000  0  9G30G18G 4G 5G20G24G13G15G21
  24904900.518       91788.5862       -503.999          39.000  
  22618071.506     -184225.238        2535.554          34.000  
  22074099.568     1793135.004       -1896.038          51.000  
  22848143.518     2536006.898       -2364.134          48.000  
  19949636.350     -426317.680         231.687          48.000  
  24972552.919    -1143743.0053       3707.479          25.000  
  20811442.576      241186.412        -544.643          49.000  
  20183507.868    -1793372.082        1288.958          49.000  
  21716272.034    -2727983.297        2373.935          51.000  
 16  9 24 21 40 31.2000000  0  9G30G18G 4G 5G20G24G13G15G21
  24904922.296       91889.5412       -505.621          39.000  
  22617975.076     -184732.543        2537.995          35.000  
  22074171.742     1793514.181       -1896.123          51.000  
  22848233.735     2536479.687       -2364.137          48.000  
  19949627.416     -426364.078         231.615          48.000  
  24972412.026    -1144484.4203       3707.104          25.000  
  20811463.097      241295.312        -544.817          49.000  
  20183458.833    -1793629.903        1288.763          49.000  
  21716181.572    -2728458.140        2374.053          51.000  
 16  9 24 21 40 31.4000000  0  9G30G18G 4G 5G20G24G13G15G21
  24904939.886       91990.5372       -504.809          40.000  
  22617878.506     -185239.850        2536.868          34.000  
  22074243.846     1793893.407       -1895.639          50.000  
  22848323.813     2536952.504       -2363.800          47.000  
  19949618.726     -426410.431         232.375          48.000  
  24972271.307    -1145225.8363       3706.991          25.000  
  20811483.688      241404.270        -544.392          48.000  
  20183409.763    -1793887.657        1289.295          49.000  
  21716091.319    -2728932.940        2374.241          51.000  
 16  9 24 21 40 31.6000000  0  9G30G18G 4G 5G20G24G13G15G21
  24904959.327       92091.5282       -505.451          40.000  
  22617782.008     -185747.172        2536.108          35.000  
  22074316.161     1794272.603       -1896.264          51.000  
  22848413.788     2537425.282       -2364.232          47.000  
  19949610.036     -426456.807         231.660          48.000  
  24972130.624    -1145967.2243       3707.061          25.000  
  20811504.595      241513.213        -545.055          49.000  
  20183360.694    -1794145.429        1288.670          49.000  
  21716000.963    -2729407.768        2374.035          51.000  
 16  9 24 21 40 31.8000000  0  9G30G18G 4G 5G20G24G13G15G21
  24904978.975       92192.5462       -505.132          40.000  
  22617685.508     -186254.468        2535.621          35.000  
  22074388.195     1794651.839       -1896.351          51.000  
  22848503.900     2537898.088       -2364.096          47.000  
  19949601.206     -426503.156         231.572          48.000  
  24971990.045    -1146708.6893       3707.996          25.000  
  20811525.465      241622.205        -545.045          49.000  
  20183311.484    -1794403.159        1288.363          49.000  
  21715910.641    -2729882.564        2373.772          51.000  
 16  9 24 21 40 32.0000000  0  9G30G18G 4G 5G20G24G13G15G21
  24904997.124       92293.5952       -505.587          40.000  
  22617588.869     -186761.753        2536.320          35.000  
  22074460.299     1795031.085       -1896.663          51.000  
  22848593.769     2538370.893       -2364.210          48.000  
  19949592.691     -426549.494         231.814          48.000  
  24971849.257    -1147450.1073       3707.128          25.000  
  20811546.126      241731.210        -545.095          49.000  
  20183262.309    -1794660.860        1288.214          49.000  
  21715820.074    -2730357.357        2373.896          51.000  
 16  9 24 21 40 32.2000000  0  9G30G18G 4G 5G20G24G13G15G21
  24905020.647       92394.6592       -505.216          40.000  
  22617492.370     -187269.048        2536.839          35.000  
  22074532.509     1795410.352       -1896.444          51.000  
  22848683.743     2538843.695       -2363.878          48.000  
  19949583.932     -426595.822         231.592          48.000  
  24971709.342    -1148191.5413       3707.520          25.000  
  20811567.207      241840.234        -545.365          49.000  
  20183213.240    -1794918.552        1287.989          49.000  
  21715729.822    -2730832.153        2373.864          51.000  
 16  9 24 21 40 32.4000000  0  9G30G18G 4G 5G20G24G13G15G21
  24905039.459       92495.7492       -505.410          40.000  
  22617395.905     -187776.339        2535.976          35.000  
  22074604.683     1795789.657       -1896.287          51.000  
  22848773.786     2539316.528       -2363.888          48.000  
  19949575.032     -426642.118         231.723          48.000  
  24971568.937    -1148933.0053       3708.499          25.000  
  20811587.938      241949.316        -545.253          49.000  
  20183164.275    -1795176.187        1288.433          49.000  
  21715639.395    -2731306.910        2373.752          51.000  
 16  9 24 21 40 32.6000000  0  9G30G18G 4G 5G20G24G13G15G21
  24905059.981       92596.8632       -505.139          40.000  
  22617299.650     -188283.629        2536.948          35.000  
  22074676.823     1796168.939       -1896.457          51.000  
  22848864.040     2539789.326       -2364.033          48.000  
  19949566.133     -426688.434         231.535          48.000  
  24971427.591    -1149674.5213       3706.772          25.000  
  20811608.949      242058.383        -545.263          49.000  
  20183115.275    -1795433.831        1288.429          49.000  
  21715549.213    -2731781.692        2373.960          51.000  
 16  9 24 21 40 32.8000000  0  9G30G18G 4G 5G20G24G13G15G21
  24905079.246       92697.9512       -505.893          41.000  
  22617203.081     -188790.935        2535.582          35.000  
  22074748.998     1796548.230       -1896.508          51.000  
  22848954.013     2540262.120       -2363.782          48.000  
  19949557.373     -426734.742         231.741          48.000  
  24971286.489    -1150415.9563       3708.329          25.000  
  20811629.680      242167.465        -545.221          49.000  
  20183066.380    -1795691.461        1288.204          49.000  
  21715458.786    -2732256.474        2374.142          51.000  
 16  9 24 21 40 33.0000000  0  9G30G18G 4G 5G20G24G13G15G21
  24905098.511       92799.0492       -505.297          41.000  
  22617106.651     -189298.289        2536.244          35.000  
  22074820.962     1796927.511       -1896.702          51.000  
  22849043.847     2540734.881       -2363.913          48.000  
  19949548.229     -426781.075         231.423          48.000  
  24971146.154    -1151157.4743       3706.937          25.000  
  20811650.341      242276.537        -545.187          49.000  
  20183017.240    -1795949.100        1288.137          49.000  
  21715368.499    -2732731.293        2373.646          51.000  
 16  9 24 21 40 33.2000000  0  9G30G18G 4G 5G20G24G13G15G21
  24905118.894       92900.1782       -505.622          41.000  
  22617010.222     -189805.574        2536.480          35.000  
  22074892.893     1797306.826       -1896.579          50.000  
  22849134.030     2541207.665       -2364.135          48.000  
  19949539.365     -426827.372         231.406          48.000  
  24971005.018    -1151898.9933       3707.352          25.000  
  20811671.282      242385.652        -545.583          49.000  
  20182968.101    -1796206.696        1288.000          49.000  
  21715278.143    -2733206.065        2373.992          51.000  
 16  9 24 21 40 33.4000000  0  9G30G18G 4G 5G20G24G13G15G21
  24905138.857       93001.3272       -506.152          41.000  
  22616913.617     -190312.872        2537.090          35.000  
  22074965.241     1797686.165       -1896.625          50.000  
  22849224.143     2541680.463       -2363.793          48.000  
  19949530.361     -426873.644         231.359          48.000  
  24970864.334    -1152640.4843       3707.691          24.000  
  20811691.873      242494.796        -545.584          49.000  
  20182919.171    -1796464.264        1287.894          49.000  
  21715187.960    -2733680.837        2373.869          51.000  
 16  9 24 21 40 33.6000000  0  9G30G18G 4G 5G20G24G13G15G21
  24905157.739       93102.5152       -505.610          41.000  
  22616817.258     -190820.169        2536.238          35.000  
  22075037.556     1798065.518       -1896.700          50.000  
  22849314.257     2542153.250       -2363.896          48.000  
  19949521.637     -426919.916         231.025          48.000  
  24970722.639    -1153382.0673       3707.635          24.000  
  20811712.814      242603.978        -545.681          49.000  
  20182870.032    -1796721.808        1287.822          49.000  
  21715097.534    -2734155.595        2373.935          51.000  
 16  9 24 21 40 33.8000000  0  9G30G18G 4G 5G20G24G13G15G21
  24905177.632       93203.7362       -505.977          41.000  
  22616720.793     -191327.449        2534.941          35.000  
  22075109.625     1798444.909       -1896.591          50.000  
  22849404.265     2542626.071       -2364.065          48.000  
  19949512.912     -426966.140         231.313          48.000  
  24970582.549    -1154123.6023       3707.420          25.000  
  20811733.405      242713.183        -545.957          49.000  
  20182821.101    -1796979.305        1287.754          49.000  
  21715007.176    -2734630.324        2374.082          51.000  
 16  9 24 21 40 34.0000000  0  9G30G18G 4G 5G20G24G13G15G21
  24905197.141       93304.9542       -506.163          42.000  
  22616624.398     -191834.688        2536.459          35.000  
  22075181.939     1798824.298       -1897.153          50.000  
  22849494.204     2543098.874       -2363.854          48.000  
  19949504.117     -427012.383         231.020          48.000  
  24970442.284    -1154865.1023       3706.767          24.000  
  20811754.276      242822.408        -546.032          48.000  
  20182772.031    -1797236.796        1287.443          49.000  
  21714916.749    -2735105.069        2373.729          51.000  
 16  9 24 21 40 34.2000000  0  9G30G18G 4G 5G20G24G13G15G21
  24905216.861       93406.2142       -506.137          42.000  
  22616527.934     -192341.980        2536.871          35.000  
  22075254.044     1799203.705       -1896.799          50.000  
  22849584.317     2543571.678       -2363.746          48.000  
  19949495.393     -427058.608         231.197          48.000  
  24970301.322    -1155606.5723       3708.798          24.000  
  20811775.112      242931.656        -546.162          48.000  
  20182722.927    -1797494.260        1287.618          49.000  
  21714826.428    -2735579.802        2373.847          51.000  
 16  9 24 21 40 34.4000000  0  9G30G18G 4G 5G20G24G13G15G21
  24905236.929       93507.4662       -506.561          42.000  
  22616431.295     -192849.263        2537.075          35.000  
  22075326.149     1799583.113       -1897.113          50.000  
  22849674.430     2544044.469       -2364.137          48.000  
  19949486.598     -427104.830         230.894          48.000  
  24970160.569    -1156348.1223       3709.089          24.000  
  20811795.983      243040.914        -546.390          48.000  
  20182673.822    -1797751.721        1287.226          49.000  
  21714735.966    -2736054.537        2373.662          51.000  
 16  9 24 21 40 34.6000000  0  9G30G18G 4G 5G20G24G13G15G21
  24905256.125       93608.7572       -507.094          42.000  
  22616334.796     -193356.536        2537.292          35.000  
  22075398.289     1799962.547       -1897.314          50.000  
  22849764.719     2544517.280       -2363.891          48.000  
  19949477.769     -427151.031         231.121          48.000  
  24970019.327    -1157089.7033       3707.300          24.000  
  20811816.889      243150.201        -546.533          48.000  
  20182625.032    -1798009.147        1287.003          49.000  
  21714645.679    -2736529.266        2373.573          51.000  
 16  9 24 21 40 34.8000000  0  9G30G18G 4G 5G20G24G13G15G21
  24905275.530       93710.0322       -506.230          42.000  
  22616238.331     -193863.851        2536.069          35.000  
  22075470.218     1800341.972       -1897.009          50.000  
  22849854.727     2544990.054       -2363.749          48.000  
  19949468.764     -427197.256         231.425          48.000  
  24969878.853    -1157831.2623       3707.909          24.000  
  20811837.829      243259.483        -546.363          49.000  
  20182576.032    -1798266.572        1287.094          49.000  
  21714555.532    -2737004.008        2373.972          51.000  
 16  9 24 21 40 35.0000000  0  9G30G18G 4G 5G20G24G13G15G21
  24905295.074       93811.2982       -506.250          42.000  
  22616141.867     -194371.146        2537.262          35.000  
  22075542.392     1800721.377       -1897.180          50.000  
  22849944.700     2545462.801       -2363.574          48.000  
  19949460.074     -427243.498         231.191          48.000  
  24969736.983    -1158572.9063       3708.170          24.000  
  20811858.734      243368.760        -546.363          48.000  
  20182527.032    -1798524.005        1287.260          49.000  
  21714465.279    -2737478.776        2373.846          51.000  
 16  9 24 21 40 35.2000000  0  9G30G18G 4G 5G20G24G13G15G21
  24905314.305       93912.5712       -505.829          42.000  
  22616045.333     -194878.510        2536.551          35.000  
  22075614.533     1801100.797       -1896.787          50.000  
  22850034.779     2545935.541       -2363.422          48.000  
  19949451.350     -427289.729         231.268          48.000  
  24969595.916    -1159314.4833       3707.237          24.000  
  20811879.327      243478.047        -545.977          49.000  
  20182478.277    -1798781.432        1287.351          49.000  
  21714375.062    -2737953.546        2374.201          51.000  
 16  9 24 21 40 35.4000000  0  9G30G18G 4G 5G20G24G13G15G21
  24905333.430       94013.8742       -506.529          42.000  
  22615948.938     -195385.825        2534.882          34.000  
  22075686.881     1801480.222       -1897.232          50.000  
  22850124.717     2546408.284       -2363.802          48.000  
  19949442.555     -427335.948         231.032          48.000  
  24969454.709    -1160056.1573       3707.653          24.000  
  20811900.127      243587.367        -546.676          48.000  
  20182429.346    -1799038.817        1286.706          49.000  
  21714284.531    -2738428.297        2373.668          51.000  
 16  9 24 21 40 35.6000000  0  9G30G18G 4G 5G20G24G13G15G21
  24905352.871       94115.2282       -507.087          42.000  
  22615852.474     -195893.084        2536.890          34.000  
  22075759.021     1801859.720       -1897.415          50.000  
  22850214.936     2546881.074       -2364.125          48.000  
  19949433.726     -427382.117         230.683          48.000  
  24969313.572    -1160797.8503       3707.994          24.000  
  20811920.824      243696.754        -547.154          49.000  
  20182380.312    -1799296.146        1286.615          49.000  
  21714194.279    -2738903.012        2373.331          51.000  
 16  9 24 21 40 35.8000000  0  9G30G18G 4G 5G20G24G13G15G21
  24905371.996       94216.6042       -506.521          42.000  
  22615755.939     -196400.398        2535.757          34.000  
  22075831.160     1802239.207       -1897.482          50.000  
  22850304.909     2547353.844       -2363.996          48.000  
  19949425.001     -427428.289         230.845          48.000  
  24969172.610    -1161539.3903       3709.220          24.000  
  20811941.694      243806.141        -546.627          49.000  
  20182331.487    -1799553.481        1286.477          49.000  
  21714104.026    -2739377.732        2373.410          51.000  
 16  9 24 21 40 36.0000000  0  9G30G18G 4G 5G20G24G13G15G21
  24905391.226       94317.9742       -507.036          42.000  
  22615659.300     -196907.687        2537.571          34.000  
  22075903.300     1802618.698       -1897.752          50.000  
  22850394.987     2547826.614       -2363.907          48.000  
  19949416.276     -427474.465         230.581          48.000  
  24969031.507    -1162281.0763       3707.546          24.000  
  20811962.635      243915.537        -547.319          49.000  
  20182282.591    -1799810.777        1286.327          49.000  
  21714013.739    -2739852.448        2373.344          51.000  
 16  9 24 21 40 36.2000000  0  9G30G18G 4G 5G20G24G13G15G21
  24905410.562       94419.3672       -507.758          42.000  
  22615562.871     -197414.986        2537.044          34.000  
  22075975.509     1802998.213       -1897.796          50.000  
  22850484.996     2548299.379       -2363.762          48.000  
  19949407.412     -427520.618         230.743          48.000  
  24968890.929    -1163022.7383       3708.780          24.000  
  20811983.436      244024.962        -547.352          49.000  
  20182233.766    -1800068.053        1286.478          49.000  
  21713923.313    -2740327.166        2373.213          51.000  
 16  9 24 21 40 36.4000000  0  9G30G18G 4G 5G20G24G13G15G21
  24905429.897       94520.7882       -507.412          42.000  
  22615466.476     -197922.267        2536.567          34.000  
  22076047.649     1803377.743       -1897.717          50.000  
  22850574.970     2548772.154       -2364.186          48.000  
  19949398.617     -427566.761         230.697          48.000  
  24968750.071    -1163764.0673       3709.689          24.000  
  20812004.237      244134.416        -547.663          49.000  
  20182184.731    -1800325.324        1285.838          49.000  
  21713832.921    -2740801.862        2373.324          51.000  
 16  9 24 21 40 36.6000000  0  9G30G18G 4G 5G20G24G13G15G21
  24905449.092       94622.2352       -507.029          42.000  
  22615369.906     -198429.522        2535.808          34.000  
  22076119.858     1803757.301       -1897.841          50.000  
  22850665.187     2549244.934       -2363.801          48.000  
  19949389.822     -427612.876         230.650          48.000  
  24968608.933    -1164505.8463       3709.495          24.000  
  20812024.968      244243.907        -547.305          49.000  
  20182135.766    -1800582.536        1286.360          49.000  
  21713742.633    -2741276.548        2373.162          51.000  
 16  9 24 21 40 36.8000000  0  9G30G18G 4G 5G20G24G13G15G21
  24905468.567       94723.7142       -507.689          42.000  
  22615273.233     -198936.791        2534.852          34.000  
  22076192.067     1804136.890       -1897.938          50.000  
  22850755.092     2549717.737       -2364.000          48.000  
  19949380.993     -427658.976         230.406          48.000  
  24968468.460    -1165247.5093       3709.084          23.000  
  20812045.909      244353.418        -547.492          49.000  
  20182086.941    -1800839.726        1285.717          49.000  
  21713652.207    -2741751.212        2373.131          51.000  
 16  9 24 21 40 37.0000000  0  9G30G18G 4G 5G20G24G13G15G21
  24905488.181       94825.1972       -507.327          43.000  
  22615176.594     -199444.062        2535.734          34.000  
  22076264.172     1804516.469       -1897.732          50.000  
  22850845.379     2550190.507       -2363.956          48.000  
  19949372.163     -427705.090         230.463          48.000  
  24968328.021    -1165989.2043       3708.291          23.000  
  20812066.709      244462.938        -547.612          49.000  
  20182037.801    -1801096.918        1286.162          49.000  
  21713562.129    -2742225.892        2373.490          51.000  
 16  9 24 21 40 37.2000000  0  9G30G18G 4G 5G20G24G13G15G21
  24905507.761       94926.6712       -507.425          43.000  
  22615080.374     -199951.343        2537.049          34.000  
  22076336.591     1804896.044       -1898.100          50.000  
  22850935.388     2550663.268       -2363.784          48.000  
  19949363.404     -427751.204         230.119          48.000  
  24968187.059    -1166731.0193       3708.211          23.000  
  20812087.546      244572.464        -547.879          49.000  
  20181988.941    -1801354.098        1285.527          49.000  
  21713471.668    -2742700.580        2373.405          51.000  
 16  9 24 21 40 37.4000000  0  9G30G18G 4G 5G20G24G13G15G21
  24905527.061       95028.2042       -507.824          43.000  
  22614983.700     -200458.572        2537.419          34.000  
  22076408.695     1805275.669       -1898.279          50.000  
  22851025.536     2551136.057       -2363.927          48.000  
  19949354.539     -427797.267         230.227          48.000  
  24968045.677    -1167472.6803       3705.962          23.000  
  20812108.277      244682.046        -547.911          49.000  
  20181940.150    -1801611.223        1285.886          49.000  
  21713381.311    -2743175.236        2373.203          51.000  
 16  9 24 21 40 37.6000000  0  9G30G18G 4G 5G20G24G13G15G21
  24905546.291       95129.7232       -507.823          43.000  
  22614887.375     -200965.858        2536.396          34.000  
  22076480.939     1805655.275       -1897.920          50.000  
  22851115.684     2551608.813       -2363.782          48.000  
  19949345.814     -427843.371         230.351          48.000  
  24967905.273    -1168213.8883       3709.151          23.000  
  20812129.182      244791.609        -547.797          49.000  
  20181891.150    -1801868.371        1285.552          49.000  
  21713291.093    -2743649.916        2373.381          51.000  
 16  9 24 21 40 37.8000000  0  9G30G18G 4G 5G20G24G13G15G21
  24905566.081       95231.2612       -506.964          43.000  
  22614791.050     -201473.143        2536.837          34.000  
  22076553.079     1806034.887       -1897.749          50.000  
  22851205.867     2552081.562       -2363.619          48.000  
  19949337.265     -427889.453         230.675          48.000  
  24967764.311    -1168955.6293       3708.523          23.000  
  20812150.193      244901.196        -547.791          49.000  
  20181842.360    -1802125.492        1285.599          49.000  
  21713200.737    -2744124.589        2373.546          51.000  
 16  9 24 21 40 38.0000000  0  9G30G18G 4G 5G20G24G13G15G21
  24905585.416       95332.8042       -507.700          43.000  
  22614694.376     -201980.406        2537.456          34.000  
  22076625.393     1806414.510       -1898.052          50.000  
  22851295.701     2552554.310       -2363.605          48.000  
  19949328.679     -427935.542         230.098          48.000  
  24967622.929    -1169697.3873       3708.144          22.000  
  20812171.203      245010.798        -547.887          49.000  
  20181793.220    -1802382.591        1285.220          49.000  
  21713110.414    -2744599.276        2373.150          51.000  
 16  9 24 21 40 38.2000000  0  9G30G18G 4G 5G20G24G13G15G21
  24905605.100       95434.3452       -508.237          43.000  
  22614598.052     -202487.720        2536.551          34.000  
  22076697.812     1806794.139       -1898.043          50.000  
  22851385.710     2553027.050       -2363.398          48.000  
  19949319.885     -427981.616         230.965          48.000  
  24967481.757    -1170439.1153       3708.681          22.000  
  20812191.935      245120.418        -547.678          49.000  
  20181744.361    -1802639.679        1285.627          49.000  
  21713020.058    -2745073.952        2373.491          51.000  
 16  9 24 21 40 38.4000000  0  9G30G18G 4G 5G20G24G13G15G21
  24905624.505       95535.8882       -507.668          43.000  
  22614501.622     -202995.045        2536.915          34.000  
  22076769.916     1807173.738       -1898.179          50.000  
  22851475.614     2553499.746       -2364.067          48.000  
  19949311.090     -428027.730         230.444          48.000  
  24967340.550    -1171179.7833       3712.226          22.000  
  20812212.840      245230.010        -548.217          49.000  
  20181695.535    -1802896.794        1285.135          49.000  
  21712929.840    -2745548.666        2373.652          51.000  
 16  9 24 21 40 38.6000000  0  9G30G18G 4G 5G20G24G13G15G21
  24905643.875       95637.4502       -508.128          43.000  
  22614405.052     -203502.372        2535.755          34.000  
  22076842.335     1807553.368       -1898.356          50.000  
  22851565.796     2553972.458       -2363.842          49.000  
  19949302.574     -428073.819         230.221          48.000  
  24967199.064    -1171921.8963       3708.486          22.000  
  20812233.815      245339.645        -548.397          49.000  
  20181646.605    -1803153.870        1285.008          49.000  
  21712839.309    -2746023.364        2373.219          51.000  
 16  9 24 21 40 38.8000000  0  9G30G18G 4G 5G20G24G13G15G21
  24905663.315       95739.1102       -509.034          43.000  
  22614308.519     -204009.606        2535.647          34.000  
  22076914.580     1807933.091       -1898.670          50.000  
  22851655.666     2554445.244       -2364.252          49.000  
  19949293.850     -428119.818         229.873          48.000  
  24967057.893    -1172663.7593       3713.324          22.000  
  20812254.547      245449.375        -548.788          49.000  
  20181597.605    -1803410.835        1284.877          49.000  
  21712748.917    -2746497.976        2372.645          51.000  
 16  9 24 21 40 39.0000000  0  9G30G18G 4G 5G20G24G13G15G21
  24905682.824       95840.7932       -508.122          43.000  
  22614212.054     -204516.861        2537.219          34.000  
  22076986.789     1808312.813       -1898.476          50.000  
  22851745.709     2554918.021       -2363.623          49.000  
  19949284.985     -428165.824         229.920          48.000  
  24966917.174    -1173406.0593       3706.826          22.000  
  20812275.592      245559.110        -548.534          49.000  
  20181548.779    -1803667.803        1285.207          49.000  
  21712658.804    -2746972.602        2373.302          51.000  
 16  9 24 21 40 39.2000000  0  9G30G18G 4G 5G20G24G13G15G21
  24905702.334       95942.4612       -508.726          43.000  
  22614115.485     -205024.135        2534.730          34.000  
  22077059.033     1808692.545       -1899.240          50.000  
  22851835.927     2555390.789       -2364.447          49.000  
  19949276.261     -428211.818         229.559          48.000  
  24966776.317    -1174147.4183       3706.434          21.000  
  20812296.428      245668.869        -549.590          49.000  
  20181500.059    -1803924.745        1284.115          49.000  
  21712568.657    -2747447.215        2372.416          51.000  
 16  9 24 21 40 39.4000000  0  9G30G18G 4G 5G20G24G13G15G21
  24905721.879       96044.1892       -508.075          43.000  
  22614019.090     -205531.315        2537.080          34.000  
  22077131.242     1809072.320       -1898.501          50.000  
  22851925.831     2555863.590       -2363.196          49.000  
  19949267.327     -428257.777         229.894          48.000  
  24966635.040    -1174888.9053       3712.176          21.000  
  20812317.229      245778.680        -548.736          49.000  
  20181451.129    -1804181.643        1285.195          49.000  
  21712478.265    -2747921.803        2373.502          51.000  
 16  9 24 21 40 39.6000000  0  9G30G18G 4G 5G20G24G13G15G21
  24905741.423       96145.8972       -508.529          43.000  
  22613922.381     -206038.581        2536.609          34.000  
  22077203.521     1809452.062       -1898.636          50.000  
  22852015.944     2556336.341       -2363.766          49.000  
  19949258.811     -428303.777         230.121          48.000  
  24966493.658    -1175631.3403       3710.370          21.000  
  20812338.204      245888.453        -548.961          49.000  
  20181402.198    -1804438.579        1284.693          49.000  
  21712387.943    -2748396.433        2373.157          51.000  
 16  9 24 21 40 39.8000000  0  9G30G18G 4G 5G20G24G13G15G21
  24905761.003       96247.6002       -508.504          43.000  
  22613825.917     -206545.869        2536.659          34.000  
  22077275.801     1809831.801       -1898.777          50.000  
  22852106.093     2556809.074       -2363.809          49.000  
  19949250.087     -428349.771         229.954          48.000  
  24966352.731    -1176373.4193       3710.370          21.000  
  20812359.180      245998.245        -548.844          49.000  
  20181353.513    -1804695.494        1284.697          49.000  
  21712297.656    -2748871.072        2373.000          51.000  
 16  9 24 21 40 40.0000000  0  9G30G18G 4G 5G20G24G13G15G21
  24905780.163       96349.3312       -508.436          43.000  
  22613729.313     -207053.151        2536.170          34.000  
  22077348.045     1810211.578       -1898.772          50.000  
  22852196.275     2557281.825       -2363.700          49.000  
  19949241.082     -428395.752         229.436          48.000  
  24966211.908    -1177114.8793       3706.451          21.000  
  20812380.155      246108.071        -549.262          49.000  
  20181304.513    -1804952.376        1284.112          49.000  
  21712207.194    -2749345.680        2373.113          51.000  
 16  9 24 21 40 40.2000000  0  9G30G18G 4G 5G20G24G13G15G21
  24905799.708       96451.0742       -508.108          43.000  
  22613632.813     -207560.379        2537.264          34.000  
  22077420.149     1810591.329       -1898.653          50.000  
  22852286.598     2557754.546       -2363.444          49.000  
  19949232.427     -428441.734         230.415          48.000  
  24966071.224    -1177854.8273       3702.583          20.000  
  20812400.991      246217.891        -548.719          49.000  
  20181255.617    -1805209.257        1284.722          49.000  
  21712116.872    -2749820.319        2373.382          51.000  
 16  9 24 21 40 40.4000000  0  9G30G18G 4G 5G20G24G13G15G21
  24905819.218       96552.7812       -507.886          43.000  
  22613536.174     -208067.751        2535.848          34.000  
  22077492.464     1810971.071       -1898.728          50.000  
  22852376.711     2558227.245       -2363.402          49.000  
  19949223.563     -428487.749         229.980          48.000  
  24965929.913    -1178595.4813       3712.234          20.000  
  20812421.862      246327.702        -548.776          49.000  
  20181206.793    -1805466.152        1284.422          49.000  
  21712026.620    -2750294.981        2373.510          51.000  
 16  9 24 21 40 40.6000000  0  9G30G18G 4G 5G20G24G13G15G21
  24905838.553       96654.5222       -508.330          43.000  
  22613439.500     -208575.041        2537.030          34.000  
  22077564.777     1811350.831       -1898.789          50.000  
  22852466.580     2558699.944       -2363.538          49.000  
  19949214.803     -428533.747         230.068          48.000  
  24965788.845    -1179337.8663       3710.642          21.000  
  20812442.698      246437.538        -549.278          49.000  
  20181157.932    -1805723.019        1284.435          49.000  
  21711936.193    -2750769.634        2373.344          51.000  
 16  9 24 21 40 40.8000000  0  9G30G18G 4G 5G20G24G13G15G21
  24905858.028       96756.3062       -508.969          43.000  
  22613343.001     -209082.339        2536.047          34.000  
  22077637.127     1811730.624       -1899.301          50.000  
  22852556.554     2559172.658       -2363.829          49.000  
  19949206.114     -428579.717         229.431          48.000  
  24965647.709    -1180079.9433       3709.793          20.000  
  20812463.813      246547.416        -549.755          49.000  
  20181109.072    -1805979.843        1283.836          49.000  
  21711845.732    -2751244.255        2373.032          51.000  
 16  9 24 21 40 41.0000000  0  9G30G18G 4G 5G20G24G13G15G21
  24905877.432       96858.1062       -509.064          42.000  
  22613246.537     -209589.614        2536.435          34.000  
  22077709.231     1812110.422       -1899.326          50.000  
  22852646.493     2559645.380       -2363.626          49.000  
  19949197.284     -428625.671         229.711          48.000  
  24965506.816    -1180821.8473       3706.111          20.000  
  20812484.544      246657.308        -549.657          49.000  
  20181060.247    -1806236.652        1283.818          49.000  
  21711755.445    -2751718.884        2372.989          51.000  
 16  9 24 21 40 41.2000000  0  9G30G18G 4G 5G20G24G13G15G21
  24905896.977       96959.9132       -509.314          42.000  
  22613149.932     -210096.879        2537.364          34.000  
  22077781.335     1812490.252       -1899.000          50.000  
  22852736.675     2560118.101       -2363.381          49.000  
  19949188.629     -428671.606         229.993          48.000  
  24965365.574    -1181563.0623       3706.111          20.000  
  20812505.694      246767.238        -549.799          49.000  
  20181011.491    -1806493.425        1283.698          50.000  
  21711665.018    -2752193.489        2373.355          51.000  
 16  9 24 21 40 41.4000000  0  9G30G18G 4G 5G20G24G13G15G21
  24905916.243       97061.7812       -508.893          42.000  
  22613053.329     -210604.099        2537.242          34.000  
  22077853.755     1812870.127       -1899.314          50.000  
  22852826.475     2560590.854       -2363.860          49.000  
  19949179.974     -428717.509         229.608          48.000  
  24965224.716    -1182303.1723       3701.085          20.000  
  20812526.600      246877.221        -549.784          49.000  
  20180962.561    -1806750.142        1283.497          50.000  
  21711574.661    -2752668.061        2373.045          51.000  
 16  9 24 21 40 41.6000000  0  9G30G18G 4G 5G20G24G13G15G21
  24905935.577       97163.6632       -509.768          42.000  
  22612956.515     -211111.382        2534.555          34.000  
  22077926.103     1813250.010       -1899.351          50.000  
  22852916.623     2561063.603       -2363.656          49.000  
  19949171.249     -428763.403         229.774          48.000  
  24965084.033    -1183044.0623       3710.174          20.000  
  20812547.505      246987.213        -550.045          49.000  
  20180913.596    -1807006.857        1283.563          50.000  
  21711484.479    -2753142.636        2372.972          51.000  
 16  9 24 21 40 41.8000000  0  9G30G18G 4G 5G20G24G13G15G21
  24905954.739       97265.5272       -509.672          42.000  
  22612859.911     -211618.634        2536.227          33.000  
  22077998.383     1813629.865       -1899.403          50.000  
  22853006.841     2561536.321       -2363.283          49.000  
  19949162.560     -428809.332         229.560          48.000  
  24964942.757    -1183786.2623       3711.895          20.000  
  20812568.516      247097.192        -549.959          49.000  
  20180864.910    -1807263.581        1283.311          50.000  
  21711394.297    -2753617.238        2372.875          51.000  
 16  9 24 21 40 42.0000000  0  9G30G18G 4G 5G20G24G13G15G21
  24905973.794       97367.4312       -509.807          42.000  
  22612763.481     -212125.913        2535.095          33.000  
  22078070.766     1814009.750       -1899.640          50.000  
  22853096.710     2562009.042       -2363.373          49.000  
  19949153.800     -428855.227         229.293          48.000  
  24964801.689    -1184527.3533       3709.592          20.000  
  20812589.631      247207.203        -550.300          49.000  
  20180816.120    -1807520.261        1283.390          49.000  
  21711303.870    -2754091.824        2372.772          51.000  
 16  9 24 21 40 42.2000000  0  9G30G18G 4G 5G20G24G13G15G21
  24905993.338       97469.3262       -510.024          42.000  
  22612667.156     -212633.163        2536.806          33.000  
  22078142.836     1814389.637       -1899.560          50.000  
  22853186.683     2562481.758       -2363.529          49.000  
  19949145.040     -428901.122         229.433          48.000  
  24964659.330    -1185269.2543       3709.663          21.000  
  20812610.711      247317.234        -550.354          49.000  
  20180767.259    -1807776.933        1283.064          49.000  
  21711213.617    -2754566.415        2372.786          51.000  
 16  9 24 21 40 42.4000000  0  9G30G18G 4G 5G20G24G13G15G21
  24906012.604       97571.2892       -509.826          42.000  
  22612570.622     -213140.404        2537.047          33.000  
  22078215.255     1814769.580       -1900.088          49.000  
  22853276.622     2562954.509       -2363.977          47.000  
  19949136.420     -428946.965         229.259          46.000  
  24964517.914    -1186012.3453       3717.092          21.000  
  20812631.722      247427.321        -550.721          48.000  
  20180718.329    -1808033.555        1282.580          48.000  
  21711123.296    -2755040.960        2372.429          49.000  
 16  9 24 21 40 42.6000000  0  9G30G18G 4G 5G20G24G13G15G21
  24906031.800       97673.2822       -510.296          41.000  
  22612473.843     -213647.628        2536.177          33.000  
  22078287.429     1815149.553       -1899.950          49.000  
  22853366.596     2563427.273       -2363.727          48.000  
  19949127.590     -428992.793         228.947          47.000  
  24964376.952    -1186754.4543       3716.453          21.000  
  20812652.627      247537.438        -550.817          49.000  
  20180669.643    -1808290.131        1282.802          49.000  
  21711033.113    -2755515.489        2372.694          50.000  
 16  9 24 21 40 42.8000000  0  9G30G18G 4G 5G20G24G13G15G21
  24906051.345       97775.2732       -510.013          41.000  
  22612377.065     -214154.841        2536.788          33.000  
  22078359.464     1815529.516       -1899.781          50.000  
  22853456.675     2563900.024       -2363.488          49.000  
  19949119.040     -429038.626         229.059          48.000  
  24964235.780    -1187497.6583       3713.547          21.000  
  20812673.638      247647.559        -550.415          49.000  
  20180620.784    -1808546.708        1283.068          50.000  
  21710942.861    -2755990.021        2372.732          50.000  
 16  9 24 21 40 43.0000000  0  9G30G18G 4G 5G20G24G13G15G21
  24906070.854       97877.2472       -509.828          41.000  
  22612280.426     -214662.147        2536.590          33.000  
  22078431.673     1815909.460       -1899.697          50.000  
  22853546.683     2564372.732       -2363.511          49.000  
  19949110.246     -429084.485         229.590          48.000  
  24964094.538    -1188240.1633       3707.990          21.000  
  20812694.788      247757.675        -550.005          49.000  
  20180571.818    -1808803.309        1282.789          49.000  
  21710852.644    -2756464.597        2372.989          50.000  
 16  9 24 21 40 43.2000000  0  9G30G18G 4G 5G20G24G13G15G21
  24906090.119       97979.2392       -510.509          41.000  
  22612183.717     -215169.428        2538.100          33.000  
  22078504.022     1816289.406       -1899.646          50.000  
  22853636.517     2564845.426       -2363.297          49.000  
  19949101.416     -429130.345         229.458          48.000  
  24963952.458    -1188982.7473       3716.532          21.000  
  20812715.798      247867.782        -550.772          49.000  
  20180522.958    -1809059.894        1282.828          49.000  
  21710762.182    -2756939.174        2372.940          50.000  
 16  9 24 21 40 43.4000000  0  9G30G18G 4G 5G20G24G13G15G21
  24906109.559       98081.2312       -510.634          41.000  
  22612086.974     -215676.671        2536.380          33.000  
  22078576.302     1816669.363       -1900.306          50.000  
  22853726.700     2565318.126       -2363.912          49.000  
  19949092.761     -429176.201         229.015          48.000  
  24963810.589    -1189724.6963       3706.564          21.000  
  20812736.879      247977.922        -551.078          49.000  
  20180474.063    -1809316.450        1282.362          49.000  
  21710671.930    -2757413.752        2372.159          50.000  
 16  9 24 21 40 43.6000000  0  9G30G18G 4G 5G20G24G13G15G21
  24906128.825       98183.2982       -510.573          41.000  
  22611990.300     -216183.902        2536.239          33.000  
  22078648.580     1817049.377       -1900.051          50.000  
  22853816.604     2565790.866       -2363.652          49.000  
  19949083.897     -429221.999         229.203          48.000  
  24963668.544    -1190465.5883       3703.875          21.000  
  20812757.854      248088.125        -551.205          49.000  
  20180425.237    -1809572.945        1282.507          49.000  
  21710581.817    -2757888.266        2372.662          50.000  
 16  9 24 21 40 43.8000000  0  9G30G18G 4G 5G20G24G13G15G21
  24906148.055       98285.3832       -510.237          41.000  
  22611893.522     -216691.106        2537.144          33.000  
  22078720.930     1817429.416       -1900.175          50.000  
  22853906.717     2566263.607       -2363.492          49.000  
  19949075.347     -429267.778         229.043          48.000  
  24963527.373    -1191207.8743       3712.835          21.000  
  20812778.725      248198.365        -550.933          49.000  
  20180376.657    -1809829.413        1282.634          49.000  
  21710491.461    -2758362.781        2373.034          50.000  
 16  9 24 21 40 44.0000000  0  9G30G18G 4G 5G20G24G13G15G21
  24906167.635       98387.4232       -509.971          41.000  
  22611797.057     -217198.411        2537.344          32.000  
  22078793.139     1817809.401       -1900.089          50.000  
  22853996.795     2566736.288       -2363.391          49.000  
  19949066.691     -429313.603         229.141          48.000  
  24963384.979    -1191950.3803       3709.068          21.000  
  20812799.875      248308.558        -550.847          49.000  
  20180327.971    -1810085.917        1282.832          49.000  
  21710401.069    -2758837.351        2372.895          50.000  
 16  9 24 21 40 44.2000000  0  9G30G18G 4G 5G20G24G13G15G21
  24906186.865       98489.5002       -510.509          41.000  
  22611700.487     -217705.666        2536.944          33.000  
  22078865.592     1818189.429       -1900.077          50.000  
  22854086.629     2567208.997       -2363.590          49.000  
  19949058.001     -429359.411         228.964          48.000  
  24963242.690    -1192692.5343       3712.710          21.000  
  20812820.640      248418.788        -551.330          49.000  
  20180279.040    -1810342.383        1282.205          49.000  
  21710310.537    -2759311.891        2372.504          50.000  
 16  9 24 21 40 44.4000000  0  9G30G18G 4G 5G20G24G13G15G21
  24906206.410       98591.6152       -510.840          41.000  
  22611603.884     -218212.908        2535.516          32.000  
  22078937.976     1818569.480       -1900.329          50.000  
  22854176.673     2567681.718       -2363.413          49.000  
  19949049.137     -429405.191         228.828          48.000  
  24963100.541    -1193434.8443       3710.674          21.000  
  20812841.756      248529.057        -551.443          49.000  
  20180230.320    -1810598.806        1282.239          49.000  
  21710220.111    -2759786.406        2372.878          50.000  
 16  9 24 21 40 44.6000000  0  9G30G18G 4G 5G20G24G13G15G21
  24906225.954       98693.7212       -509.951          41.000  
  22611507.070     -218720.175        2535.058          32.000  
  22079010.430     1818949.524       -1900.235          50.000  
  22854266.472     2568154.411       -2363.613          49.000  
  19949040.377     -429450.971         229.041          48.000  
  24962958.148    -1194176.3573       3707.096          21.000  
  20812862.592      248639.331        -551.339          49.000  
  20180181.564    -1810855.239        1282.216          49.000  
  21710129.719    -2760260.939        2372.779          50.000  
 16  9 24 21 40 44.8000000  0  9G30G18G 4G 5G20G24G13G15G21
  24906244.905       98795.8282       -510.476          41.000  
  22611410.570     -219227.459        2536.930          32.000  
  22079082.604     1819329.552       -1900.480          50.000  
  22854356.480     2568627.077       -2363.372          49.000  
  19949031.862     -429496.785         228.804          48.000  
  24962817.220    -1194917.9533       3712.027          22.000  
  20812883.567      248749.600        -551.261          49.000  
  20180132.808    -1811111.677        1281.709          49.000  
  21710039.431    -2760735.497        2372.525          50.000  
 16  9 24 21 40 45.0000000  0  9G30G18G 4G 5G20G24G13G15G21
  24906264.276       98897.9672       -510.683          41.000  
  22611314.001     -219734.730        2535.235          32.000  
  22079154.814     1819709.616       -1900.406          50.000  
  22854446.629     2569099.766       -2363.328          49.000  
  19949023.033     -429542.563         228.699          48.000  
  24962675.560    -1195660.5733       3715.861          22.000  
  20812904.613      248859.898        -551.660          49.000  
  20180083.983    -1811368.066        1281.665          49.000  
  21709949.249    -2761210.034        2372.583          50.000  
 16  9 24 21 40 45.2000000  0  9G30G18G 4G 5G20G24G13G15G21
  24906283.645       99000.1382       -510.610          41.000  
  22611217.397     -220241.986        2535.299          32.000  
  22079227.162     1820089.698       -1900.150          50.000  
  22854536.497     2569572.455       -2363.190          49.000  
  19949014.168     -429588.323         228.690          48.000  
  24962534.457    -1196402.7723       3703.097          21.000  
  20812925.692      248970.229        -551.544          49.000  
  20180035.297    -1811624.433        1282.199          49.000  
  21709858.787    -2761684.563        2372.751          50.000  
 16  9 24 21 40 45.4000000  0  9G30G18G 4G 5G20G24G13G15G21
  24906303.190       99102.3162       -510.289          41.000  
  22611120.759     -220749.238        2537.848          32.000  
  22079299.477     1820469.800       -1900.506          50.000  
  22854626.716     2570045.149       -2363.665          49.000  
  19949005.548     -429634.070         228.444          48.000  
  24962393.530    -1197144.1733       3711.289          22.000  
  20812946.808      249080.588        -552.006          49.000  
  20179986.577    -1811880.771        1282.029          50.000  
  21709768.605    -2762159.079        2372.459          50.000  
 16  9 24 21 40 45.6000000  0  9G30G18G 4G 5G20G24G13G15G21
  24906322.490       99204.5232       -511.347          41.000  
  22611024.224     -221256.523        2535.655          32.000  
  22079371.756     1820849.920       -1900.577          50.000  
  22854716.759     2570517.857       -2363.613          49.000  
  19948996.963     -429679.802         228.283          48.000  
  24962252.113    -1197886.8703       3708.136          22.000  
  20812967.713      249190.981        -552.077          49.000  
  20179937.856    -1812137.084        1281.278          50.000  
  21709678.493    -2762633.574        2372.390          50.000  
 16  9 24 21 40 45.8000000  0  9G30G18G 4G 5G20G24G13G15G21
  24906341.825       99306.7242       -511.642          40.000  
  22610927.689     -221763.755        2534.528          32.000  
  22079444.279     1821230.022       -1900.847          50.000  
  22854806.663     2570990.522       -2363.671          49.000  
  19948988.377     -429725.554         228.373          48.000  
  24962111.220    -1198628.4123       3707.136          22.000  
  20812988.933      249301.346        -552.176          49.000  
  20179889.135    -1812393.407        1281.327          50.000  
  21709588.205    -2763108.103        2372.622          50.000  
 16  9 24 21 40 46.0000000  0  9G30G18G 4G 5G20G24G13G15G21
  24906361.126       99408.9512       -511.020          40.000  
  22610831.225     -222271.022        2536.025          32.000  
  22079516.419     1821610.152       -1900.930          50.000  
  22854896.637     2571463.197       -2363.427          49.000  
  19948979.653     -429771.284         228.636          48.000  
  24961970.014    -1199371.4273       3717.293          22.000  
  20813010.118      249411.748        -552.151          49.000  
  20179840.310    -1812649.697        1281.193          50.000  
  21709497.709    -2763582.618        2372.446          50.000  
 16  9 24 21 40 46.2000000  0  9G30G18G 4G 5G20G24G13G15G21
  24906380.251       99511.1712       -510.446          40.000  
  22610734.691     -222778.305        2536.653          32.000  
  22079588.767     1821990.276       -1900.611          50.000  
  22854986.470     2571935.860       -2363.022          49.000  
  19948970.823     -429817.027         228.513          48.000  
  24961828.458    -1200113.4463       3708.971          22.000  
  20813031.024      249522.165        -552.013          49.000  
  20179791.519    -1812905.987        1281.400          50.000  
  21709407.317    -2764057.142        2372.632          50.000  
 16  9 24 21 40 46.4000000  0  9G30G18G 4G 5G20G24G13G15G21
  24906399.378       99613.4252       -511.331          40.000  
  22610638.122     -223285.593        2536.600          33.000  
  22079661.152     1822370.401       -1900.597          50.000  
  22855076.549     2572408.513       -2363.209          49.000  
  19948962.239     -429862.768         228.550          48.000  
  24961686.972    -1200856.2673       3705.929          22.000  
  20813052.034      249632.586        -552.039          49.000  
  20179742.660    -1813162.262        1281.312          50.000  
  21709316.856    -2764531.671        2372.414          50.000  
 16  9 24 21 40 46.6000000  0  9G30G18G 4G 5G20G24G13G15G21
  24906418.224       99715.6812       -511.436          40.000  
  22610541.588     -223792.843        2536.729          33.000  
  22079733.361     1822750.560       -1900.896          50.000  
  22855166.488     2572881.178       -2363.350          49.000  
  19948953.548     -429908.474         228.932          48.000  
  24961545.661    -1201598.0653       3712.303          22.000  
  20813072.975      249743.041        -552.608          49.000  
  20179693.973    -1813418.500        1281.002          50.000  
  21709226.638    -2765006.181        2372.544          50.000  
 16  9 24 21 40 46.8000000  0  9G30G18G 4G 5G20G24G13G15G21
  24906437.175       99817.9872       -511.939          39.000  
  22610445.123     -224300.152        2535.964          32.000  
  22079805.674     1823130.747       -1901.171          49.000  
  22855256.496     2573353.848       -2363.290          49.000  
  19948944.893     -429954.177         228.411          48.000  
  24961404.418    -1202340.1793       3710.835          22.000  
  20813094.229      249853.534        -552.632          49.000  
  20179645.252    -1813674.704        1280.956          50.000  
  21709136.072    -2765480.673        2372.205          50.000  
 16  9 24 21 40 47.0000000  0  9G30G18G 4G 5G20G24G13G15G21
  24906456.406       99920.2912       -511.683          39.000  
  22610348.414     -224807.362        2536.881          32.000  
  22079878.094     1823510.930       -1900.965          49.000  
  22855346.610     2573826.516       -2363.275          49.000  
  19948936.099     -429999.864         228.329          48.000  
  24961263.526    -1203082.4053       3711.720          22.000  
  20813115.135      249964.037        -552.507          49.000  
  20179596.497    -1813930.893        1281.125          50.000  
  21709045.855    -2765955.157        2372.723          50.000  
